[
  {
    "id": "7796",
    "name": "Bent Kettle Brewing Company",
    "brewery_type": "micro",
    "street": "1507 Montclair Pl",
    "city": "Fort Atkinson",
    "state": "Wisconsin",
    "postal_code": "53538-3102",
    "website_url": "http://www.bentkettle.com",
    "phone": "9203909038",
    "created_at": "2018-07-24 01:34:34.606567",
    "updated_at": "2018-08-24 16:42:06.305045",
    "country": "United States",
    "longitude": "-88.861232",
    "latitude": "42.9348495"
  },
  {
    "id": "7816",
    "name": "Bullquarian Brewhouse, LLC",
    "brewery_type": "brewpub",
    "street": "1128 17th Ave",
    "city": "Monroe",
    "state": "Wisconsin",
    "postal_code": "53566-2007",
    "website_url": "",
    "phone": "6084266720",
    "created_at": "2018-07-24 01:34:34.866586",
    "updated_at": "2018-08-24 16:42:25.901074",
    "country": "United States",
    "longitude": "-89.6383092995843",
    "latitude": "42.60032375"
  },
  {
    "id": "7820",
    "name": "City Brewing Co",
    "brewery_type": "regional",
    "street": "925 3rd St S",
    "city": "La Crosse",
    "state": "Wisconsin",
    "postal_code": "54601-4411",
    "website_url": "http://www.citybrewery.com",
    "phone": "6087854200",
    "created_at": "2018-07-24 01:34:34.919261",
    "updated_at": "2018-08-24 16:42:31.763932",
    "country": "United States",
    "longitude": "-91.2533504575855",
    "latitude": "43.8043552291685"
  },
  {
    "id": "7835",
    "name": "Driftless Brewing Co",
    "brewery_type": "micro",
    "street": "102 Sunbeam Blvd W",
    "city": "Soldiers Grove",
    "state": "Wisconsin",
    "postal_code": "54655-1001",
    "website_url": "http://www.driftlessbrewing.com",
    "phone": "66086245577",
    "created_at": "2018-07-24 01:34:35.147042",
    "updated_at": "2018-08-24 16:42:52.603301",
    "country": "United States",
    "longitude": "-90.7657183245046",
    "latitude": "43.3892199668922"
  },
  {
    "id": "7855",
    "name": "Good City Brewing Company",
    "brewery_type": "brewpub",
    "street": "2108 N Farwell Ave",
    "city": "Milwaukee",
    "state": "Wisconsin",
    "postal_code": "53202-1115",
    "website_url": "http://www.goodcitybrewing.com",
    "phone": "4145394173",
    "created_at": "2018-07-24 01:34:35.40765",
    "updated_at": "2018-08-24 16:43:18.152086",
    "country": "United States",
    "longitude": "-87.8889038",
    "latitude": "43.0565468"
  },
  {
    "id": "7864",
    "name": "Hinterland Brewery",
    "brewery_type": "micro",
    "street": "1001 Lombardi Ave",
    "city": "Green Bay",
    "state": "Wisconsin",
    "postal_code": "54304-3956",
    "website_url": "http://www.hinterlandbeer.com",
    "phone": "9204388050",
    "created_at": "2018-07-24 01:34:35.522198",
    "updated_at": "2018-08-24 16:43:32.279858",
    "country": "United States",
    "longitude": "-88.0489040625",
    "latitude": "44.498960015625"
  },
  {
    "id": "7865",
    "name": "Hop & Barrel Brewing Company LLC",
    "brewery_type": "micro",
    "street": "310 2nd St",
    "city": "Hudson",
    "state": "Wisconsin",
    "postal_code": "54016-1508",
    "website_url": "http://www.hopandbarrelbrewing.com",
    "phone": "6517959439",
    "created_at": "2018-07-24 01:34:35.534816",
    "updated_at": "2018-08-24 16:43:33.797457",
    "country": "United States",
    "longitude": "-92.756671162684",
    "latitude": "44.9732967107142"
  },
  {
    "id": "7881",
    "name": "Legends Brewhouse and Eatery (#1)",
    "brewery_type": "brewpub",
    "street": "2840 Shawano Ave",
    "city": "Green Bay",
    "state": "Wisconsin",
    "postal_code": "54313-6725",
    "website_url": "http://www.legendseatery.com",
    "phone": "9206621111",
    "created_at": "2018-07-24 01:34:35.740146",
    "updated_at": "2018-08-24 16:43:57.501792",
    "country": "United States",
    "longitude": "-88.036448",
    "latitude": "44.521795"
  },
  {
    "id": "7897",
    "name": "MobCraft Beer",
    "brewery_type": "proprietor",
    "street": "505 S 5th St",
    "city": "Milwaukee",
    "state": "Wisconsin",
    "postal_code": "53204-1518",
    "website_url": "http://www.mobcraftbeer.com",
    "phone": "6083463003",
    "created_at": "2018-07-24 01:34:35.951472",
    "updated_at": "2018-08-24 16:44:20.439424",
    "country": "United States",
    "longitude": "-87.916937387519",
    "latitude": "43.0261838359198"
  },
  {
    "id": "7912",
    "name": "O'so Brewing",
    "brewery_type": "micro",
    "street": "3028 Village Park Dr",
    "city": "Plover",
    "state": "Wisconsin",
    "postal_code": "54467-4300",
    "website_url": "http://www.osobrewing.com",
    "phone": "7152542163",
    "created_at": "2018-07-24 01:34:36.148086",
    "updated_at": "2018-08-24 16:44:39.019495",
    "country": "United States",
    "longitude": "-89.5234305300291",
    "latitude": "44.4534004372744"
  },
  {
    "id": "7920",
    "name": "Port Huron Brewing Co",
    "brewery_type": "micro",
    "street": "805 Business Park Dr",
    "city": "Wisconsin Dells",
    "state": "Wisconsin",
    "postal_code": "53965-9440",
    "website_url": "http://www.porthuronbeer.com",
    "phone": "6082530340",
    "created_at": "2018-07-24 01:34:36.255404",
    "updated_at": "2018-08-24 16:44:50.940089",
    "country": "United States",
    "longitude": "-89.7465766666667",
    "latitude": "43.6285166666667"
  },
  {
    "id": "7937",
    "name": "Rowlands Calumet Brewery Co (#2)",
    "brewery_type": "micro",
    "street": "57 School St",
    "city": "Chilton",
    "state": "Wisconsin",
    "postal_code": "53014-",
    "website_url": "",
    "phone": "9208492534",
    "created_at": "2018-07-24 01:34:36.472649",
    "updated_at": "2018-08-24 16:45:18.907925",
    "country": "United States",
    "longitude": "-88.164013274801",
    "latitude": "44.0291830997522"
  },
  {
    "id": "7939",
    "name": "Rush River Brewing Co",
    "brewery_type": "micro",
    "street": "990 Antler Ct",
    "city": "River Falls",
    "state": "Wisconsin",
    "postal_code": "54022-4880",
    "website_url": "http://www.rushriverbeer.com",
    "phone": "7154262054",
    "created_at": "2018-07-24 01:34:36.498543",
    "updated_at": "2018-08-24 16:45:20.381416",
    "country": "United States",
    "longitude": "-92.6386153347867",
    "latitude": "44.8911208"
  },
  {
    "id": "7953",
    "name": "Sprecher Brewing Co / Chameleon Brewing",
    "brewery_type": "micro",
    "street": "701 W Glendale Ave",
    "city": "Glendale",
    "state": "Wisconsin",
    "postal_code": "53209-6509",
    "website_url": "http://www.sprecherbrewery.com",
    "phone": "4149647837",
    "created_at": "2018-07-24 01:34:36.677349",
    "updated_at": "2018-08-24 16:45:39.187304",
    "country": "United States",
    "longitude": "-87.9196951139335",
    "latitude": "43.09929865"
  },
  {
    "id": "7981",
    "name": "Urban Harvest Brewing Company",
    "brewery_type": "micro",
    "street": "1024 S 5th St",
    "city": "Milwaukee",
    "state": "Wisconsin",
    "postal_code": "53204-1733",
    "website_url": "http://www.urbanharvestbrewing.com",
    "phone": "4142494074",
    "created_at": "2018-07-24 01:34:37.085527",
    "updated_at": "2018-08-24 16:46:14.451801",
    "country": "United States",
    "longitude": "-87.9167274897959",
    "latitude": "43.0208094081633"
  },
  {
    "id": "7856",
    "name": "Gray Brewing Co",
    "brewery_type": "micro",
    "street": "2424 W Court St",
    "city": "Janesville",
    "state": "Wisconsin",
    "postal_code": "53548",
    "website_url": "",
    "phone": "6087565430",
    "created_at": "2018-07-24 01:34:35.419903",
    "updated_at": "2018-08-24 16:43:19.671739",
    "country": "United States",
    "longitude": "-89.0497268926174",
    "latitude": "42.6793079395973"
  },
  {
    "id": "7968",
    "name": "The Fermentorium",
    "brewery_type": "brewpub",
    "street": "7481 Hwy 60",
    "city": "Cedarburg",
    "state": "Wisconsin",
    "postal_code": "53012-9702",
    "website_url": "",
    "phone": "",
    "created_at": "2018-07-24 01:34:36.873265",
    "updated_at": "2018-08-11 21:40:36.989641",
    "country": "United States",
    "longitude": "",
    "latitude": ""
  },
  {
    "id": "7957",
    "name": "SteelHead Aleworks",
    "brewery_type": "micro",
    "street": "",
    "city": "Mukwonago",
    "state": "Wisconsin",
    "postal_code": "53149",
    "website_url": "http://www.stealheadaleworks.com",
    "phone": "",
    "created_at": "2018-07-24 01:34:36.728969",
    "updated_at": "2018-08-11 21:40:36.602862",
    "country": "United States",
    "longitude": "",
    "latitude": ""
  },
  {
    "id": "7782",
    "name": "608 Brewing Company",
    "brewery_type": "planning",
    "street": "",
    "city": "La Crosse",
    "state": "Wisconsin",
    "postal_code": "54603",
    "website_url": "http://www.608brewingcompany.com",
    "phone": "",
    "created_at": "2018-07-24 01:34:34.420248",
    "updated_at": "2018-08-11 21:40:30.11109",
    "country": "United States",
    "longitude": "",
    "latitude": ""
  },
  {
    "id": "7785",
    "name": "Agonic Brewing Company LLC",
    "brewery_type": "planning",
    "street": "",
    "city": "Rice Lake",
    "state": "Wisconsin",
    "postal_code": "54868-8786",
    "website_url": "http://www.agonicbrewing.com",
    "phone": "7153089283",
    "created_at": "2018-07-24 01:34:34.464993",
    "updated_at": "2018-08-11 21:40:30.354742",
    "country": "United States",
    "longitude": "",
    "latitude": ""
  },
  {
    "id": "7793",
    "name": "Barley Johns Brewpub",
    "brewery_type": "brewpub",
    "street": "1280 Madison Ave",
    "city": "New Richmond",
    "state": "Wisconsin",
    "postal_code": "54017-2236",
    "website_url": "http://www.barleyjohnsbrewery.com",
    "phone": "7152464677",
    "created_at": "2018-07-24 01:34:34.569287",
    "updated_at": "2018-08-11 21:40:30.75098",
    "country": "United States",
    "longitude": "",
    "latitude": ""
  },
  {
    "id": "7798",
    "name": "Biloba Brewing",
    "brewery_type": "micro",
    "street": "18720 Pleasant St Stop 4",
    "city": "Brookfield",
    "state": "Wisconsin",
    "postal_code": "53045-3447",
    "website_url": "http://www.bilobabrewing.com",
    "phone": "2623095820",
    "created_at": "2018-07-24 01:34:34.631731",
    "updated_at": "2018-08-11 21:40:30.971821",
    "country": "United States",
    "longitude": "",
    "latitude": ""
  },
  {
    "id": "7800",
    "name": "Bloomer Brewing Co",
    "brewery_type": "micro",
    "street": "1526 Martin Rd Ste A",
    "city": "Bloomer",
    "state": "Wisconsin",
    "postal_code": "54724-1764",
    "website_url": "",
    "phone": "7152713967",
    "created_at": "2018-07-24 01:34:34.656904",
    "updated_at": "2018-08-11 21:40:31.038658",
    "country": "United States",
    "longitude": "",
    "latitude": ""
  },
  {
    "id": "7806",
    "name": "Brewery In Planning - Milwaukee",
    "brewery_type": "planning",
    "street": "",
    "city": "Milwaukee",
    "state": "Wisconsin",
    "postal_code": "53221",
    "website_url": "",
    "phone": "",
    "created_at": "2018-07-24 01:34:34.734953",
    "updated_at": "2018-08-11 21:40:31.17371",
    "country": "United States",
    "longitude": "",
    "latitude": ""
  },
  {
    "id": "7807",
    "name": "Brewery in Planning - Sparta",
    "brewery_type": "planning",
    "street": "",
    "city": "Sparta",
    "state": "Wisconsin",
    "postal_code": "54656-6736",
    "website_url": "",
    "phone": "7152529738",
    "created_at": "2018-07-24 01:34:34.747455",
    "updated_at": "2018-08-11 21:40:31.217878",
    "country": "United States",
    "longitude": "",
    "latitude": ""
  },
  {
    "id": "7808",
    "name": "Brewery in Planning - Wausau, WI",
    "brewery_type": "planning",
    "street": "",
    "city": "Wausau",
    "state": "Wisconsin",
    "postal_code": "54403",
    "website_url": "",
    "phone": "5128267012",
    "created_at": "2018-07-24 01:34:34.762256",
    "updated_at": "2018-08-11 21:40:31.284682",
    "country": "United States",
    "longitude": "",
    "latitude": ""
  },
  {
    "id": "7809",
    "name": "Brewery Resolute",
    "brewery_type": "planning",
    "street": "",
    "city": "Stevens Point",
    "state": "Wisconsin",
    "postal_code": "54481-1843",
    "website_url": "",
    "phone": "7153214617",
    "created_at": "2018-07-24 01:34:34.774614",
    "updated_at": "2018-08-11 21:40:31.333153",
    "country": "United States",
    "longitude": "",
    "latitude": ""
  },
  {
    "id": "7810",
    "name": "Brewfinity Brewing Co",
    "brewery_type": "brewpub",
    "street": "N58 W39800 Industrial Rd Ste D",
    "city": "Oconomowoc",
    "state": "Wisconsin",
    "postal_code": "53066",
    "website_url": "http://www.sweetmulletsbrewing.com",
    "phone": "2624562843",
    "created_at": "2018-07-24 01:34:34.787047",
    "updated_at": "2018-08-11 21:40:31.400204",
    "country": "United States",
    "longitude": "",
    "latitude": ""
  },
  {
    "id": "7811",
    "name": "BrewPlan, Inc.",
    "brewery_type": "planning",
    "street": "",
    "city": "Onalaska",
    "state": "Wisconsin",
    "postal_code": "54650",
    "website_url": "http://www.brewplan.com",
    "phone": "6083869430",
    "created_at": "2018-07-24 01:34:34.799434",
    "updated_at": "2018-08-11 21:40:31.440361",
    "country": "United States",
    "longitude": "",
    "latitude": ""
  },
  {
    "id": "7813",
    "name": "Broken Bat Brewing Company, LLC",
    "brewery_type": "micro",
    "street": "231 E Buffalo St Lowr UNIT",
    "city": "Milwaukee",
    "state": "Wisconsin",
    "postal_code": "53202-5727",
    "website_url": "http://www.brokenbatbrewery.com",
    "phone": "4143169197",
    "created_at": "2018-07-24 01:34:34.826345",
    "updated_at": "2018-08-11 21:40:31.585495",
    "country": "United States",
    "longitude": "",
    "latitude": ""
  },
  {
    "id": "7780",
    "name": "1840 Brewing Company",
    "brewery_type": "micro",
    "street": "342 E Ward St",
    "city": "Milwaukee",
    "state": "Wisconsin",
    "postal_code": "53207-1348",
    "website_url": "http://www.1840brewing.com",
    "phone": "4142364056",
    "created_at": "2018-07-24 01:34:34.393136",
    "updated_at": "2018-08-24 16:41:45.251754",
    "country": "United States",
    "longitude": "-87.9060694231764",
    "latitude": "43.004362417813"
  },
  {
    "id": "7781",
    "name": "3 Sheeps Brewing Co",
    "brewery_type": "micro",
    "street": "1837 North Ave",
    "city": "Sheboygan",
    "state": "Wisconsin",
    "postal_code": "53083-4620",
    "website_url": "http://www.3sheepsbrewing.com",
    "phone": "9209469715",
    "created_at": "2018-07-24 01:34:34.406624",
    "updated_at": "2018-08-24 16:41:46.799861",
    "country": "United States",
    "longitude": "-87.730065244898",
    "latitude": "43.7738456122449"
  },
  {
    "id": "7783",
    "name": "841 Brewhouse",
    "brewery_type": "brewpub",
    "street": "841 E Milwaukee St",
    "city": "Whitewater",
    "state": "Wisconsin",
    "postal_code": "53190-2126",
    "website_url": "",
    "phone": "2624738000",
    "created_at": "2018-07-24 01:34:34.433305",
    "updated_at": "2018-08-24 16:41:48.283559",
    "country": "United States",
    "longitude": "-88.7142734423486",
    "latitude": "42.8323014016847"
  },
  {
    "id": "7784",
    "name": "8th Street Ale Haus",
    "brewery_type": "brewpub",
    "street": "1132 N 8th St",
    "city": "Sheboygan",
    "state": "Wisconsin",
    "postal_code": "53081-3402",
    "website_url": "http://www.sheboyganalehaus.com",
    "phone": "9202087540",
    "created_at": "2018-07-24 01:34:34.448893",
    "updated_at": "2018-08-24 16:41:49.804785",
    "country": "United States",
    "longitude": "-87.7130570204082",
    "latitude": "43.7567439183673"
  },
  {
    "id": "7787",
    "name": "Ale Asylum",
    "brewery_type": "regional",
    "street": "2002 Pankratz St",
    "city": "Madison",
    "state": "Wisconsin",
    "postal_code": "53704-4024",
    "website_url": "http://www.aleasylum.com",
    "phone": "6086633926",
    "created_at": "2018-07-24 01:34:34.491886",
    "updated_at": "2018-08-24 16:41:52.715595",
    "country": "United States",
    "longitude": "-89.3541628513683",
    "latitude": "43.12046815"
  },
  {
    "id": "7788",
    "name": "ALT Brew / Greenview Brewing LLC",
    "brewery_type": "brewpub",
    "street": "1808 Wright St",
    "city": "Madison",
    "state": "Wisconsin",
    "postal_code": "53704-2522",
    "website_url": "http://www.altbrew.com",
    "phone": "6083523373",
    "created_at": "2018-07-24 01:34:34.504366",
    "updated_at": "2018-08-24 16:41:54.256933",
    "country": "United States",
    "longitude": "-89.33026",
    "latitude": "43.1257630536673"
  },
  {
    "id": "7789",
    "name": "Angry Minnow, The",
    "brewery_type": "brewpub",
    "street": "10440 Florida Ave",
    "city": "Hayward",
    "state": "Wisconsin",
    "postal_code": "54843-7112",
    "website_url": "http://www.angryminnow.com",
    "phone": "7159343055",
    "created_at": "2018-07-24 01:34:34.517372",
    "updated_at": "2018-08-24 16:41:55.714384",
    "country": "United States",
    "longitude": "-91.4887672",
    "latitude": "46.0104853"
  },
  {
    "id": "7790",
    "name": "Appleton Beer Factory",
    "brewery_type": "brewpub",
    "street": "603 W College Ave",
    "city": "Appleton",
    "state": "Wisconsin",
    "postal_code": "54911-5803",
    "website_url": "http://www.appletonbeerfactory.com",
    "phone": "9203649931",
    "created_at": "2018-07-24 01:34:34.529992",
    "updated_at": "2018-08-24 16:41:57.265472",
    "country": "United States",
    "longitude": "-88.4139147959184",
    "latitude": "44.2617360204082"
  },
  {
    "id": "7791",
    "name": "Badger State Brewing Company",
    "brewery_type": "micro",
    "street": "990 Tony Canadeo Run",
    "city": "Green Bay",
    "state": "Wisconsin",
    "postal_code": "54304-3762",
    "website_url": "http://www.badgerstatebrewing.com",
    "phone": "9205435320",
    "created_at": "2018-07-24 01:34:34.543649",
    "updated_at": "2018-08-24 16:41:58.724746",
    "country": "United States",
    "longitude": "-88.0513647272727",
    "latitude": "44.4966971818182"
  },
  {
    "id": "7792",
    "name": "Bare Bones Brewery",
    "brewery_type": "brewpub",
    "street": "4362 County Rd S",
    "city": "Oshkosh",
    "state": "Wisconsin",
    "postal_code": "54904-9575",
    "website_url": "http://www.barebonesbrewery.us",
    "phone": "9207448045",
    "created_at": "2018-07-24 01:34:34.556442",
    "updated_at": "2018-08-24 16:42:00.28391",
    "country": "United States",
    "longitude": "-88.5907535444312",
    "latitude": "44.0785645737559"
  },
  {
    "id": "7794",
    "name": "Bavarian Bierhaus",
    "brewery_type": "brewpub",
    "street": "700 W Lexington Blvd",
    "city": "Glendale",
    "state": "Wisconsin",
    "postal_code": "53217-4912",
    "website_url": "http://www.thebavarianbierhaus.com",
    "phone": "4142367000",
    "created_at": "2018-07-24 01:34:34.581889",
    "updated_at": "2018-08-24 16:42:03.329029",
    "country": "United States",
    "longitude": "-87.9192300902041",
    "latitude": "43.1141584541142"
  },
  {
    "id": "7795",
    "name": "Benjamin Beer Co",
    "brewery_type": "micro",
    "street": "507 6th St",
    "city": "Racine",
    "state": "Wisconsin",
    "postal_code": "53403-1117",
    "website_url": "http://www.benjaminbeer.com",
    "phone": "2625832034",
    "created_at": "2018-07-24 01:34:34.594387",
    "updated_at": "2018-08-24 16:42:04.814493",
    "country": "United States",
    "longitude": "-87.78630171617",
    "latitude": "42.7264151187199"
  },
  {
    "id": "7799",
    "name": "Black Husky Brewing LLC",
    "brewery_type": "micro",
    "street": "909 E Locust St",
    "city": "Milwaukee",
    "state": "Wisconsin",
    "postal_code": "53212",
    "website_url": "http://www.blackhuskybrewing.com",
    "phone": "4045098855",
    "created_at": "2018-07-24 01:34:34.64459",
    "updated_at": "2018-08-24 16:42:10.931143",
    "country": "United States",
    "longitude": "-87.9000845699775",
    "latitude": "43.071024"
  },
  {
    "id": "7802",
    "name": "Bobtown Brewhouse & Grill",
    "brewery_type": "brewpub",
    "street": "220 W Main St",
    "city": "Roberts",
    "state": "Wisconsin",
    "postal_code": "54023",
    "website_url": "http://www.bobtownbrewhouse.com",
    "phone": "7153381046",
    "created_at": "2018-07-24 01:34:34.681963",
    "updated_at": "2018-08-24 16:42:15.421309",
    "country": "United States",
    "longitude": "-92.55599",
    "latitude": "44.983639"
  },
  {
    "id": "7803",
    "name": "Brewery Creek Inn, Restaurant and Brewery",
    "brewery_type": "brewpub",
    "street": "23 Commerce St",
    "city": "Mineral Point",
    "state": "Wisconsin",
    "postal_code": "53565-1368",
    "website_url": "http://www.brewerycreek.com",
    "phone": "6089873298",
    "created_at": "2018-07-24 01:34:34.695534",
    "updated_at": "2018-08-24 16:42:16.896923",
    "country": "United States",
    "longitude": "-90.1771217926162",
    "latitude": "42.8572996240752"
  },
  {
    "id": "7812",
    "name": "Brewster Bros Brewing Co",
    "brewery_type": "micro",
    "street": "402 W River St",
    "city": "Chippewa Falls",
    "state": "Wisconsin",
    "postal_code": "54729-2355",
    "website_url": "http://www.chippewariverdistillery.com/beer/",
    "phone": "7158615100",
    "created_at": "2018-07-24 01:34:34.812297",
    "updated_at": "2018-08-24 16:42:19.861181",
    "country": "United States",
    "longitude": "-91.3964659335745",
    "latitude": "44.9317946202386"
  },
  {
    "id": "7814",
    "name": "Buffalo Water Beer Co",
    "brewery_type": "contract",
    "street": "309 N Water St, #315",
    "city": "Milwaukee",
    "state": "Wisconsin",
    "postal_code": "53202-5710",
    "website_url": "http://www.buffalowaterbeer.com",
    "phone": "4142734680",
    "created_at": "2018-07-24 01:34:34.839281",
    "updated_at": "2018-08-24 16:42:22.911093",
    "country": "United States",
    "longitude": "-87.9092089",
    "latitude": "43.0341323"
  },
  {
    "id": "7815",
    "name": "Bull Falls Brewery LLC",
    "brewery_type": "micro",
    "street": "901 E Thomas St",
    "city": "Wausau",
    "state": "Wisconsin",
    "postal_code": "54403-6450",
    "website_url": "http://www.bullfallsbrewery.com",
    "phone": "715842",
    "created_at": "2018-07-24 01:34:34.852842",
    "updated_at": "2018-08-24 16:42:24.404552",
    "country": "United States",
    "longitude": "-89.6174386",
    "latitude": "44.951511"
  },
  {
    "id": "7824",
    "name": "Component Brewing Co",
    "brewery_type": "micro",
    "street": "2018 S 1st St Ste 207",
    "city": "Milwaukee",
    "state": "Wisconsin",
    "postal_code": "53207",
    "website_url": "http://www.componentbrewing.com",
    "phone": "4149791088",
    "created_at": "2018-07-24 01:34:34.974737",
    "updated_at": "2018-08-11 21:40:31.990621",
    "country": "United States",
    "longitude": "",
    "latitude": ""
  },
  {
    "id": "7826",
    "name": "Corner Pub",
    "brewery_type": "brewpub",
    "street": "100 E Main St Lowr",
    "city": "Reedsburg",
    "state": "Wisconsin",
    "postal_code": "53959-1967",
    "website_url": "",
    "phone": "6085248989",
    "created_at": "2018-07-24 01:34:35.005224",
    "updated_at": "2018-08-11 21:40:32.043811",
    "country": "United States",
    "longitude": "",
    "latitude": ""
  },
  {
    "id": "7832",
    "name": "Dissident Brewing",
    "brewery_type": "planning",
    "street": "",
    "city": "Milwaukee",
    "state": "Wisconsin",
    "postal_code": "53207-3221",
    "website_url": "http://www.dissidentbrewing.com",
    "phone": "4145171845",
    "created_at": "2018-07-24 01:34:35.110749",
    "updated_at": "2018-08-11 21:40:32.254258",
    "country": "United States",
    "longitude": "",
    "latitude": ""
  },
  {
    "id": "7838",
    "name": "East Troy Brewery",
    "brewery_type": "planning",
    "street": "",
    "city": "East Troy",
    "state": "Wisconsin",
    "postal_code": "53120-1245",
    "website_url": "http://www.etbrew.com",
    "phone": "2624703026",
    "created_at": "2018-07-24 01:34:35.183433",
    "updated_at": "2018-08-11 21:40:32.442507",
    "country": "United States",
    "longitude": "",
    "latitude": ""
  },
  {
    "id": "7839",
    "name": "Enlightened Brewing Company",
    "brewery_type": "micro",
    "street": "2018 S 1st St Ste 170",
    "city": "Milwaukee",
    "state": "Wisconsin",
    "postal_code": "53207-1102",
    "website_url": "http://www.enlightenedbeer.com",
    "phone": "4143646225",
    "created_at": "2018-07-24 01:34:35.197251",
    "updated_at": "2018-08-11 21:40:32.482526",
    "country": "United States",
    "longitude": "",
    "latitude": ""
  },
  {
    "id": "7845",
    "name": "Fox Head Brewing LLC",
    "brewery_type": "micro",
    "street": "2132 S West Ave",
    "city": "Waukesha",
    "state": "Wisconsin",
    "postal_code": "53189-7917",
    "website_url": "",
    "phone": "4146510504",
    "created_at": "2018-07-24 01:34:35.272808",
    "updated_at": "2018-08-11 21:40:32.682342",
    "country": "United States",
    "longitude": "",
    "latitude": ""
  },
  {
    "id": "7847",
    "name": "Fox River Brewing Co and Restaurant",
    "brewery_type": "brewpub",
    "street": "4301 W Wisconsin Ave Ste 189",
    "city": "Appleton",
    "state": "Wisconsin",
    "postal_code": "54913-6530",
    "website_url": "http://www.supplerestaurantgroup.com",
    "phone": "9209910000",
    "created_at": "2018-07-24 01:34:35.29962",
    "updated_at": "2018-08-11 21:40:32.754383",
    "country": "United States",
    "longitude": "",
    "latitude": ""
  },
  {
    "id": "7848",
    "name": "Foxtown Brewing",
    "brewery_type": "planning",
    "street": "",
    "city": "Mequon",
    "state": "Wisconsin",
    "postal_code": "53097-2206",
    "website_url": "",
    "phone": "",
    "created_at": "2018-07-24 01:34:35.312992",
    "updated_at": "2018-08-11 21:40:32.800798",
    "country": "United States",
    "longitude": "",
    "latitude": ""
  },
  {
    "id": "7852",
    "name": "Geneva Lake Brewing Co",
    "brewery_type": "micro",
    "street": "750 Veterans Pkwy Unit 107",
    "city": "Lake Geneva",
    "state": "Wisconsin",
    "postal_code": "53147-4950",
    "website_url": "http://www.genevalakebrewingcompany.com",
    "phone": "2622154955",
    "created_at": "2018-07-24 01:34:35.36916",
    "updated_at": "2018-08-11 21:40:32.976511",
    "country": "United States",
    "longitude": "",
    "latitude": ""
  },
  {
    "id": "7853",
    "name": "Giant Jones Brewing LLC",
    "brewery_type": "micro",
    "street": "931 E Main St Suite 9",
    "city": "Madison ",
    "state": "Wisconsin",
    "postal_code": "53703",
    "website_url": "http://Www.giantjones.com",
    "phone": "6086205172",
    "created_at": "2018-07-24 01:34:35.382166",
    "updated_at": "2018-08-11 21:40:33.035376",
    "country": "United States",
    "longitude": "",
    "latitude": ""
  },
  {
    "id": "7857",
    "name": "Great Dane Pub and Brewing Co - Downtown",
    "brewery_type": "brewpub",
    "street": "123 E Doty St Ste 1",
    "city": "Madison",
    "state": "Wisconsin",
    "postal_code": "53703-5134",
    "website_url": "http://www.greatdanepub.com",
    "phone": "6082840000",
    "created_at": "2018-07-24 01:34:35.432163",
    "updated_at": "2018-08-11 21:40:33.151166",
    "country": "United States",
    "longitude": "",
    "latitude": ""
  },
  {
    "id": "7818",
    "name": "Central Waters Brewing Co",
    "brewery_type": "regional",
    "street": "351 Allen St",
    "city": "Amherst",
    "state": "Wisconsin",
    "postal_code": "54406-8954",
    "website_url": "http://www.centralwaters.com",
    "phone": "7158242739",
    "created_at": "2018-07-24 01:34:34.892416",
    "updated_at": "2018-08-24 16:42:28.805883",
    "country": "United States",
    "longitude": "-89.2797018161119",
    "latitude": "44.4422503"
  },
  {
    "id": "7819",
    "name": "Cercis Brewing Company",
    "brewery_type": "micro",
    "street": "106 N Dickason Blvd",
    "city": "Columbus",
    "state": "Wisconsin",
    "postal_code": "53925-",
    "website_url": "",
    "phone": "9203500500",
    "created_at": "2018-07-24 01:34:34.905479",
    "updated_at": "2018-08-24 16:42:30.272155",
    "country": "United States",
    "longitude": "-89.0154292244898",
    "latitude": "43.339077877551"
  },
  {
    "id": "7821",
    "name": "City Lights Brewing Co.",
    "brewery_type": "micro",
    "street": "2200 W Mount Vernon Ave",
    "city": "Milwaukee",
    "state": "Wisconsin",
    "postal_code": "53233-2672",
    "website_url": "http://www.citylightsbrewing.com",
    "phone": "4145209692",
    "created_at": "2018-07-24 01:34:34.932288",
    "updated_at": "2018-08-24 16:42:33.337047",
    "country": "United States",
    "longitude": "-88.0118646",
    "latitude": "43.0339815"
  },
  {
    "id": "7822",
    "name": "City Service Brewing",
    "brewery_type": "micro",
    "street": "404 Main St",
    "city": "Darlington",
    "state": "Wisconsin",
    "postal_code": "53530-1428",
    "website_url": "http://www.cityservicebrewing.wixsite.com",
    "phone": "",
    "created_at": "2018-07-24 01:34:34.94646",
    "updated_at": "2018-08-24 16:42:34.810419",
    "country": "United States",
    "longitude": "-90.1178715510204",
    "latitude": "42.6802841836735"
  },
  {
    "id": "7823",
    "name": "Company Brewing Co",
    "brewery_type": "brewpub",
    "street": "735 E Center St",
    "city": "Milwaukee",
    "state": "Wisconsin",
    "postal_code": "53212-2944",
    "website_url": "",
    "phone": "4149300909",
    "created_at": "2018-07-24 01:34:34.962243",
    "updated_at": "2018-08-24 16:42:36.293092",
    "country": "United States",
    "longitude": "-87.901820861198",
    "latitude": "43.0672919"
  },
  {
    "id": "7825",
    "name": "Copper State Brewing Co",
    "brewery_type": "brewpub",
    "street": "313 Dousman St",
    "city": "Green Bay",
    "state": "Wisconsin",
    "postal_code": "54303-2713",
    "website_url": "http://www.copperstate.beer",
    "phone": "9204898575",
    "created_at": "2018-07-24 01:34:34.987291",
    "updated_at": "2018-08-24 16:42:39.278246",
    "country": "United States",
    "longitude": "-88.0191605414824",
    "latitude": "44.5189616395188"
  },
  {
    "id": "7827",
    "name": "Courthouse Pub",
    "brewery_type": "brewpub",
    "street": "1001 S 8th St",
    "city": "Manitowoc",
    "state": "Wisconsin",
    "postal_code": "54220-5307",
    "website_url": "http://www.courthousepub.com",
    "phone": "9206861166",
    "created_at": "2018-07-24 01:34:35.045739",
    "updated_at": "2018-08-24 16:42:42.247265",
    "country": "United States",
    "longitude": "-87.657895875",
    "latitude": "44.089506375"
  },
  {
    "id": "7828",
    "name": "Cross Plains Brewery Inc.",
    "brewery_type": "contract",
    "street": "2109 Hickory St",
    "city": "Cross Plains",
    "state": "Wisconsin",
    "postal_code": "53528-9700",
    "website_url": "http://www.essersbest.com",
    "phone": "6087983911",
    "created_at": "2018-07-24 01:34:35.059579",
    "updated_at": "2018-08-24 16:42:43.709016",
    "country": "United States",
    "longitude": "-89.6529392177922",
    "latitude": "43.1142776522926"
  },
  {
    "id": "7829",
    "name": "Dave's Brew Farm",
    "brewery_type": "micro",
    "street": "2470 Wilson St",
    "city": "Wilson",
    "state": "Wisconsin",
    "postal_code": "54027-3950",
    "website_url": "http://www.brewfarm.com",
    "phone": "6124328130",
    "created_at": "2018-07-24 01:34:35.072483",
    "updated_at": "2018-08-24 16:42:45.19276",
    "country": "United States",
    "longitude": "-92.176188",
    "latitude": "44.959339"
  },
  {
    "id": "7830",
    "name": "Dead Bird Brewing Company",
    "brewery_type": "contract",
    "street": "4539 Helgesen Dr",
    "city": "Madison",
    "state": "Wisconsin",
    "postal_code": "53718-6747",
    "website_url": "http://www.deadbirdbrewing.com",
    "phone": "",
    "created_at": "2018-07-24 01:34:35.084617",
    "updated_at": "2018-08-24 16:42:46.639182",
    "country": "United States",
    "longitude": "-89.305331202224",
    "latitude": "43.0662949"
  },
  {
    "id": "7831",
    "name": "Delafield Brewhaus",
    "brewery_type": "brewpub",
    "street": "3832 Hillside Dr",
    "city": "Delafield",
    "state": "Wisconsin",
    "postal_code": "53018-2174",
    "website_url": "http://www.delafield-brewhaus.com",
    "phone": "2626467821",
    "created_at": "2018-07-24 01:34:35.098326",
    "updated_at": "2018-08-24 16:42:48.091581",
    "country": "United States",
    "longitude": "-88.350304",
    "latitude": "43.048373"
  },
  {
    "id": "7833",
    "name": "District 14 Brewery & Pub",
    "brewery_type": "brewpub",
    "street": "2273 S Howell Ave",
    "city": "Milwaukee",
    "state": "Wisconsin",
    "postal_code": "53207-1325",
    "website_url": "",
    "phone": "4147440399",
    "created_at": "2018-07-24 01:34:35.122585",
    "updated_at": "2018-08-24 16:42:49.65259",
    "country": "United States",
    "longitude": "-87.9095587",
    "latitude": "42.9581912"
  },
  {
    "id": "7836",
    "name": "Eagle Park Brewing Company",
    "brewery_type": "brewpub",
    "street": "823 E Hamilton St",
    "city": "Milwaukee",
    "state": "Wisconsin",
    "postal_code": "53202",
    "website_url": "http://www.eagleparkbrewing.com",
    "phone": "4145850123",
    "created_at": "2018-07-24 01:34:35.159329",
    "updated_at": "2018-08-24 16:42:54.112049",
    "country": "United States",
    "longitude": "-87.9014396124632",
    "latitude": "43.0542106"
  },
  {
    "id": "7837",
    "name": "Earth Rider Brewing Co",
    "brewery_type": "micro",
    "street": "1617 N 3rd St",
    "city": "Superior",
    "state": "Wisconsin",
    "postal_code": "54880-1016",
    "website_url": "http://www.earthrider.beer",
    "phone": "7153947391",
    "created_at": "2018-07-24 01:34:35.171316",
    "updated_at": "2018-08-24 16:42:55.623853",
    "country": "United States",
    "longitude": "-92.1011774897959",
    "latitude": "46.7352811632653"
  },
  {
    "id": "7840",
    "name": "Fat Boy Brewing Co",
    "brewery_type": "contract",
    "street": "2851 S Stratton Dr",
    "city": "Milwaukee",
    "state": "Wisconsin",
    "postal_code": "53219-2759",
    "website_url": "http://www.fatboybeer.com",
    "phone": "4147616366",
    "created_at": "2018-07-24 01:34:35.209884",
    "updated_at": "2018-08-24 16:42:58.598466",
    "country": "United States",
    "longitude": "-88.013008100964",
    "latitude": "42.9922707920844"
  },
  {
    "id": "7841",
    "name": "Ffats Brewing Co - Production Only",
    "brewery_type": "micro",
    "street": "36447 Main St",
    "city": "Whitehall",
    "state": "Wisconsin",
    "postal_code": "54773-9108",
    "website_url": "http://www.ffatsbrewing.com",
    "phone": "7155383162",
    "created_at": "2018-07-24 01:34:35.222642",
    "updated_at": "2018-08-24 16:43:00.062",
    "country": "United States",
    "longitude": "-91.3167513033617",
    "latitude": "44.3712155010867"
  },
  {
    "id": "7842",
    "name": "Fifth Ward Brewing Company",
    "brewery_type": "micro",
    "street": "1009 S Main St",
    "city": "Oshkosh",
    "state": "Wisconsin",
    "postal_code": "54902-6019",
    "website_url": "http://www.fifthwardbrewing.com",
    "phone": "9204791876",
    "created_at": "2018-07-24 01:34:35.234927",
    "updated_at": "2018-08-24 16:43:01.607405",
    "country": "United States",
    "longitude": "-88.5408574",
    "latitude": "44.0206919"
  },
  {
    "id": "7843",
    "name": "Flix Brewhouse - Madison",
    "brewery_type": "brewpub",
    "street": "85 East Towne Mall",
    "city": "Madison",
    "state": "Wisconsin",
    "postal_code": "53704",
    "website_url": "",
    "phone": "5122442739",
    "created_at": "2018-07-24 01:34:35.247522",
    "updated_at": "2018-08-24 16:43:03.123911",
    "country": "United States",
    "longitude": "-89.3040968034347",
    "latitude": "43.1283021039365"
  },
  {
    "id": "7844",
    "name": "Fountain City Brewing Co / Monarch Public House",
    "brewery_type": "contract",
    "street": "19 N Main St",
    "city": "Fountain City",
    "state": "Wisconsin",
    "postal_code": "54629-",
    "website_url": "http://www.monarchtavern.com",
    "phone": "6086874231",
    "created_at": "2018-07-24 01:34:35.260158",
    "updated_at": "2018-08-24 16:43:04.643645",
    "country": "United States",
    "longitude": "-91.717370392497",
    "latitude": "44.1312440098884"
  },
  {
    "id": "7846",
    "name": "Fox River Brewing Co",
    "brewery_type": "brewpub",
    "street": "1501 Arboretum Dr",
    "city": "Oshkosh",
    "state": "Wisconsin",
    "postal_code": "54901-2791",
    "website_url": "http://www.foxriverbrewing.com",
    "phone": "9202322337",
    "created_at": "2018-07-24 01:34:35.285637",
    "updated_at": "2018-08-24 16:43:07.65325",
    "country": "United States",
    "longitude": "-88.560941",
    "latitude": "44.036512"
  },
  {
    "id": "7850",
    "name": "Furthermore Beer",
    "brewery_type": "contract",
    "street": "320 Pierce St",
    "city": "Black River Falls",
    "state": "Wisconsin",
    "postal_code": "54615",
    "website_url": "http://www.furthermorebeer.com",
    "phone": "6085883300",
    "created_at": "2018-07-24 01:34:35.34242",
    "updated_at": "2018-08-24 16:43:12.04878",
    "country": "United States",
    "longitude": "-90.8511552303856",
    "latitude": "44.2927912590671"
  },
  {
    "id": "7851",
    "name": "Gathering Place Brewing Company",
    "brewery_type": "micro",
    "street": "811 E Vienna Ave",
    "city": "Milwaukee",
    "state": "Wisconsin",
    "postal_code": "53212-1775",
    "website_url": "http://www.gatheringplacebrewing.com",
    "phone": "4143646328",
    "created_at": "2018-07-24 01:34:35.355699",
    "updated_at": "2018-08-24 16:43:13.546854",
    "country": "United States",
    "longitude": "-87.9010744489796",
    "latitude": "43.0857358979592"
  },
  {
    "id": "7859",
    "name": "Great Dane Pub and Brewing Co -- Hilldale",
    "brewery_type": "brewpub",
    "street": "357 Price Pl",
    "city": "Madison",
    "state": "Wisconsin",
    "postal_code": "53705-3208",
    "website_url": "http://www.greatdanepub.com",
    "phone": "6086619400",
    "created_at": "2018-07-24 01:34:35.458983",
    "updated_at": "2018-08-24 16:43:24.455979",
    "country": "United States",
    "longitude": "-89.4524381815434",
    "latitude": "43.0706137534088"
  },
  {
    "id": "7860",
    "name": "Great Dane Pub and Brewing Co- Wausau",
    "brewery_type": "brewpub",
    "street": "2305 Sherman St",
    "city": "Wausau",
    "state": "Wisconsin",
    "postal_code": "54401-1708",
    "website_url": "http://www.greatdanepub.com",
    "phone": "7158453000",
    "created_at": "2018-07-24 01:34:35.471777",
    "updated_at": "2018-08-24 16:43:25.977859",
    "country": "United States",
    "longitude": "-89.6648256841412",
    "latitude": "44.9511963"
  },
  {
    "id": "7861",
    "name": "Grumpy Troll, The",
    "brewery_type": "micro",
    "street": "105 S 2nd St",
    "city": "Mount Horeb",
    "state": "Wisconsin",
    "postal_code": "53572-2105",
    "website_url": "http://www.thegrumpytroll.com",
    "phone": "6084372739",
    "created_at": "2018-07-24 01:34:35.484492",
    "updated_at": "2018-08-24 16:43:27.471949",
    "country": "United States",
    "longitude": "-89.7383040408163",
    "latitude": "43.0084144285714"
  },
  {
    "id": "7862",
    "name": "Highholder Brewing Company",
    "brewery_type": "micro",
    "street": "2211 Oregon St",
    "city": "Oshkosh",
    "state": "Wisconsin",
    "postal_code": "54902-7001",
    "website_url": "http://www.highholderbrewing.com",
    "phone": "9207445122",
    "created_at": "2018-07-24 01:34:35.496862",
    "updated_at": "2018-08-24 16:43:29.002634",
    "country": "United States",
    "longitude": "-88.5425973061224",
    "latitude": "43.9938571836735"
  },
  {
    "id": "7863",
    "name": "Hillsboro Brewing Company",
    "brewery_type": "brewpub",
    "street": "815 Water Ave",
    "city": "Hillsboro",
    "state": "Wisconsin",
    "postal_code": "54634-6213",
    "website_url": "http://www.hillsborobrewingcompany.com",
    "phone": "6084897486",
    "created_at": "2018-07-24 01:34:35.509745",
    "updated_at": "2018-08-24 16:43:30.492443",
    "country": "United States",
    "longitude": "-90.3398480714286",
    "latitude": "43.6506641632653"
  },
  {
    "id": "7866",
    "name": "Hop Garden Brewing",
    "brewery_type": "contract",
    "street": "N8668 County Road D",
    "city": "Belleville",
    "state": "Wisconsin",
    "postal_code": "53508-9626",
    "website_url": "http://www.thehopgarden.net",
    "phone": "6085169649",
    "created_at": "2018-07-24 01:34:35.547307",
    "updated_at": "2018-08-11 21:40:33.500015",
    "country": "United States",
    "longitude": "",
    "latitude": ""
  },
  {
    "id": "7870",
    "name": "Hubbleton Brewing",
    "brewery_type": "micro",
    "street": "W10445 Hubbleton Rd",
    "city": "Waterloo",
    "state": "Wisconsin",
    "postal_code": "53594",
    "website_url": "",
    "phone": "9202537141",
    "created_at": "2018-07-24 01:34:35.598573",
    "updated_at": "2018-08-11 21:40:33.658509",
    "country": "United States",
    "longitude": "",
    "latitude": ""
  },
  {
    "id": "7880",
    "name": "Lazy Monk Brewing",
    "brewery_type": "micro",
    "street": "320 Putnam St Unit 4",
    "city": "Eau Claire",
    "state": "Wisconsin",
    "postal_code": "54703-3896",
    "website_url": "http://www.lazymonkbrewing.com",
    "phone": "7152710848",
    "created_at": "2018-07-24 01:34:35.726492",
    "updated_at": "2018-08-11 21:40:34.025044",
    "country": "United States",
    "longitude": "",
    "latitude": ""
  },
  {
    "id": "7888",
    "name": "McFleshman's Public House",
    "brewery_type": "planning",
    "street": "",
    "city": "Appleton",
    "state": "Wisconsin",
    "postal_code": "54911-5840",
    "website_url": "http://www.mcfleshmans.com",
    "phone": "4056270167",
    "created_at": "2018-07-24 01:34:35.834223",
    "updated_at": "2018-08-11 21:40:34.272242",
    "country": "United States",
    "longitude": "",
    "latitude": ""
  },
  {
    "id": "7896",
    "name": "Minocqua Brewing Co",
    "brewery_type": "brewpub",
    "street": "238 Lake Shore Dr",
    "city": "Minocqua",
    "state": "Wisconsin",
    "postal_code": "54548-0081",
    "website_url": "http://minocquabrewingcompany.com",
    "phone": "7153562600",
    "created_at": "2018-07-24 01:34:35.939031",
    "updated_at": "2018-08-11 21:40:34.545041",
    "country": "United States",
    "longitude": "",
    "latitude": ""
  },
  {
    "id": "7898",
    "name": "Modicum Brewing",
    "brewery_type": "micro",
    "street": "3732 Spooner Ave Ste A",
    "city": "Altoona",
    "state": "Wisconsin",
    "postal_code": "54720-1097",
    "website_url": "http://www.modicumbrewing.com",
    "phone": "7158958585",
    "created_at": "2018-07-24 01:34:35.964034",
    "updated_at": "2018-08-11 21:40:34.613663",
    "country": "United States",
    "longitude": "",
    "latitude": ""
  },
  {
    "id": "7900",
    "name": "New Barons Brewing Cooperative",
    "brewery_type": "planning",
    "street": "",
    "city": "Milwaukee",
    "state": "Wisconsin",
    "postal_code": "53202-2821",
    "website_url": "http://www.newbaronsbrewing.com",
    "phone": "3147050016",
    "created_at": "2018-07-24 01:34:35.988883",
    "updated_at": "2018-08-11 21:40:34.683447",
    "country": "United States",
    "longitude": "",
    "latitude": ""
  },
  {
    "id": "7902",
    "name": "New Glarus Brewing Co - Riverside",
    "brewery_type": "micro",
    "street": "2400 State Hwy 69",
    "city": "New Glarus",
    "state": "Wisconsin",
    "postal_code": "53574",
    "website_url": "http://www.newglarusbrewing.com",
    "phone": "6085275851",
    "created_at": "2018-07-24 01:34:36.019624",
    "updated_at": "2018-08-11 21:40:34.752348",
    "country": "United States",
    "longitude": "",
    "latitude": ""
  },
  {
    "id": "7909",
    "name": "Oliphant Brewing",
    "brewery_type": "micro",
    "street": "350 Main St Ste 2",
    "city": "Somerset",
    "state": "Wisconsin",
    "postal_code": "54025-9108",
    "website_url": "http://www.oliphantbrewing.com",
    "phone": "6513077881",
    "created_at": "2018-07-24 01:34:36.109798",
    "updated_at": "2018-08-11 21:40:35.113264",
    "country": "United States",
    "longitude": "",
    "latitude": ""
  },
  {
    "id": "7910",
    "name": "Ombibulous Brewing Company",
    "brewery_type": "planning",
    "street": "",
    "city": "Fall Creek",
    "state": "Wisconsin",
    "postal_code": "54742-4965",
    "website_url": "",
    "phone": "7155779151",
    "created_at": "2018-07-24 01:34:36.122559",
    "updated_at": "2018-08-11 21:40:35.143155",
    "country": "United States",
    "longitude": "",
    "latitude": ""
  },
  {
    "id": "7867",
    "name": "Hop Haus Brewing Co",
    "brewery_type": "brewpub",
    "street": "231 S Main St",
    "city": "Verona",
    "state": "Wisconsin",
    "postal_code": "53593-1470",
    "website_url": "http://www.hophausbrewing.com",
    "phone": "6084973165",
    "created_at": "2018-07-24 01:34:35.559787",
    "updated_at": "2018-08-24 16:43:36.728929",
    "country": "United States",
    "longitude": "-89.5335302111111",
    "latitude": "42.9880348555556"
  },
  {
    "id": "7868",
    "name": "Hops and Leisure",
    "brewery_type": "contract",
    "street": "1225 Robruck Dr # A",
    "city": "Oconomowoc",
    "state": "Wisconsin",
    "postal_code": "53066-4446",
    "website_url": "http://www.hopsandleisure.com",
    "phone": "2625678536",
    "created_at": "2018-07-24 01:34:35.572351",
    "updated_at": "2018-08-24 16:43:38.322952",
    "country": "United States",
    "longitude": "-88.4785190960753",
    "latitude": "43.0922443643863"
  },
  {
    "id": "7869",
    "name": "House of Brews",
    "brewery_type": "micro",
    "street": "4539 Helgesen Dr",
    "city": "Madison",
    "state": "Wisconsin",
    "postal_code": "53718-6747",
    "website_url": "",
    "phone": "6083477243",
    "created_at": "2018-07-24 01:34:35.585867",
    "updated_at": "2018-08-24 16:43:39.75857",
    "country": "United States",
    "longitude": "-89.305331202224",
    "latitude": "43.0662949"
  },
  {
    "id": "7871",
    "name": "Inventors Brewpub",
    "brewery_type": "brewpub",
    "street": "435 N Lake St",
    "city": "Port Washington",
    "state": "Wisconsin",
    "postal_code": "53074-1608",
    "website_url": "",
    "phone": "",
    "created_at": "2018-07-24 01:34:35.611",
    "updated_at": "2018-08-24 16:43:42.68768",
    "country": "United States",
    "longitude": "-87.8670010500134",
    "latitude": "43.3919503946063"
  },
  {
    "id": "7872",
    "name": "Jacob Leinenkugel Brewing Co",
    "brewery_type": "large",
    "street": "1 Jefferson Ave",
    "city": "Chippewa Falls",
    "state": "Wisconsin",
    "postal_code": "54729-1318",
    "website_url": "http://www.leinie.com",
    "phone": "7157235558",
    "created_at": "2018-07-24 01:34:35.623486",
    "updated_at": "2018-08-24 16:43:44.159571",
    "country": "United States",
    "longitude": "-91.396442",
    "latitude": "44.944606"
  },
  {
    "id": "7873",
    "name": "K Point Brewing",
    "brewery_type": "brewpub",
    "street": "507 Main St",
    "city": "Eau Claire",
    "state": "Wisconsin",
    "postal_code": "54701-3736",
    "website_url": "http://www.thecoffeegrounds.com/k-point-brewing/",
    "phone": "",
    "created_at": "2018-07-24 01:34:35.635858",
    "updated_at": "2018-08-24 16:43:45.669807",
    "country": "United States",
    "longitude": "-91.4963440532083",
    "latitude": "44.8111483394508"
  },
  {
    "id": "7874",
    "name": "Karben4 Brewing",
    "brewery_type": "micro",
    "street": "3698 Kinsman Blvd",
    "city": "Madison",
    "state": "Wisconsin",
    "postal_code": "53704-2509",
    "website_url": "http://www.karben4.com",
    "phone": "6082414811",
    "created_at": "2018-07-24 01:34:35.648697",
    "updated_at": "2018-08-24 16:43:47.099614",
    "country": "United States",
    "longitude": "-89.3257324806858",
    "latitude": "43.126221"
  },
  {
    "id": "7875",
    "name": "Knuth Brewing Company",
    "brewery_type": "brewpub",
    "street": "221 Watson St",
    "city": "Ripon",
    "state": "Wisconsin",
    "postal_code": "54971-1514",
    "website_url": "http://www.knuthbrewingcompany.com",
    "phone": "9207485188",
    "created_at": "2018-07-24 01:34:35.661412",
    "updated_at": "2018-08-24 16:43:48.556005",
    "country": "United States",
    "longitude": "-88.8386613",
    "latitude": "43.8446401"
  },
  {
    "id": "7876",
    "name": "Kozy Yak Brewery & Fresar Winery",
    "brewery_type": "brewpub",
    "street": "197 N Main St",
    "city": "Rosholt",
    "state": "Wisconsin",
    "postal_code": "54473-9741",
    "website_url": "http://www.kozyyak.com",
    "phone": "7156773082",
    "created_at": "2018-07-24 01:34:35.673523",
    "updated_at": "2018-08-24 16:43:50.030838",
    "country": "United States",
    "longitude": "-89.3091476326531",
    "latitude": "44.6293434285714"
  },
  {
    "id": "7877",
    "name": "Kul Brewing",
    "brewery_type": "contract",
    "street": "1106 3rd St S",
    "city": "La Crosse",
    "state": "Wisconsin",
    "postal_code": "54601",
    "website_url": "http://www.kulbrewing.com",
    "phone": "",
    "created_at": "2018-07-24 01:34:35.685751",
    "updated_at": "2018-08-24 16:43:51.510592",
    "country": "United States",
    "longitude": "-91.2535935333311",
    "latitude": "43.8024902889693"
  },
  {
    "id": "7878",
    "name": "Lake Louie Brewing Co",
    "brewery_type": "micro",
    "street": "7556 Pine Rd",
    "city": "Arena",
    "state": "Wisconsin",
    "postal_code": "53503-9236",
    "website_url": "http://www.lakelouie.com",
    "phone": "6087532675",
    "created_at": "2018-07-24 01:34:35.699617",
    "updated_at": "2018-08-24 16:43:52.989513",
    "country": "United States",
    "longitude": "-89.9322691785827",
    "latitude": "43.1729971906664"
  },
  {
    "id": "7882",
    "name": "Legends Brewhouse and Eatery (#2)",
    "brewery_type": "brewpub",
    "street": "875 Heritage Rd",
    "city": "de Pere",
    "state": "Wisconsin",
    "postal_code": "54115-3148",
    "website_url": "http://www.legendseatery.com",
    "phone": "9203368036",
    "created_at": "2018-07-24 01:34:35.75443",
    "updated_at": "2018-08-24 16:43:58.989509",
    "country": "United States",
    "longitude": "-88.0641076442953",
    "latitude": "44.4281921275168"
  },
  {
    "id": "7883",
    "name": "Leinenkugel's 10th Street Brewery",
    "brewery_type": "large",
    "street": "1515 N 10th St",
    "city": "Milwaukee",
    "state": "Wisconsin",
    "postal_code": "53205-2157",
    "website_url": "http://www.leinie.com",
    "phone": "4149313900",
    "created_at": "2018-07-24 01:34:35.770093",
    "updated_at": "2018-08-24 16:44:00.446243",
    "country": "United States",
    "longitude": "-87.9245508313463",
    "latitude": "43.05050335"
  },
  {
    "id": "7884",
    "name": "Like Minds Brewing Co.",
    "brewery_type": "micro",
    "street": "823 E Hamilton St",
    "city": "Milwaukee",
    "state": "Wisconsin",
    "postal_code": "53202-1555",
    "website_url": "http://www.likemindsbrewingco.com",
    "phone": "4142398587",
    "created_at": "2018-07-24 01:34:35.783351",
    "updated_at": "2018-08-24 16:44:01.923808",
    "country": "United States",
    "longitude": "-87.9014396124632",
    "latitude": "43.0542106"
  },
  {
    "id": "7885",
    "name": "Lion's Tail Brewing",
    "brewery_type": "brewpub",
    "street": "116 S Commercial St",
    "city": "Neenah",
    "state": "Wisconsin",
    "postal_code": "54956-3020",
    "website_url": "http://www.lionstailbrewing.com",
    "phone": "9202156443",
    "created_at": "2018-07-24 01:34:35.7968",
    "updated_at": "2018-08-24 16:44:03.664513",
    "country": "United States",
    "longitude": "-88.461836",
    "latitude": "44.1863130306122"
  },
  {
    "id": "7886",
    "name": "Lucette Brewing Co",
    "brewery_type": "micro",
    "street": "910 Hudson Rd",
    "city": "Menomonie",
    "state": "Wisconsin",
    "postal_code": "54751-1748",
    "website_url": "http://www.lucettebrewing.com",
    "phone": "7152316836",
    "created_at": "2018-07-24 01:34:35.809961",
    "updated_at": "2018-08-24 16:44:05.291079",
    "country": "United States",
    "longitude": "-91.940075",
    "latitude": "44.875861"
  },
  {
    "id": "7887",
    "name": "Lucky's 1313 Brewpub",
    "brewery_type": "brewpub",
    "street": "1313 Regent St",
    "city": "Madison",
    "state": "Wisconsin",
    "postal_code": "53715-1254",
    "website_url": "http://www.luckys1313.com",
    "phone": "6082508989",
    "created_at": "2018-07-24 01:34:35.821927",
    "updated_at": "2018-08-24 16:44:06.848643",
    "country": "United States",
    "longitude": "-89.407658381214",
    "latitude": "43.0676614390108"
  },
  {
    "id": "7889",
    "name": "Melms Brewing Co",
    "brewery_type": "proprietor",
    "street": "418 Merton Ave",
    "city": "Hartland",
    "state": "Wisconsin",
    "postal_code": "53029-1524",
    "website_url": "http://www.melmsbrewery.com",
    "phone": "2629932566",
    "created_at": "2018-07-24 01:34:35.846751",
    "updated_at": "2018-08-24 16:44:08.300853",
    "country": "United States",
    "longitude": "-88.3331145892884",
    "latitude": "43.1107502846124"
  },
  {
    "id": "7890",
    "name": "Mel's Micro",
    "brewery_type": "brewpub",
    "street": "21733 US Hwy 14",
    "city": "Richland Center",
    "state": "Wisconsin",
    "postal_code": "53581",
    "website_url": "http://www.melsmicro.com",
    "phone": "",
    "created_at": "2018-07-24 01:34:35.859415",
    "updated_at": "2018-08-24 16:44:09.821064",
    "country": "United States",
    "longitude": "-90.3868474",
    "latitude": "43.3294383"
  },
  {
    "id": "7891",
    "name": "MillerCoors Brewing Co - Milwaukee",
    "brewery_type": "large",
    "street": "4251 W State St",
    "city": "Milwaukee",
    "state": "Wisconsin",
    "postal_code": "53208-3137",
    "website_url": "",
    "phone": "",
    "created_at": "2018-07-24 01:34:35.872402",
    "updated_at": "2018-08-24 16:44:11.320151",
    "country": "United States",
    "longitude": "-87.9663367938432",
    "latitude": "43.0420798126358"
  },
  {
    "id": "7892",
    "name": "Milwaukee Brewing Co - Production facility",
    "brewery_type": "micro",
    "street": "613 S 2nd St",
    "city": "Milwaukee",
    "state": "Wisconsin",
    "postal_code": "53204-1616",
    "website_url": "http://www.ale-house.com",
    "phone": "4142262337",
    "created_at": "2018-07-24 01:34:35.8863",
    "updated_at": "2018-08-24 16:44:12.780487",
    "country": "United States",
    "longitude": "-87.9130368185914",
    "latitude": "43.02500965"
  },
  {
    "id": "7893",
    "name": "Milwaukee Brewing Company",
    "brewery_type": "micro",
    "street": "613 S 2nd St",
    "city": "Milwaukee",
    "state": "Wisconsin",
    "postal_code": "53204-1616",
    "website_url": "http://www.mkebrewing.com",
    "phone": "4142262337",
    "created_at": "2018-07-24 01:34:35.899208",
    "updated_at": "2018-08-24 16:44:14.33587",
    "country": "United States",
    "longitude": "-87.9130368185914",
    "latitude": "43.02500965"
  },
  {
    "id": "7894",
    "name": "Milwaukee Premium Brewing Co",
    "brewery_type": "contract",
    "street": "6591 N Sidney Pl",
    "city": "Glendale",
    "state": "Wisconsin",
    "postal_code": "53209-3215",
    "website_url": "",
    "phone": "4143625000",
    "created_at": "2018-07-24 01:34:35.912069",
    "updated_at": "2018-08-24 16:44:15.867497",
    "country": "United States",
    "longitude": "-87.9486092998057",
    "latitude": "43.1384574323742"
  },
  {
    "id": "7901",
    "name": "New Glarus Brewing Co",
    "brewery_type": "regional",
    "street": "2400 State Highway 69",
    "city": "New Glarus",
    "state": "Wisconsin",
    "postal_code": "53574",
    "website_url": "http://www.newglarusbrewing.com",
    "phone": "6085275850",
    "created_at": "2018-07-24 01:34:36.006634",
    "updated_at": "2018-08-24 16:44:25.112055",
    "country": "United States",
    "longitude": "-89.6312918",
    "latitude": "42.8095311"
  },
  {
    "id": "7903",
    "name": "Next Door Brewing Company",
    "brewery_type": "brewpub",
    "street": "2439 Atwood Ave",
    "city": "Madison",
    "state": "Wisconsin",
    "postal_code": "53704-5604",
    "website_url": "http://www.nextdoorbrewing.com",
    "phone": "6087293683",
    "created_at": "2018-07-24 01:34:36.032538",
    "updated_at": "2018-08-24 16:44:28.217148",
    "country": "United States",
    "longitude": "-89.3457201808979",
    "latitude": "43.09371275"
  },
  {
    "id": "7904",
    "name": "Noble Roots Brewing",
    "brewery_type": "micro",
    "street": "2790 University Ave",
    "city": "Green Bay",
    "state": "Wisconsin",
    "postal_code": "54311-5856",
    "website_url": "",
    "phone": "",
    "created_at": "2018-07-24 01:34:36.044895",
    "updated_at": "2018-08-24 16:44:29.865722",
    "country": "United States",
    "longitude": "-87.996992",
    "latitude": "44.51462"
  },
  {
    "id": "7906",
    "name": "Octopi Brewing / Untitled Art",
    "brewery_type": "micro",
    "street": "1131 Uniek Dr",
    "city": "Waunakee",
    "state": "Wisconsin",
    "postal_code": "53597-8947",
    "website_url": "http://www.octopibrewing.com",
    "phone": "6086204705",
    "created_at": "2018-07-24 01:34:36.071664",
    "updated_at": "2018-08-24 16:44:32.979296",
    "country": "United States",
    "longitude": "-89.4223579",
    "latitude": "43.1858364"
  },
  {
    "id": "7908",
    "name": "Old Bavarian Brewing Co",
    "brewery_type": "contract",
    "street": "1515 Greendale St",
    "city": "Menasha",
    "state": "Wisconsin",
    "postal_code": "54952-2620",
    "website_url": "http://www.oldbavarian.com",
    "phone": "9207300202",
    "created_at": "2018-07-24 01:34:36.097018",
    "updated_at": "2018-08-24 16:44:34.495151",
    "country": "United States",
    "longitude": "-88.416059",
    "latitude": "44.217357"
  },
  {
    "id": "7911",
    "name": "One Barrel Brewing Company",
    "brewery_type": "micro",
    "street": "2001 Atwood Ave",
    "city": "Madison",
    "state": "Wisconsin",
    "postal_code": "53704-5324",
    "website_url": "http://www.onebarrelbrewing.com",
    "phone": "6086309286",
    "created_at": "2018-07-24 01:34:36.135268",
    "updated_at": "2018-08-24 16:44:37.503795",
    "country": "United States",
    "longitude": "-89.3549947891516",
    "latitude": "43.09180985"
  },
  {
    "id": "7914",
    "name": "Parched Eagle Brewpub",
    "brewery_type": "brewpub",
    "street": "5440 Willow Rd Ste 112",
    "city": "Waunakee",
    "state": "Wisconsin",
    "postal_code": "53597-8431",
    "website_url": "http://www.parchedeaglebrewpub.com",
    "phone": "6082049192",
    "created_at": "2018-07-24 01:34:36.174262",
    "updated_at": "2018-08-11 21:40:35.268849",
    "country": "United States",
    "longitude": "",
    "latitude": ""
  },
  {
    "id": "7927",
    "name": "Raised Grain Brewing Company",
    "brewery_type": "brewpub",
    "street": "2244 W Bluemound Rd Ste E",
    "city": "Waukesha",
    "state": "Wisconsin",
    "postal_code": "53186-2921",
    "website_url": "",
    "phone": "",
    "created_at": "2018-07-24 01:34:36.345",
    "updated_at": "2018-08-11 21:40:35.641422",
    "country": "United States",
    "longitude": "",
    "latitude": ""
  },
  {
    "id": "7932",
    "name": "Rock Bottom Brewery - Milwaukee",
    "brewery_type": "brewpub",
    "street": "740 N Plankinton Ave Fl 1",
    "city": "Milwaukee",
    "state": "Wisconsin",
    "postal_code": "53203-2403",
    "website_url": "http://www.rockbottom.com",
    "phone": "4142763030",
    "created_at": "2018-07-24 01:34:36.408087",
    "updated_at": "2018-08-11 21:40:35.824346",
    "country": "United States",
    "longitude": "",
    "latitude": ""
  },
  {
    "id": "7938",
    "name": "Rural Brewing Company",
    "brewery_type": "planning",
    "street": "",
    "city": "Sturgeon Bay",
    "state": "Wisconsin",
    "postal_code": "53590",
    "website_url": "http://www.ruralbrewingcompany.com",
    "phone": "",
    "created_at": "2018-07-24 01:34:36.486007",
    "updated_at": "2018-08-11 21:40:36.045111",
    "country": "United States",
    "longitude": "",
    "latitude": ""
  },
  {
    "id": "7942",
    "name": "Sapporo Brewery USA",
    "brewery_type": "large",
    "street": "",
    "city": "La Crosse",
    "state": "Wisconsin",
    "postal_code": "54601",
    "website_url": "",
    "phone": "",
    "created_at": "2018-07-24 01:34:36.537357",
    "updated_at": "2018-08-11 21:40:36.178239",
    "country": "United States",
    "longitude": "",
    "latitude": ""
  },
  {
    "id": "7945",
    "name": "Sconnie Beverage",
    "brewery_type": "contract",
    "street": "1403 N SUMMIT AVE",
    "city": "Oconomowoc",
    "state": "Wisconsin",
    "postal_code": "53066",
    "website_url": "http://www.sconniebeer.com",
    "phone": "6085563112",
    "created_at": "2018-07-24 01:34:36.575252",
    "updated_at": "2018-08-11 21:40:36.259902",
    "country": "United States",
    "longitude": "",
    "latitude": ""
  },
  {
    "id": "7947",
    "name": "Shipwrecked Restaurant and Brewery",
    "brewery_type": "brewpub",
    "street": "7791 Egg Harbor Road",
    "city": "Egg Harbor",
    "state": "Wisconsin",
    "postal_code": "54209",
    "website_url": "http://www.shipwreckedmicrobrew.com",
    "phone": "9208682767",
    "created_at": "2018-07-24 01:34:36.601005",
    "updated_at": "2018-08-11 21:40:36.317929",
    "country": "United States",
    "longitude": "",
    "latitude": ""
  },
  {
    "id": "7948",
    "name": "Silver Creek Brewing Co",
    "brewery_type": "micro",
    "street": "N57 W6172 Portland Rd",
    "city": "Cedarburg",
    "state": "Wisconsin",
    "postal_code": "53012",
    "website_url": "http://www.silvercreekbrewing.com",
    "phone": "2623754444",
    "created_at": "2018-07-24 01:34:36.614032",
    "updated_at": "2018-08-11 21:40:36.344381",
    "country": "United States",
    "longitude": "",
    "latitude": ""
  },
  {
    "id": "7949",
    "name": "Skeleton Crew Brew",
    "brewery_type": "micro",
    "street": "575 Lester Ave Ste 206",
    "city": "Onalaska",
    "state": "Wisconsin",
    "postal_code": "54650-8694",
    "website_url": "http://www.skeletoncrewbrew.com",
    "phone": "7155709463",
    "created_at": "2018-07-24 01:34:36.62631",
    "updated_at": "2018-08-11 21:40:36.369522",
    "country": "United States",
    "longitude": "",
    "latitude": ""
  },
  {
    "id": "7956",
    "name": "Steel Squared Brewing Company",
    "brewery_type": "contract",
    "street": "1597 Tiffany Ct",
    "city": "de Pere",
    "state": "Wisconsin",
    "postal_code": "54115-9042",
    "website_url": "",
    "phone": "",
    "created_at": "2018-07-24 01:34:36.715443",
    "updated_at": "2018-08-11 21:40:36.574336",
    "country": "United States",
    "longitude": "",
    "latitude": ""
  },
  {
    "id": "7913",
    "name": "Pabst Milwaukee Brewery",
    "brewery_type": "large",
    "street": "1037 W Juneau Ave",
    "city": "Milwaukee",
    "state": "Wisconsin",
    "postal_code": "53233-1405",
    "website_url": "",
    "phone": "4149080025",
    "created_at": "2018-07-24 01:34:36.16103",
    "updated_at": "2018-08-24 16:44:40.487744",
    "country": "United States",
    "longitude": "-87.9255251006808",
    "latitude": "43.04554365"
  },
  {
    "id": "7915",
    "name": "Pearl Street Brewery",
    "brewery_type": "micro",
    "street": "1401 Saint Andrew St",
    "city": "La Crosse",
    "state": "Wisconsin",
    "postal_code": "54603-2866",
    "website_url": "http://pearlstreetbrewery.com/",
    "phone": "",
    "created_at": "2018-07-24 01:34:36.187722",
    "updated_at": "2018-08-24 16:44:43.434416",
    "country": "United States",
    "longitude": "-91.2352633365263",
    "latitude": "43.835173"
  },
  {
    "id": "7916",
    "name": "Petskull Brewing",
    "brewery_type": "micro",
    "street": "220 N 9th St",
    "city": "Manitowoc",
    "state": "Wisconsin",
    "postal_code": "54220-4637",
    "website_url": "http://www.petskullbrewing.com",
    "phone": "9209465670",
    "created_at": "2018-07-24 01:34:36.200897",
    "updated_at": "2018-08-24 16:44:44.897695",
    "country": "United States",
    "longitude": "-87.659310122449",
    "latitude": "44.0940222040816"
  },
  {
    "id": "7917",
    "name": "Pigeon River Brewing",
    "brewery_type": "brewpub",
    "street": "1103 N Main St",
    "city": "Marion",
    "state": "Wisconsin",
    "postal_code": "54950-9182",
    "website_url": "http://www.pigeonriverbrewing.com",
    "phone": "7152567721",
    "created_at": "2018-07-24 01:34:36.214701",
    "updated_at": "2018-08-24 16:44:46.435626",
    "country": "United States",
    "longitude": "-88.889789775842",
    "latitude": "44.6798648532707"
  },
  {
    "id": "7918",
    "name": "Pitchfork Brewing",
    "brewery_type": "micro",
    "street": "709 Rodeo Dr Ste 104",
    "city": "Hudson",
    "state": "Wisconsin",
    "postal_code": "54016-4700",
    "website_url": "http://www.pitchforkbrewing.com",
    "phone": "7152453675",
    "created_at": "2018-07-24 01:34:36.228133",
    "updated_at": "2018-08-24 16:44:47.968394",
    "country": "United States",
    "longitude": "-92.683543042585",
    "latitude": "44.9654252"
  },
  {
    "id": "7919",
    "name": "Plymouth Brewing Co",
    "brewery_type": "micro",
    "street": "222 E Mill St",
    "city": "Plymouth",
    "state": "Wisconsin",
    "postal_code": "53073-1706",
    "website_url": "http://www.plymouthbrewingcompany.com",
    "phone": "9208576083",
    "created_at": "2018-07-24 01:34:36.242325",
    "updated_at": "2018-08-24 16:44:49.454461",
    "country": "United States",
    "longitude": "-87.9776737",
    "latitude": "43.7477014"
  },
  {
    "id": "7921",
    "name": "Potosi Brewing Co",
    "brewery_type": "micro",
    "street": "209 S Main St",
    "city": "Potosi",
    "state": "Wisconsin",
    "postal_code": "53820-9675",
    "website_url": "http://www.potosibrewery.com",
    "phone": "6087634002",
    "created_at": "2018-07-24 01:34:36.268024",
    "updated_at": "2018-08-24 16:44:52.809573",
    "country": "United States",
    "longitude": "-90.7248719244345",
    "latitude": "42.6755069"
  },
  {
    "id": "7922",
    "name": "Potosi Brewing Production Facility",
    "brewery_type": "micro",
    "street": "215 S Main St",
    "city": "Potosi",
    "state": "Wisconsin",
    "postal_code": "53820",
    "website_url": "",
    "phone": "",
    "created_at": "2018-07-24 01:34:36.280609",
    "updated_at": "2018-08-24 16:44:54.492501",
    "country": "United States",
    "longitude": "-87.7836648",
    "latitude": "42.7318273846154"
  },
  {
    "id": "7924",
    "name": "RNoggin Brewing",
    "brewery_type": "micro",
    "street": "6521 120th Ave",
    "city": "Kenosha ",
    "state": "Wisconsin",
    "postal_code": "53142",
    "website_url": "http://www.rnogginbrewing.com",
    "phone": "2629601298",
    "created_at": "2018-07-24 01:34:36.305756",
    "updated_at": "2018-08-24 16:44:57.517501",
    "country": "United States",
    "longitude": "-87.9532177992012",
    "latitude": "42.5762412514599"
  },
  {
    "id": "7925",
    "name": "Racine Brewing Co",
    "brewery_type": "micro",
    "street": "303 Main St",
    "city": "Racine",
    "state": "Wisconsin",
    "postal_code": "53403",
    "website_url": "http://www.racinebrewingcompany.com",
    "phone": "2626310670",
    "created_at": "2018-07-24 01:34:36.318017",
    "updated_at": "2018-08-24 16:44:59.054601",
    "country": "United States",
    "longitude": "-87.7833925714286",
    "latitude": "42.7305074081633"
  },
  {
    "id": "7926",
    "name": "Railhouse Restaurant and Brewery",
    "brewery_type": "brewpub",
    "street": "2029 Old Peshtigo Ct",
    "city": "Marinette",
    "state": "Wisconsin",
    "postal_code": "54143-1066",
    "website_url": "http://www.railhousebrewpub.com",
    "phone": "7157324646",
    "created_at": "2018-07-24 01:34:36.3303",
    "updated_at": "2018-08-24 16:45:00.676828",
    "country": "United States",
    "longitude": "-87.6543602",
    "latitude": "45.085149"
  },
  {
    "id": "7928",
    "name": "Raw Deal",
    "brewery_type": "brewpub",
    "street": "603 Broadway St S",
    "city": "Menomonie",
    "state": "Wisconsin",
    "postal_code": "54751-2457",
    "website_url": "http://www.rawdealwi.weebly.com",
    "phone": "7152313255",
    "created_at": "2018-07-24 01:34:36.35779",
    "updated_at": "2018-08-24 16:45:03.675323",
    "country": "United States",
    "longitude": "-91.9298545",
    "latitude": "44.8773142"
  },
  {
    "id": "7929",
    "name": "Red Eye Brewing Co",
    "brewery_type": "brewpub",
    "street": "612 Washington St",
    "city": "Wausau",
    "state": "Wisconsin",
    "postal_code": "54403-5439",
    "website_url": "http://www.redeyebrewing.com",
    "phone": "7158437334",
    "created_at": "2018-07-24 01:34:36.370369",
    "updated_at": "2018-08-24 16:45:05.133227",
    "country": "United States",
    "longitude": "-89.6228425",
    "latitude": "44.9588496"
  },
  {
    "id": "7930",
    "name": "Rhinelander Brewing Co",
    "brewery_type": "contract",
    "street": "59 S Brown St",
    "city": "Rhinelander",
    "state": "Wisconsin",
    "postal_code": "54501-3450",
    "website_url": "http://www.rhinelanderbrewery.com",
    "phone": "7155502337",
    "created_at": "2018-07-24 01:34:36.383023",
    "updated_at": "2018-08-24 16:45:06.678279",
    "country": "United States",
    "longitude": "-89.4126462244898",
    "latitude": "45.637332877551"
  },
  {
    "id": "7931",
    "name": "Riverside Brewery &  Restaurant",
    "brewery_type": "brewpub",
    "street": "255 S Main St",
    "city": "West Bend",
    "state": "Wisconsin",
    "postal_code": "53095-3323",
    "website_url": "",
    "phone": "2623342739",
    "created_at": "2018-07-24 01:34:36.395249",
    "updated_at": "2018-08-24 16:45:08.389913",
    "country": "United States",
    "longitude": "-88.181280877551",
    "latitude": "43.4216479183673"
  },
  {
    "id": "7933",
    "name": "Rock County Brewing Company",
    "brewery_type": "micro",
    "street": "10 N Parker Dr",
    "city": "Janesville",
    "state": "Wisconsin",
    "postal_code": "53545-",
    "website_url": "http://www.rockcounty.beer",
    "phone": "6085318120",
    "created_at": "2018-07-24 01:34:36.421455",
    "updated_at": "2018-08-24 16:45:12.688589",
    "country": "United States",
    "longitude": "-89.0217731417567",
    "latitude": "42.6835456515041"
  },
  {
    "id": "7934",
    "name": "Rockhound Brewing Co",
    "brewery_type": "brewpub",
    "street": "444 S Park St",
    "city": "Madison",
    "state": "Wisconsin",
    "postal_code": "53715-1618",
    "website_url": "http://www.rockhoundbrewing.com",
    "phone": "6082859023",
    "created_at": "2018-07-24 01:34:36.434069",
    "updated_at": "2018-08-24 16:45:14.349202",
    "country": "United States",
    "longitude": "-89.4006464102564",
    "latitude": "43.0623835512821"
  },
  {
    "id": "7935",
    "name": "Rocky Reef Brewing Company",
    "brewery_type": "micro",
    "street": "1101 1st Ave",
    "city": "Woodruff",
    "state": "Wisconsin",
    "postal_code": "54568-0615",
    "website_url": "http://www.rockyreefbrewing.com",
    "phone": "2623391230",
    "created_at": "2018-07-24 01:34:36.447603",
    "updated_at": "2018-08-24 16:45:15.838214",
    "country": "United States",
    "longitude": "-89.695183",
    "latitude": "45.895883"
  },
  {
    "id": "7936",
    "name": "Rowlands Calumet Brewery Co",
    "brewery_type": "micro",
    "street": "25 N Madison St",
    "city": "Chilton",
    "state": "Wisconsin",
    "postal_code": "53014-1451",
    "website_url": "",
    "phone": "9208492534",
    "created_at": "2018-07-24 01:34:36.460154",
    "updated_at": "2018-08-24 16:45:17.379687",
    "country": "United States",
    "longitude": "-88.1632129",
    "latitude": "44.0293888"
  },
  {
    "id": "7940",
    "name": "Rustic Road Brewing Co",
    "brewery_type": "micro",
    "street": "5706 6th Ave",
    "city": "Kenosha",
    "state": "Wisconsin",
    "postal_code": "53140-4104",
    "website_url": "http://www.rusticbrewing.com",
    "phone": "2623207623",
    "created_at": "2018-07-24 01:34:36.511204",
    "updated_at": "2018-08-24 16:45:21.928366",
    "country": "United States",
    "longitude": "-87.8184826109322",
    "latitude": "42.5839921519281"
  },
  {
    "id": "7941",
    "name": "Sand Creek Brewing Co",
    "brewery_type": "micro",
    "street": "320 Pierce St",
    "city": "Black River Falls",
    "state": "Wisconsin",
    "postal_code": "54615",
    "website_url": "http://www.sandcreekbrewing.com",
    "phone": "7152847553",
    "created_at": "2018-07-24 01:34:36.524284",
    "updated_at": "2018-08-24 16:45:23.531589",
    "country": "United States",
    "longitude": "-90.8511552303856",
    "latitude": "44.2927912590671"
  },
  {
    "id": "7943",
    "name": "Sawmill Brewing Co",
    "brewery_type": "micro",
    "street": "1110 E 10th St",
    "city": "Merrill",
    "state": "Wisconsin",
    "postal_code": "54452-1221",
    "website_url": "http://www.sawmillbrewing.net",
    "phone": "7157720230",
    "created_at": "2018-07-24 01:34:36.549821",
    "updated_at": "2018-08-24 16:45:25.118725",
    "country": "United States",
    "longitude": "-89.6830877979798",
    "latitude": "45.1885922323232"
  },
  {
    "id": "7944",
    "name": "Sawmill Pizza and Brew Shed",
    "brewery_type": "brewpub",
    "street": "805 30th Ave",
    "city": "Clear Lake",
    "state": "Wisconsin",
    "postal_code": "54005",
    "website_url": "http://www.weddingsinechovalley.com",
    "phone": "",
    "created_at": "2018-07-24 01:34:36.562593",
    "updated_at": "2018-08-24 16:45:26.729104",
    "country": "United States",
    "longitude": "-92.29614",
    "latitude": "45.252594"
  },
  {
    "id": "7946",
    "name": "Second Salem Brewing Company",
    "brewery_type": "brewpub",
    "street": "111 W Whitewater St",
    "city": "Whitewater",
    "state": "Wisconsin",
    "postal_code": "53190-1935",
    "website_url": "http://www.secondsalem.com",
    "phone": "2624732920",
    "created_at": "2018-07-24 01:34:36.588002",
    "updated_at": "2018-08-24 16:45:29.687928",
    "country": "United States",
    "longitude": "-88.7317525714286",
    "latitude": "42.8327498979592"
  },
  {
    "id": "7951",
    "name": "South Shore Brewery",
    "brewery_type": "micro",
    "street": "808 Main St W",
    "city": "Ashland",
    "state": "Wisconsin",
    "postal_code": "54806-1404",
    "website_url": "http://www.southshorebrewery.com",
    "phone": "7156829199",
    "created_at": "2018-07-24 01:34:36.651903",
    "updated_at": "2018-08-24 16:45:36.077264",
    "country": "United States",
    "longitude": "-90.8927798439729",
    "latitude": "46.5872012268752"
  },
  {
    "id": "7952",
    "name": "South Shore Brewery - Washburn",
    "brewery_type": "micro",
    "street": "532 W Bayfield St",
    "city": "Washburn",
    "state": "Wisconsin",
    "postal_code": "54891-1138",
    "website_url": "",
    "phone": "7156829199",
    "created_at": "2018-07-24 01:34:36.664636",
    "updated_at": "2018-08-24 16:45:37.646584",
    "country": "United States",
    "longitude": "-90.9011646443901",
    "latitude": "46.6706142686684"
  },
  {
    "id": "7954",
    "name": "St. Francis Brewing Company",
    "brewery_type": "brewpub",
    "street": "3825 S Kinnickinnic Ave",
    "city": "Saint Francis",
    "state": "Wisconsin",
    "postal_code": "53235-4225",
    "website_url": "http://www.stfrancisbrewery.com",
    "phone": "4147444448",
    "created_at": "2018-07-24 01:34:36.689846",
    "updated_at": "2018-08-24 16:45:40.684018",
    "country": "United States",
    "longitude": "-87.875747",
    "latitude": "42.97452"
  },
  {
    "id": "7955",
    "name": "Starboard Brewing Co",
    "brewery_type": "brewpub",
    "street": "151 N 3rd Ave",
    "city": "Sturgeon Bay",
    "state": "Wisconsin",
    "postal_code": "54235-2415",
    "website_url": "http://www.starboardbrewing.com",
    "phone": "9208181062",
    "created_at": "2018-07-24 01:34:36.702678",
    "updated_at": "2018-08-24 16:45:42.154248",
    "country": "United States",
    "longitude": "-87.3775298372093",
    "latitude": "44.8354098372093"
  },
  {
    "id": "7960",
    "name": "Stone Cellar Brewpub / Stone Arch Brew House",
    "brewery_type": "brewpub",
    "street": "1004 S Olde Oneida St Uppr",
    "city": "Appleton",
    "state": "Wisconsin",
    "postal_code": "54915-1753",
    "website_url": "http://www.stonecellarbrewpub.com",
    "phone": "9207313322",
    "created_at": "2018-07-24 01:34:36.769411",
    "updated_at": "2018-08-11 21:40:36.687995",
    "country": "United States",
    "longitude": "",
    "latitude": ""
  },
  {
    "id": "7961",
    "name": "Stoney Acres Farm",
    "brewery_type": "brewpub",
    "street": "7002 Rangeline Rd",
    "city": "Athens",
    "state": "Wisconsin",
    "postal_code": "54411",
    "website_url": "http://www.stoneyacresfarm.net",
    "phone": "7154326285",
    "created_at": "2018-07-24 01:34:36.782269",
    "updated_at": "2018-08-11 21:40:36.714622",
    "country": "United States",
    "longitude": "",
    "latitude": ""
  },
  {
    "id": "7966",
    "name": "The Crafter Space",
    "brewery_type": "contract",
    "street": "1550 N Warren Ave Apt 114",
    "city": "Milwaukee",
    "state": "Wisconsin",
    "postal_code": "53202-2298",
    "website_url": "http://www.thecrafterspace.com",
    "phone": "4144188888",
    "created_at": "2018-07-24 01:34:36.847579",
    "updated_at": "2018-08-11 21:40:36.877945",
    "country": "United States",
    "longitude": "",
    "latitude": ""
  },
  {
    "id": "7967",
    "name": "The Explorium Brewpub",
    "brewery_type": "brewpub",
    "street": "5300 S 76th St Unit 1450A",
    "city": "Greendale",
    "state": "Wisconsin",
    "postal_code": "53129-1102",
    "website_url": "http://exploriumbrew.com",
    "phone": "4145537702",
    "created_at": "2018-07-24 01:34:36.860104",
    "updated_at": "2018-08-11 21:40:36.921572",
    "country": "United States",
    "longitude": "",
    "latitude": ""
  },
  {
    "id": "7969",
    "name": "The Lone Girl Brewing Company",
    "brewery_type": "brewpub",
    "street": "114 E Main St Ste 101",
    "city": "Waunakee",
    "state": "Wisconsin",
    "postal_code": "53597-1274",
    "website_url": "http://www.thelonegirl.com",
    "phone": "6088507175",
    "created_at": "2018-07-24 01:34:36.885779",
    "updated_at": "2018-08-11 21:40:37.016923",
    "country": "United States",
    "longitude": "",
    "latitude": ""
  },
  {
    "id": "7972",
    "name": "Thumb Knuckle Brewing Company",
    "brewery_type": "micro",
    "street": "E0208 State Rd 54",
    "city": "Luxemburg",
    "state": "Wisconsin",
    "postal_code": "54217",
    "website_url": "http://www.thumbknuckle.beer",
    "phone": "",
    "created_at": "2018-07-24 01:34:36.923901",
    "updated_at": "2018-08-11 21:40:37.119444",
    "country": "United States",
    "longitude": "",
    "latitude": ""
  },
  {
    "id": "7974",
    "name": "Trap Rock Brewing Co.",
    "brewery_type": "planning",
    "street": "",
    "city": "Saint Croix Falls",
    "state": "Wisconsin",
    "postal_code": "54024",
    "website_url": "http://traprockbrewing.com",
    "phone": "",
    "created_at": "2018-07-24 01:34:36.95172",
    "updated_at": "2018-08-11 21:40:37.176285",
    "country": "United States",
    "longitude": "",
    "latitude": ""
  },
  {
    "id": "7977",
    "name": "Two Beagles Brewpub",
    "brewery_type": "brewpub",
    "street": "910 2nd Ave N",
    "city": "Onalaska",
    "state": "Wisconsin",
    "postal_code": "54650-2277",
    "website_url": "http://www.twobeaglesbrewpub.com",
    "phone": "6085191921",
    "created_at": "2018-07-24 01:34:36.992623",
    "updated_at": "2018-08-11 21:40:37.259136",
    "country": "United States",
    "longitude": "",
    "latitude": ""
  },
  {
    "id": "7979",
    "name": "Union House Brewing LLC",
    "brewery_type": "planning",
    "street": "",
    "city": "Plum City",
    "state": "Wisconsin",
    "postal_code": "54761-0055",
    "website_url": "",
    "phone": "",
    "created_at": "2018-07-24 01:34:37.059255",
    "updated_at": "2018-08-11 21:40:37.325334",
    "country": "United States",
    "longitude": "",
    "latitude": ""
  },
  {
    "id": "7982",
    "name": "Valkyrie Brewing",
    "brewery_type": "micro",
    "street": "234 W Dallas St",
    "city": "Dallas",
    "state": "Wisconsin",
    "postal_code": "54733-9706",
    "website_url": "http://www.valkyriebrewery.com",
    "phone": "7158371824",
    "created_at": "2018-07-24 01:34:37.097947",
    "updated_at": "2018-08-11 21:40:37.382969",
    "country": "United States",
    "longitude": "",
    "latitude": ""
  },
  {
    "id": "7988",
    "name": "Water Street Brewery - Lake County",
    "brewery_type": "brewpub",
    "street": "3191 Golf Rd",
    "city": "Delafield",
    "state": "Wisconsin",
    "postal_code": "53018-2156",
    "website_url": "http://www.waterstreetbrewery.com",
    "phone": "2626467878",
    "created_at": "2018-07-24 01:34:37.173387",
    "updated_at": "2018-08-11 21:40:37.562528",
    "country": "United States",
    "longitude": "",
    "latitude": ""
  },
  {
    "id": "7993",
    "name": "Wisconsin Dells Brewing Company",
    "brewery_type": "brewpub",
    "street": "110 Wisconsin Dells Pkwy S",
    "city": "Wisconsin Dells",
    "state": "Wisconsin",
    "postal_code": "53965-8304",
    "website_url": "http://www.dellsmoosejaw.com",
    "phone": "6082541122",
    "created_at": "2018-07-24 01:34:37.239723",
    "updated_at": "2018-08-11 21:40:37.742274",
    "country": "United States",
    "longitude": "",
    "latitude": ""
  },
  {
    "id": "7995",
    "name": "Zambaldi Beer",
    "brewery_type": "contract",
    "street": "",
    "city": "Green Bay",
    "state": "Wisconsin",
    "postal_code": "54305-0246",
    "website_url": "http://www.zambaldi.com",
    "phone": "6124707926",
    "created_at": "2018-07-24 01:34:37.266144",
    "updated_at": "2018-08-11 21:40:37.80777",
    "country": "United States",
    "longitude": "",
    "latitude": ""
  },
  {
    "id": "7959",
    "name": "Stillmank Brewing Company",
    "brewery_type": "micro",
    "street": "215 N Henry St",
    "city": "Green Bay",
    "state": "Wisconsin",
    "postal_code": "54302-2613",
    "website_url": "http://www.stillmankbrewery.com",
    "phone": "9207852337",
    "created_at": "2018-07-24 01:34:36.755817",
    "updated_at": "2018-08-24 16:45:46.835403",
    "country": "United States",
    "longitude": "-87.9783883301305",
    "latitude": "44.5044596"
  },
  {
    "id": "7962",
    "name": "Sunshine Brewing Company",
    "brewery_type": "micro",
    "street": "121 S Main St",
    "city": "Lake Mills",
    "state": "Wisconsin",
    "postal_code": "53551-1613",
    "website_url": "http://www.sunshinebrewco.com",
    "phone": "9206508579",
    "created_at": "2018-07-24 01:34:36.795254",
    "updated_at": "2018-08-24 16:45:51.450126",
    "country": "United States",
    "longitude": "-88.9129639698996",
    "latitude": "43.0791730977934"
  },
  {
    "id": "7963",
    "name": "Swinging Bridge Brewing Co",
    "brewery_type": "brewpub",
    "street": "122 S Main St",
    "city": "River Falls",
    "state": "Wisconsin",
    "postal_code": "54022-2423",
    "website_url": "http://swingingbridgebrewing.com",
    "phone": "7156291464",
    "created_at": "2018-07-24 01:34:36.808033",
    "updated_at": "2018-08-24 16:45:53.045628",
    "country": "United States",
    "longitude": "-92.6262914897959",
    "latitude": "44.8577474285714"
  },
  {
    "id": "7964",
    "name": "SwitchGear Brewing Co",
    "brewery_type": "micro",
    "street": "44 D Gottfried St",
    "city": "Elkhart Lake",
    "state": "Wisconsin",
    "postal_code": "53020",
    "website_url": "http://www.switchgearbrewing.com",
    "phone": "9207815120",
    "created_at": "2018-07-24 01:34:36.820909",
    "updated_at": "2018-08-24 16:45:54.555007",
    "country": "United States",
    "longitude": "-88.019601",
    "latitude": "43.834243"
  },
  {
    "id": "7965",
    "name": "The Brewing Projekt",
    "brewery_type": "micro",
    "street": "1807 N Oxford Ave",
    "city": "Eau Claire",
    "state": "Wisconsin",
    "postal_code": "54703-5187",
    "website_url": "http://www.thebrewingprojekt.com",
    "phone": "7154562486",
    "created_at": "2018-07-24 01:34:36.833955",
    "updated_at": "2018-08-24 16:45:56.066798",
    "country": "United States",
    "longitude": "-91.5095090773519",
    "latitude": "44.8189402440188"
  },
  {
    "id": "7970",
    "name": "Third Space Brewing",
    "brewery_type": "micro",
    "street": "1505 W Saint Paul Ave",
    "city": "Milwaukee",
    "state": "Wisconsin",
    "postal_code": "53233",
    "website_url": "http://www.thirdspacebrewing.com",
    "phone": "4149092337",
    "created_at": "2018-07-24 01:34:36.898604",
    "updated_at": "2018-08-24 16:46:02.211678",
    "country": "United States",
    "longitude": "-87.9146199",
    "latitude": "43.0346679"
  },
  {
    "id": "7971",
    "name": "Thirsty Pagan Brewing Co",
    "brewery_type": "brewpub",
    "street": "1623 Broadway St",
    "city": "Superior",
    "state": "Wisconsin",
    "postal_code": "54880-1616",
    "website_url": "http://www.thirstypaganbrewing.com",
    "phone": "7153942500",
    "created_at": "2018-07-24 01:34:36.91111",
    "updated_at": "2018-08-24 16:46:03.738494",
    "country": "United States",
    "longitude": "-92.1021385",
    "latitude": "46.7267785"
  },
  {
    "id": "7975",
    "name": "Tribute Brewing Co",
    "brewery_type": "micro",
    "street": "1106 N Bluebird Rd",
    "city": "Eagle River",
    "state": "Wisconsin",
    "postal_code": "54521-7557",
    "website_url": "http://www.tributebrewing.com",
    "phone": "7154802337",
    "created_at": "2018-07-24 01:34:36.964016",
    "updated_at": "2018-08-24 16:46:08.273267",
    "country": "United States",
    "longitude": "-89.2579185042039",
    "latitude": "45.9293506182914"
  },
  {
    "id": "7976",
    "name": "Turtle Stack Brewery",
    "brewery_type": "micro",
    "street": "125 2nd St S",
    "city": "La Crosse",
    "state": "Wisconsin",
    "postal_code": "54601-3206",
    "website_url": "http://www.turtlestackbrewery.com",
    "phone": "6085192284",
    "created_at": "2018-07-24 01:34:36.977593",
    "updated_at": "2018-08-24 16:46:09.789257",
    "country": "United States",
    "longitude": "-91.2539366035481",
    "latitude": "43.8130152831456"
  },
  {
    "id": "7978",
    "name": "Tyranena Brewing Co",
    "brewery_type": "micro",
    "street": "1025 Owen St",
    "city": "Lake Mills",
    "state": "Wisconsin",
    "postal_code": "53551-0736",
    "website_url": "http://www.tyranena.com",
    "phone": "9206488699",
    "created_at": "2018-07-24 01:34:37.045709",
    "updated_at": "2018-08-24 16:46:12.891899",
    "country": "United States",
    "longitude": "-88.8965312",
    "latitude": "43.0861774"
  },
  {
    "id": "7983",
    "name": "Viking Brewpub",
    "brewery_type": "brewpub",
    "street": "211 E Main St",
    "city": "Stoughton",
    "state": "Wisconsin",
    "postal_code": "53589-1700",
    "website_url": "",
    "phone": "6087195041",
    "created_at": "2018-07-24 01:34:37.110528",
    "updated_at": "2018-08-24 16:46:17.517101",
    "country": "United States",
    "longitude": "-89.2188242",
    "latitude": "42.9166357"
  },
  {
    "id": "7984",
    "name": "Vintage Brewing Co",
    "brewery_type": "brewpub",
    "street": "674 S Whitney Way",
    "city": "Madison",
    "state": "Wisconsin",
    "postal_code": "53711-1035",
    "website_url": "http://www.vintagebrewingco.com",
    "phone": "6082042739",
    "created_at": "2018-07-24 01:34:37.123109",
    "updated_at": "2018-08-24 16:46:19.187832",
    "country": "United States",
    "longitude": "-89.4726634457831",
    "latitude": "43.0517163253012"
  },
  {
    "id": "7985",
    "name": "Vintage Brewing Co",
    "brewery_type": "brewpub",
    "street": "600 Water Street",
    "city": "Sauk City",
    "state": "Wisconsin",
    "postal_code": "53583",
    "website_url": "",
    "phone": "6082042739",
    "created_at": "2018-07-24 01:34:37.135553",
    "updated_at": "2018-08-24 16:46:20.676085",
    "country": "United States",
    "longitude": "-89.7180892",
    "latitude": "43.2820804"
  },
  {
    "id": "7986",
    "name": "Water Street Brewery",
    "brewery_type": "micro",
    "street": "1101 N Water St",
    "city": "Milwaukee",
    "state": "Wisconsin",
    "postal_code": "53202-3107",
    "website_url": "http://www.waterstreetbrewery.com",
    "phone": "4142721195",
    "created_at": "2018-07-24 01:34:37.14785",
    "updated_at": "2018-08-24 16:46:22.143196",
    "country": "United States",
    "longitude": "-87.9112223",
    "latitude": "43.0447248"
  },
  {
    "id": "7989",
    "name": "Water Street Brewery - Oak Creek",
    "brewery_type": "brewpub",
    "street": "140 W Town Square Way",
    "city": "Oak Creek",
    "state": "Wisconsin",
    "postal_code": "53154-6811",
    "website_url": "",
    "phone": "4143015288",
    "created_at": "2018-07-24 01:34:37.185892",
    "updated_at": "2018-08-24 16:46:25.240573",
    "country": "United States",
    "longitude": "-87.9121000699205",
    "latitude": "42.90064865"
  },
  {
    "id": "7990",
    "name": "West Bend Lithia Beer Co",
    "brewery_type": "contract",
    "street": "825 Schoenhaar Dr",
    "city": "West Bend",
    "state": "Wisconsin",
    "postal_code": "53090-2633",
    "website_url": "http://www.lithiabeer.com",
    "phone": "2623343000",
    "created_at": "2018-07-24 01:34:37.198926",
    "updated_at": "2018-08-24 16:46:26.724143",
    "country": "United States",
    "longitude": "-88.1577515345107",
    "latitude": "43.4313618830334"
  },
  {
    "id": "7991",
    "name": "Westallion Brewing Company",
    "brewery_type": "micro",
    "street": "1825 S 72nd St",
    "city": "West Allis",
    "state": "Wisconsin",
    "postal_code": "53214-4714",
    "website_url": "http://www.westallionbrewing.com",
    "phone": "4145787998",
    "created_at": "2018-07-24 01:34:37.212505",
    "updated_at": "2018-08-24 16:46:28.315658",
    "country": "United States",
    "longitude": "-88.0027164974316",
    "latitude": "43.0113052505337"
  },
  {
    "id": "7992",
    "name": "Wisconsin Brewing Co",
    "brewery_type": "regional",
    "street": "1079 American Way",
    "city": "Verona",
    "state": "Wisconsin",
    "postal_code": "53593-9384",
    "website_url": "http://www.wisconsinbrewingcompany.com",
    "phone": "6088481079",
    "created_at": "2018-07-24 01:34:37.225468",
    "updated_at": "2018-08-24 16:46:29.82775",
    "country": "United States",
    "longitude": "-89.5089549402501",
    "latitude": "42.9688832"
  },
  {
    "id": "7994",
    "name": "Working Draft Beer Company",
    "brewery_type": "micro",
    "street": "1129 E Wilson St",
    "city": "Madison",
    "state": "Wisconsin",
    "postal_code": "53703-3758",
    "website_url": "http://www.workingdraftbeer.com",
    "phone": "",
    "created_at": "2018-07-24 01:34:37.252717",
    "updated_at": "2018-08-24 16:46:32.862137",
    "country": "United States",
    "longitude": "-89.3652802",
    "latitude": "43.0833378"
  },
  {
    "id": "7786",
    "name": "Ahnapee Brewery",
    "brewery_type": "micro",
    "street": "N9153 Cherry Tree Rd Apt 4",
    "city": "Algoma",
    "state": "Wisconsin",
    "postal_code": "54201-9501",
    "website_url": "http://www.ahnapeebrewery.com",
    "phone": "9202178527",
    "created_at": "2018-07-24 01:34:34.479419",
    "updated_at": "2018-08-11 21:40:30.396445",
    "country": "United States",
    "longitude": "",
    "latitude": ""
  },
  {
    "id": "7834",
    "name": "Door County Brewing Co./ Hacienda Beer Co",
    "brewery_type": "micro",
    "street": "8099 State Highway 57 PO Box 201",
    "city": "Baileys Harbor",
    "state": "Wisconsin",
    "postal_code": "54202-0201",
    "website_url": "http://doorcountybrewingco.com",
    "phone": "9204931517",
    "created_at": "2018-07-24 01:34:35.134864",
    "updated_at": "2018-08-11 21:40:32.313018",
    "country": "United States",
    "longitude": "",
    "latitude": ""
  },
  {
    "id": "7950",
    "name": "Some Nerve Brewing Company",
    "brewery_type": "micro",
    "street": "5586 US Highway 51",
    "city": "Manitowish Waters",
    "state": "Wisconsin",
    "postal_code": "54545-6325",
    "website_url": "http://www.somenervebrewing.com",
    "phone": "6085766040",
    "created_at": "2018-07-24 01:34:36.639216",
    "updated_at": "2018-08-11 21:40:36.397925",
    "country": "United States",
    "longitude": "",
    "latitude": ""
  },
  {
    "id": "7987",
    "name": "Water Street Brewery - Grafton",
    "brewery_type": "brewpub",
    "street": "1251 Gateway Dr 143 & Highway 60",
    "city": "Grafton",
    "state": "Wisconsin",
    "postal_code": "53024-9336",
    "website_url": "http://www.waterstreetbrewery.com",
    "phone": "2623752222",
    "created_at": "2018-07-24 01:34:37.160903",
    "updated_at": "2018-08-11 21:40:37.527215",
    "country": "United States",
    "longitude": "",
    "latitude": ""
  },
  {
    "id": "7797",
    "name": "Big Head Brewing Co.",
    "brewery_type": "micro",
    "street": "6204 W State St",
    "city": "Milwaukee",
    "state": "Wisconsin",
    "postal_code": "53213-2906",
    "website_url": "http://www.bigheadbrewingco.com",
    "phone": "6082359636",
    "created_at": "2018-07-24 01:34:34.618837",
    "updated_at": "2018-08-24 16:42:07.915243",
    "country": "United States",
    "longitude": "-87.9201437",
    "latitude": "43.0429687"
  },
  {
    "id": "7801",
    "name": "Blue Heron Brew Pub",
    "brewery_type": "brewpub",
    "street": "108 W 9th St",
    "city": "Marshfield",
    "state": "Wisconsin",
    "postal_code": "54449-4111",
    "website_url": "http://www.blueheronbrewpub.com",
    "phone": "7153891868",
    "created_at": "2018-07-24 01:34:34.669586",
    "updated_at": "2018-08-24 16:42:13.93753",
    "country": "United States",
    "longitude": "-90.1814890162256",
    "latitude": "44.6593807910629"
  },
  {
    "id": "7817",
    "name": "Capital Brewery Co Inc",
    "brewery_type": "regional",
    "street": "7734 Terrace Ave",
    "city": "Middleton",
    "state": "Wisconsin",
    "postal_code": "53562-3163",
    "website_url": "http://www.capitalbrewery.com",
    "phone": "6088367100",
    "created_at": "2018-07-24 01:34:34.879376",
    "updated_at": "2018-08-24 16:42:27.346081",
    "country": "United States",
    "longitude": "-89.5165797754161",
    "latitude": "43.09489645"
  },
  {
    "id": "7849",
    "name": "Funk Factory Geuzeria",
    "brewery_type": "micro",
    "street": "1602 Gilson St",
    "city": "Madison",
    "state": "Wisconsin",
    "postal_code": "53715-2128",
    "website_url": "http://www.funkfactorygeuzeria.com",
    "phone": "",
    "created_at": "2018-07-24 01:34:35.328638",
    "updated_at": "2018-08-24 16:43:10.601125",
    "country": "United States",
    "longitude": "-89.3919797327108",
    "latitude": "43.0501017743752"
  },
  {
    "id": "7858",
    "name": "Great Dane Pub and Brewing Co - Fitchburg",
    "brewery_type": "brewpub",
    "street": "2980 Cahill Main",
    "city": "Fitchburg",
    "state": "Wisconsin",
    "postal_code": "53711-7146",
    "website_url": "http://www.greatdanepub.com",
    "phone": "6084429000",
    "created_at": "2018-07-24 01:34:35.444842",
    "updated_at": "2018-08-24 16:43:22.913492",
    "country": "United States",
    "longitude": "-89.4237090342225",
    "latitude": "43.0181626711064"
  },
  {
    "id": "7879",
    "name": "Lakefront Brewery Inc",
    "brewery_type": "regional",
    "street": "1872 N Commerce St",
    "city": "Milwaukee",
    "state": "Wisconsin",
    "postal_code": "53212-3701",
    "website_url": "http://www.lakefrontbrewery.com",
    "phone": "4143728800",
    "created_at": "2018-07-24 01:34:35.712997",
    "updated_at": "2018-08-24 16:43:54.449315",
    "country": "United States",
    "longitude": "-87.9051723",
    "latitude": "43.0547874"
  },
  {
    "id": "7895",
    "name": "Minhas Craft Brewery",
    "brewery_type": "regional",
    "street": "1208 14th Ave",
    "city": "Monroe",
    "state": "Wisconsin",
    "postal_code": "53566-2055",
    "website_url": "http://www.minhasbrewery.com",
    "phone": "6083289120",
    "created_at": "2018-07-24 01:34:35.925633",
    "updated_at": "2018-08-24 16:44:17.35575",
    "country": "United States",
    "longitude": "-89.641509",
    "latitude": "42.5986305132204"
  },
  {
    "id": "7899",
    "name": "MoonRidge Brewpub",
    "brewery_type": "brewpub",
    "street": "501 Bridge St",
    "city": "Cornell",
    "state": "Wisconsin",
    "postal_code": "54732-8392",
    "website_url": "http://www.facebook.com/MoonRidge-Brew-Pub-1501996800095070",
    "phone": "7152391341",
    "created_at": "2018-07-24 01:34:35.976592",
    "updated_at": "2018-08-24 16:44:23.532821",
    "country": "United States",
    "longitude": "-91.1589648",
    "latitude": "45.1653752"
  },
  {
    "id": "7905",
    "name": "Northwoods Brewpub and Grill",
    "brewery_type": "brewpub",
    "street": "50918 West Street",
    "city": "Osseo",
    "state": "Wisconsin",
    "postal_code": "54758",
    "website_url": "http://www.northwoodsbrewpub.com",
    "phone": "7155520510",
    "created_at": "2018-07-24 01:34:36.057783",
    "updated_at": "2018-08-24 16:44:31.455342",
    "country": "United States",
    "longitude": "-91.2266512323232",
    "latitude": "44.5827066565657"
  },
  {
    "id": "7923",
    "name": "Public Craft Brewing Co",
    "brewery_type": "micro",
    "street": "716 58th St",
    "city": "Kenosha",
    "state": "Wisconsin",
    "postal_code": "53140-4137",
    "website_url": "http://www.publiccraftbrewing.com",
    "phone": "2626522739",
    "created_at": "2018-07-24 01:34:36.293005",
    "updated_at": "2018-08-24 16:44:56.034139",
    "country": "United States",
    "longitude": "-87.8197509130208",
    "latitude": "42.5831542416945"
  },
  {
    "id": "7958",
    "name": "Stevens Point Brewery",
    "brewery_type": "regional",
    "street": "2617 Water St",
    "city": "Stevens Point",
    "state": "Wisconsin",
    "postal_code": "54481-5248",
    "website_url": "http://www.pointbeer.com",
    "phone": "7153449310",
    "created_at": "2018-07-24 01:34:36.742352",
    "updated_at": "2018-08-24 16:45:45.320701",
    "country": "United States",
    "longitude": "-89.5739807755102",
    "latitude": "44.5102627142857"
  },
  {
    "id": "7973",
    "name": "Titletown Brewing Co",
    "brewery_type": "brewpub",
    "street": "200 Dousman St",
    "city": "Green Bay",
    "state": "Wisconsin",
    "postal_code": "54303-2712",
    "website_url": "http://www.titletownbrewing.com",
    "phone": "9204372337",
    "created_at": "2018-07-24 01:34:36.936323",
    "updated_at": "2018-08-24 16:46:06.736073",
    "country": "United States",
    "longitude": "-88.018517",
    "latitude": "44.51892"
  },
  {
    "id": "7796",
    "name": "Bent Kettle Brewing Company",
    "brewery_type": "micro",
    "street": "1507 Montclair Pl",
    "city": "Fort Atkinson",
    "state": "Wisconsin",
    "postal_code": "53538-3102",
    "website_url": "http://www.bentkettle.com",
    "phone": "9203909038",
    "created_at": "2018-07-24 01:34:34.606567",
    "updated_at": "2018-08-24 16:42:06.305045",
    "country": "United States",
    "longitude": "-88.861232",
    "latitude": "42.9348495"
  },
  {
    "id": "7816",
    "name": "Bullquarian Brewhouse, LLC",
    "brewery_type": "brewpub",
    "street": "1128 17th Ave",
    "city": "Monroe",
    "state": "Wisconsin",
    "postal_code": "53566-2007",
    "website_url": "",
    "phone": "6084266720",
    "created_at": "2018-07-24 01:34:34.866586",
    "updated_at": "2018-08-24 16:42:25.901074",
    "country": "United States",
    "longitude": "-89.6383092995843",
    "latitude": "42.60032375"
  },
  {
    "id": "7820",
    "name": "City Brewing Co",
    "brewery_type": "regional",
    "street": "925 3rd St S",
    "city": "La Crosse",
    "state": "Wisconsin",
    "postal_code": "54601-4411",
    "website_url": "http://www.citybrewery.com",
    "phone": "6087854200",
    "created_at": "2018-07-24 01:34:34.919261",
    "updated_at": "2018-08-24 16:42:31.763932",
    "country": "United States",
    "longitude": "-91.2533504575855",
    "latitude": "43.8043552291685"
  },
  {
    "id": "7835",
    "name": "Driftless Brewing Co",
    "brewery_type": "micro",
    "street": "102 Sunbeam Blvd W",
    "city": "Soldiers Grove",
    "state": "Wisconsin",
    "postal_code": "54655-1001",
    "website_url": "http://www.driftlessbrewing.com",
    "phone": "66086245577",
    "created_at": "2018-07-24 01:34:35.147042",
    "updated_at": "2018-08-24 16:42:52.603301",
    "country": "United States",
    "longitude": "-90.7657183245046",
    "latitude": "43.3892199668922"
  },
  {
    "id": "7855",
    "name": "Good City Brewing Company",
    "brewery_type": "brewpub",
    "street": "2108 N Farwell Ave",
    "city": "Milwaukee",
    "state": "Wisconsin",
    "postal_code": "53202-1115",
    "website_url": "http://www.goodcitybrewing.com",
    "phone": "4145394173",
    "created_at": "2018-07-24 01:34:35.40765",
    "updated_at": "2018-08-24 16:43:18.152086",
    "country": "United States",
    "longitude": "-87.8889038",
    "latitude": "43.0565468"
  },
  {
    "id": "7864",
    "name": "Hinterland Brewery",
    "brewery_type": "micro",
    "street": "1001 Lombardi Ave",
    "city": "Green Bay",
    "state": "Wisconsin",
    "postal_code": "54304-3956",
    "website_url": "http://www.hinterlandbeer.com",
    "phone": "9204388050",
    "created_at": "2018-07-24 01:34:35.522198",
    "updated_at": "2018-08-24 16:43:32.279858",
    "country": "United States",
    "longitude": "-88.0489040625",
    "latitude": "44.498960015625"
  },
  {
    "id": "7865",
    "name": "Hop & Barrel Brewing Company LLC",
    "brewery_type": "micro",
    "street": "310 2nd St",
    "city": "Hudson",
    "state": "Wisconsin",
    "postal_code": "54016-1508",
    "website_url": "http://www.hopandbarrelbrewing.com",
    "phone": "6517959439",
    "created_at": "2018-07-24 01:34:35.534816",
    "updated_at": "2018-08-24 16:43:33.797457",
    "country": "United States",
    "longitude": "-92.756671162684",
    "latitude": "44.9732967107142"
  },
  {
    "id": "7881",
    "name": "Legends Brewhouse and Eatery (#1)",
    "brewery_type": "brewpub",
    "street": "2840 Shawano Ave",
    "city": "Green Bay",
    "state": "Wisconsin",
    "postal_code": "54313-6725",
    "website_url": "http://www.legendseatery.com",
    "phone": "9206621111",
    "created_at": "2018-07-24 01:34:35.740146",
    "updated_at": "2018-08-24 16:43:57.501792",
    "country": "United States",
    "longitude": "-88.036448",
    "latitude": "44.521795"
  },
  {
    "id": "7897",
    "name": "MobCraft Beer",
    "brewery_type": "proprietor",
    "street": "505 S 5th St",
    "city": "Milwaukee",
    "state": "Wisconsin",
    "postal_code": "53204-1518",
    "website_url": "http://www.mobcraftbeer.com",
    "phone": "6083463003",
    "created_at": "2018-07-24 01:34:35.951472",
    "updated_at": "2018-08-24 16:44:20.439424",
    "country": "United States",
    "longitude": "-87.916937387519",
    "latitude": "43.0261838359198"
  },
  {
    "id": "7912",
    "name": "O'so Brewing",
    "brewery_type": "micro",
    "street": "3028 Village Park Dr",
    "city": "Plover",
    "state": "Wisconsin",
    "postal_code": "54467-4300",
    "website_url": "http://www.osobrewing.com",
    "phone": "7152542163",
    "created_at": "2018-07-24 01:34:36.148086",
    "updated_at": "2018-08-24 16:44:39.019495",
    "country": "United States",
    "longitude": "-89.5234305300291",
    "latitude": "44.4534004372744"
  },
  {
    "id": "7920",
    "name": "Port Huron Brewing Co",
    "brewery_type": "micro",
    "street": "805 Business Park Dr",
    "city": "Wisconsin Dells",
    "state": "Wisconsin",
    "postal_code": "53965-9440",
    "website_url": "http://www.porthuronbeer.com",
    "phone": "6082530340",
    "created_at": "2018-07-24 01:34:36.255404",
    "updated_at": "2018-08-24 16:44:50.940089",
    "country": "United States",
    "longitude": "-89.7465766666667",
    "latitude": "43.6285166666667"
  },
  {
    "id": "7937",
    "name": "Rowlands Calumet Brewery Co (#2)",
    "brewery_type": "micro",
    "street": "57 School St",
    "city": "Chilton",
    "state": "Wisconsin",
    "postal_code": "53014-",
    "website_url": "",
    "phone": "9208492534",
    "created_at": "2018-07-24 01:34:36.472649",
    "updated_at": "2018-08-24 16:45:18.907925",
    "country": "United States",
    "longitude": "-88.164013274801",
    "latitude": "44.0291830997522"
  },
  {
    "id": "7939",
    "name": "Rush River Brewing Co",
    "brewery_type": "micro",
    "street": "990 Antler Ct",
    "city": "River Falls",
    "state": "Wisconsin",
    "postal_code": "54022-4880",
    "website_url": "http://www.rushriverbeer.com",
    "phone": "7154262054",
    "created_at": "2018-07-24 01:34:36.498543",
    "updated_at": "2018-08-24 16:45:20.381416",
    "country": "United States",
    "longitude": "-92.6386153347867",
    "latitude": "44.8911208"
  },
  {
    "id": "7953",
    "name": "Sprecher Brewing Co / Chameleon Brewing",
    "brewery_type": "micro",
    "street": "701 W Glendale Ave",
    "city": "Glendale",
    "state": "Wisconsin",
    "postal_code": "53209-6509",
    "website_url": "http://www.sprecherbrewery.com",
    "phone": "4149647837",
    "created_at": "2018-07-24 01:34:36.677349",
    "updated_at": "2018-08-24 16:45:39.187304",
    "country": "United States",
    "longitude": "-87.9196951139335",
    "latitude": "43.09929865"
  },
  {
    "id": "7981",
    "name": "Urban Harvest Brewing Company",
    "brewery_type": "micro",
    "street": "1024 S 5th St",
    "city": "Milwaukee",
    "state": "Wisconsin",
    "postal_code": "53204-1733",
    "website_url": "http://www.urbanharvestbrewing.com",
    "phone": "4142494074",
    "created_at": "2018-07-24 01:34:37.085527",
    "updated_at": "2018-08-24 16:46:14.451801",
    "country": "United States",
    "longitude": "-87.9167274897959",
    "latitude": "43.0208094081633"
  },
  {
    "id": "7856",
    "name": "Gray Brewing Co",
    "brewery_type": "micro",
    "street": "2424 W Court St",
    "city": "Janesville",
    "state": "Wisconsin",
    "postal_code": "53548",
    "website_url": "",
    "phone": "6087565430",
    "created_at": "2018-07-24 01:34:35.419903",
    "updated_at": "2018-08-24 16:43:19.671739",
    "country": "United States",
    "longitude": "-89.0497268926174",
    "latitude": "42.6793079395973"
  },
  {
    "id": "7968",
    "name": "The Fermentorium",
    "brewery_type": "brewpub",
    "street": "7481 Hwy 60",
    "city": "Cedarburg",
    "state": "Wisconsin",
    "postal_code": "53012-9702",
    "website_url": "",
    "phone": "",
    "created_at": "2018-07-24 01:34:36.873265",
    "updated_at": "2018-08-11 21:40:36.989641",
    "country": "United States",
    "longitude": "",
    "latitude": ""
  },
  {
    "id": "7957",
    "name": "SteelHead Aleworks",
    "brewery_type": "micro",
    "street": "",
    "city": "Mukwonago",
    "state": "Wisconsin",
    "postal_code": "53149",
    "website_url": "http://www.stealheadaleworks.com",
    "phone": "",
    "created_at": "2018-07-24 01:34:36.728969",
    "updated_at": "2018-08-11 21:40:36.602862",
    "country": "United States",
    "longitude": "",
    "latitude": ""
  },
  {
    "id": "7782",
    "name": "608 Brewing Company",
    "brewery_type": "planning",
    "street": "",
    "city": "La Crosse",
    "state": "Wisconsin",
    "postal_code": "54603",
    "website_url": "http://www.608brewingcompany.com",
    "phone": "",
    "created_at": "2018-07-24 01:34:34.420248",
    "updated_at": "2018-08-11 21:40:30.11109",
    "country": "United States",
    "longitude": "",
    "latitude": ""
  },
  {
    "id": "7785",
    "name": "Agonic Brewing Company LLC",
    "brewery_type": "planning",
    "street": "",
    "city": "Rice Lake",
    "state": "Wisconsin",
    "postal_code": "54868-8786",
    "website_url": "http://www.agonicbrewing.com",
    "phone": "7153089283",
    "created_at": "2018-07-24 01:34:34.464993",
    "updated_at": "2018-08-11 21:40:30.354742",
    "country": "United States",
    "longitude": "",
    "latitude": ""
  },
  {
    "id": "7793",
    "name": "Barley Johns Brewpub",
    "brewery_type": "brewpub",
    "street": "1280 Madison Ave",
    "city": "New Richmond",
    "state": "Wisconsin",
    "postal_code": "54017-2236",
    "website_url": "http://www.barleyjohnsbrewery.com",
    "phone": "7152464677",
    "created_at": "2018-07-24 01:34:34.569287",
    "updated_at": "2018-08-11 21:40:30.75098",
    "country": "United States",
    "longitude": "",
    "latitude": ""
  },
  {
    "id": "7798",
    "name": "Biloba Brewing",
    "brewery_type": "micro",
    "street": "18720 Pleasant St Stop 4",
    "city": "Brookfield",
    "state": "Wisconsin",
    "postal_code": "53045-3447",
    "website_url": "http://www.bilobabrewing.com",
    "phone": "2623095820",
    "created_at": "2018-07-24 01:34:34.631731",
    "updated_at": "2018-08-11 21:40:30.971821",
    "country": "United States",
    "longitude": "",
    "latitude": ""
  },
  {
    "id": "7800",
    "name": "Bloomer Brewing Co",
    "brewery_type": "micro",
    "street": "1526 Martin Rd Ste A",
    "city": "Bloomer",
    "state": "Wisconsin",
    "postal_code": "54724-1764",
    "website_url": "",
    "phone": "7152713967",
    "created_at": "2018-07-24 01:34:34.656904",
    "updated_at": "2018-08-11 21:40:31.038658",
    "country": "United States",
    "longitude": "",
    "latitude": ""
  },
  {
    "id": "7806",
    "name": "Brewery In Planning - Milwaukee",
    "brewery_type": "planning",
    "street": "",
    "city": "Milwaukee",
    "state": "Wisconsin",
    "postal_code": "53221",
    "website_url": "",
    "phone": "",
    "created_at": "2018-07-24 01:34:34.734953",
    "updated_at": "2018-08-11 21:40:31.17371",
    "country": "United States",
    "longitude": "",
    "latitude": ""
  },
  {
    "id": "7807",
    "name": "Brewery in Planning - Sparta",
    "brewery_type": "planning",
    "street": "",
    "city": "Sparta",
    "state": "Wisconsin",
    "postal_code": "54656-6736",
    "website_url": "",
    "phone": "7152529738",
    "created_at": "2018-07-24 01:34:34.747455",
    "updated_at": "2018-08-11 21:40:31.217878",
    "country": "United States",
    "longitude": "",
    "latitude": ""
  },
  {
    "id": "7808",
    "name": "Brewery in Planning - Wausau, WI",
    "brewery_type": "planning",
    "street": "",
    "city": "Wausau",
    "state": "Wisconsin",
    "postal_code": "54403",
    "website_url": "",
    "phone": "5128267012",
    "created_at": "2018-07-24 01:34:34.762256",
    "updated_at": "2018-08-11 21:40:31.284682",
    "country": "United States",
    "longitude": "",
    "latitude": ""
  },
  {
    "id": "7809",
    "name": "Brewery Resolute",
    "brewery_type": "planning",
    "street": "",
    "city": "Stevens Point",
    "state": "Wisconsin",
    "postal_code": "54481-1843",
    "website_url": "",
    "phone": "7153214617",
    "created_at": "2018-07-24 01:34:34.774614",
    "updated_at": "2018-08-11 21:40:31.333153",
    "country": "United States",
    "longitude": "",
    "latitude": ""
  },
  {
    "id": "7810",
    "name": "Brewfinity Brewing Co",
    "brewery_type": "brewpub",
    "street": "N58 W39800 Industrial Rd Ste D",
    "city": "Oconomowoc",
    "state": "Wisconsin",
    "postal_code": "53066",
    "website_url": "http://www.sweetmulletsbrewing.com",
    "phone": "2624562843",
    "created_at": "2018-07-24 01:34:34.787047",
    "updated_at": "2018-08-11 21:40:31.400204",
    "country": "United States",
    "longitude": "",
    "latitude": ""
  },
  {
    "id": "7811",
    "name": "BrewPlan, Inc.",
    "brewery_type": "planning",
    "street": "",
    "city": "Onalaska",
    "state": "Wisconsin",
    "postal_code": "54650",
    "website_url": "http://www.brewplan.com",
    "phone": "6083869430",
    "created_at": "2018-07-24 01:34:34.799434",
    "updated_at": "2018-08-11 21:40:31.440361",
    "country": "United States",
    "longitude": "",
    "latitude": ""
  },
  {
    "id": "7813",
    "name": "Broken Bat Brewing Company, LLC",
    "brewery_type": "micro",
    "street": "231 E Buffalo St Lowr UNIT",
    "city": "Milwaukee",
    "state": "Wisconsin",
    "postal_code": "53202-5727",
    "website_url": "http://www.brokenbatbrewery.com",
    "phone": "4143169197",
    "created_at": "2018-07-24 01:34:34.826345",
    "updated_at": "2018-08-11 21:40:31.585495",
    "country": "United States",
    "longitude": "",
    "latitude": ""
  },
  {
    "id": "7780",
    "name": "1840 Brewing Company",
    "brewery_type": "micro",
    "street": "342 E Ward St",
    "city": "Milwaukee",
    "state": "Wisconsin",
    "postal_code": "53207-1348",
    "website_url": "http://www.1840brewing.com",
    "phone": "4142364056",
    "created_at": "2018-07-24 01:34:34.393136",
    "updated_at": "2018-08-24 16:41:45.251754",
    "country": "United States",
    "longitude": "-87.9060694231764",
    "latitude": "43.004362417813"
  },
  {
    "id": "7781",
    "name": "3 Sheeps Brewing Co",
    "brewery_type": "micro",
    "street": "1837 North Ave",
    "city": "Sheboygan",
    "state": "Wisconsin",
    "postal_code": "53083-4620",
    "website_url": "http://www.3sheepsbrewing.com",
    "phone": "9209469715",
    "created_at": "2018-07-24 01:34:34.406624",
    "updated_at": "2018-08-24 16:41:46.799861",
    "country": "United States",
    "longitude": "-87.730065244898",
    "latitude": "43.7738456122449"
  },
  {
    "id": "7783",
    "name": "841 Brewhouse",
    "brewery_type": "brewpub",
    "street": "841 E Milwaukee St",
    "city": "Whitewater",
    "state": "Wisconsin",
    "postal_code": "53190-2126",
    "website_url": "",
    "phone": "2624738000",
    "created_at": "2018-07-24 01:34:34.433305",
    "updated_at": "2018-08-24 16:41:48.283559",
    "country": "United States",
    "longitude": "-88.7142734423486",
    "latitude": "42.8323014016847"
  },
  {
    "id": "7784",
    "name": "8th Street Ale Haus",
    "brewery_type": "brewpub",
    "street": "1132 N 8th St",
    "city": "Sheboygan",
    "state": "Wisconsin",
    "postal_code": "53081-3402",
    "website_url": "http://www.sheboyganalehaus.com",
    "phone": "9202087540",
    "created_at": "2018-07-24 01:34:34.448893",
    "updated_at": "2018-08-24 16:41:49.804785",
    "country": "United States",
    "longitude": "-87.7130570204082",
    "latitude": "43.7567439183673"
  },
  {
    "id": "7787",
    "name": "Ale Asylum",
    "brewery_type": "regional",
    "street": "2002 Pankratz St",
    "city": "Madison",
    "state": "Wisconsin",
    "postal_code": "53704-4024",
    "website_url": "http://www.aleasylum.com",
    "phone": "6086633926",
    "created_at": "2018-07-24 01:34:34.491886",
    "updated_at": "2018-08-24 16:41:52.715595",
    "country": "United States",
    "longitude": "-89.3541628513683",
    "latitude": "43.12046815"
  },
  {
    "id": "7788",
    "name": "ALT Brew / Greenview Brewing LLC",
    "brewery_type": "brewpub",
    "street": "1808 Wright St",
    "city": "Madison",
    "state": "Wisconsin",
    "postal_code": "53704-2522",
    "website_url": "http://www.altbrew.com",
    "phone": "6083523373",
    "created_at": "2018-07-24 01:34:34.504366",
    "updated_at": "2018-08-24 16:41:54.256933",
    "country": "United States",
    "longitude": "-89.33026",
    "latitude": "43.1257630536673"
  },
  {
    "id": "7789",
    "name": "Angry Minnow, The",
    "brewery_type": "brewpub",
    "street": "10440 Florida Ave",
    "city": "Hayward",
    "state": "Wisconsin",
    "postal_code": "54843-7112",
    "website_url": "http://www.angryminnow.com",
    "phone": "7159343055",
    "created_at": "2018-07-24 01:34:34.517372",
    "updated_at": "2018-08-24 16:41:55.714384",
    "country": "United States",
    "longitude": "-91.4887672",
    "latitude": "46.0104853"
  },
  {
    "id": "7790",
    "name": "Appleton Beer Factory",
    "brewery_type": "brewpub",
    "street": "603 W College Ave",
    "city": "Appleton",
    "state": "Wisconsin",
    "postal_code": "54911-5803",
    "website_url": "http://www.appletonbeerfactory.com",
    "phone": "9203649931",
    "created_at": "2018-07-24 01:34:34.529992",
    "updated_at": "2018-08-24 16:41:57.265472",
    "country": "United States",
    "longitude": "-88.4139147959184",
    "latitude": "44.2617360204082"
  },
  {
    "id": "7791",
    "name": "Badger State Brewing Company",
    "brewery_type": "micro",
    "street": "990 Tony Canadeo Run",
    "city": "Green Bay",
    "state": "Wisconsin",
    "postal_code": "54304-3762",
    "website_url": "http://www.badgerstatebrewing.com",
    "phone": "9205435320",
    "created_at": "2018-07-24 01:34:34.543649",
    "updated_at": "2018-08-24 16:41:58.724746",
    "country": "United States",
    "longitude": "-88.0513647272727",
    "latitude": "44.4966971818182"
  },
  {
    "id": "7792",
    "name": "Bare Bones Brewery",
    "brewery_type": "brewpub",
    "street": "4362 County Rd S",
    "city": "Oshkosh",
    "state": "Wisconsin",
    "postal_code": "54904-9575",
    "website_url": "http://www.barebonesbrewery.us",
    "phone": "9207448045",
    "created_at": "2018-07-24 01:34:34.556442",
    "updated_at": "2018-08-24 16:42:00.28391",
    "country": "United States",
    "longitude": "-88.5907535444312",
    "latitude": "44.0785645737559"
  },
  {
    "id": "7794",
    "name": "Bavarian Bierhaus",
    "brewery_type": "brewpub",
    "street": "700 W Lexington Blvd",
    "city": "Glendale",
    "state": "Wisconsin",
    "postal_code": "53217-4912",
    "website_url": "http://www.thebavarianbierhaus.com",
    "phone": "4142367000",
    "created_at": "2018-07-24 01:34:34.581889",
    "updated_at": "2018-08-24 16:42:03.329029",
    "country": "United States",
    "longitude": "-87.9192300902041",
    "latitude": "43.1141584541142"
  },
  {
    "id": "7795",
    "name": "Benjamin Beer Co",
    "brewery_type": "micro",
    "street": "507 6th St",
    "city": "Racine",
    "state": "Wisconsin",
    "postal_code": "53403-1117",
    "website_url": "http://www.benjaminbeer.com",
    "phone": "2625832034",
    "created_at": "2018-07-24 01:34:34.594387",
    "updated_at": "2018-08-24 16:42:04.814493",
    "country": "United States",
    "longitude": "-87.78630171617",
    "latitude": "42.7264151187199"
  },
  {
    "id": "7799",
    "name": "Black Husky Brewing LLC",
    "brewery_type": "micro",
    "street": "909 E Locust St",
    "city": "Milwaukee",
    "state": "Wisconsin",
    "postal_code": "53212",
    "website_url": "http://www.blackhuskybrewing.com",
    "phone": "4045098855",
    "created_at": "2018-07-24 01:34:34.64459",
    "updated_at": "2018-08-24 16:42:10.931143",
    "country": "United States",
    "longitude": "-87.9000845699775",
    "latitude": "43.071024"
  },
  {
    "id": "7802",
    "name": "Bobtown Brewhouse & Grill",
    "brewery_type": "brewpub",
    "street": "220 W Main St",
    "city": "Roberts",
    "state": "Wisconsin",
    "postal_code": "54023",
    "website_url": "http://www.bobtownbrewhouse.com",
    "phone": "7153381046",
    "created_at": "2018-07-24 01:34:34.681963",
    "updated_at": "2018-08-24 16:42:15.421309",
    "country": "United States",
    "longitude": "-92.55599",
    "latitude": "44.983639"
  },
  {
    "id": "7803",
    "name": "Brewery Creek Inn, Restaurant and Brewery",
    "brewery_type": "brewpub",
    "street": "23 Commerce St",
    "city": "Mineral Point",
    "state": "Wisconsin",
    "postal_code": "53565-1368",
    "website_url": "http://www.brewerycreek.com",
    "phone": "6089873298",
    "created_at": "2018-07-24 01:34:34.695534",
    "updated_at": "2018-08-24 16:42:16.896923",
    "country": "United States",
    "longitude": "-90.1771217926162",
    "latitude": "42.8572996240752"
  },
  {
    "id": "7812",
    "name": "Brewster Bros Brewing Co",
    "brewery_type": "micro",
    "street": "402 W River St",
    "city": "Chippewa Falls",
    "state": "Wisconsin",
    "postal_code": "54729-2355",
    "website_url": "http://www.chippewariverdistillery.com/beer/",
    "phone": "7158615100",
    "created_at": "2018-07-24 01:34:34.812297",
    "updated_at": "2018-08-24 16:42:19.861181",
    "country": "United States",
    "longitude": "-91.3964659335745",
    "latitude": "44.9317946202386"
  },
  {
    "id": "7814",
    "name": "Buffalo Water Beer Co",
    "brewery_type": "contract",
    "street": "309 N Water St, #315",
    "city": "Milwaukee",
    "state": "Wisconsin",
    "postal_code": "53202-5710",
    "website_url": "http://www.buffalowaterbeer.com",
    "phone": "4142734680",
    "created_at": "2018-07-24 01:34:34.839281",
    "updated_at": "2018-08-24 16:42:22.911093",
    "country": "United States",
    "longitude": "-87.9092089",
    "latitude": "43.0341323"
  },
  {
    "id": "7815",
    "name": "Bull Falls Brewery LLC",
    "brewery_type": "micro",
    "street": "901 E Thomas St",
    "city": "Wausau",
    "state": "Wisconsin",
    "postal_code": "54403-6450",
    "website_url": "http://www.bullfallsbrewery.com",
    "phone": "715842",
    "created_at": "2018-07-24 01:34:34.852842",
    "updated_at": "2018-08-24 16:42:24.404552",
    "country": "United States",
    "longitude": "-89.6174386",
    "latitude": "44.951511"
  },
  {
    "id": "7824",
    "name": "Component Brewing Co",
    "brewery_type": "micro",
    "street": "2018 S 1st St Ste 207",
    "city": "Milwaukee",
    "state": "Wisconsin",
    "postal_code": "53207",
    "website_url": "http://www.componentbrewing.com",
    "phone": "4149791088",
    "created_at": "2018-07-24 01:34:34.974737",
    "updated_at": "2018-08-11 21:40:31.990621",
    "country": "United States",
    "longitude": "",
    "latitude": ""
  },
  {
    "id": "7826",
    "name": "Corner Pub",
    "brewery_type": "brewpub",
    "street": "100 E Main St Lowr",
    "city": "Reedsburg",
    "state": "Wisconsin",
    "postal_code": "53959-1967",
    "website_url": "",
    "phone": "6085248989",
    "created_at": "2018-07-24 01:34:35.005224",
    "updated_at": "2018-08-11 21:40:32.043811",
    "country": "United States",
    "longitude": "",
    "latitude": ""
  },
  {
    "id": "7832",
    "name": "Dissident Brewing",
    "brewery_type": "planning",
    "street": "",
    "city": "Milwaukee",
    "state": "Wisconsin",
    "postal_code": "53207-3221",
    "website_url": "http://www.dissidentbrewing.com",
    "phone": "4145171845",
    "created_at": "2018-07-24 01:34:35.110749",
    "updated_at": "2018-08-11 21:40:32.254258",
    "country": "United States",
    "longitude": "",
    "latitude": ""
  },
  {
    "id": "7838",
    "name": "East Troy Brewery",
    "brewery_type": "planning",
    "street": "",
    "city": "East Troy",
    "state": "Wisconsin",
    "postal_code": "53120-1245",
    "website_url": "http://www.etbrew.com",
    "phone": "2624703026",
    "created_at": "2018-07-24 01:34:35.183433",
    "updated_at": "2018-08-11 21:40:32.442507",
    "country": "United States",
    "longitude": "",
    "latitude": ""
  },
  {
    "id": "7839",
    "name": "Enlightened Brewing Company",
    "brewery_type": "micro",
    "street": "2018 S 1st St Ste 170",
    "city": "Milwaukee",
    "state": "Wisconsin",
    "postal_code": "53207-1102",
    "website_url": "http://www.enlightenedbeer.com",
    "phone": "4143646225",
    "created_at": "2018-07-24 01:34:35.197251",
    "updated_at": "2018-08-11 21:40:32.482526",
    "country": "United States",
    "longitude": "",
    "latitude": ""
  },
  {
    "id": "7845",
    "name": "Fox Head Brewing LLC",
    "brewery_type": "micro",
    "street": "2132 S West Ave",
    "city": "Waukesha",
    "state": "Wisconsin",
    "postal_code": "53189-7917",
    "website_url": "",
    "phone": "4146510504",
    "created_at": "2018-07-24 01:34:35.272808",
    "updated_at": "2018-08-11 21:40:32.682342",
    "country": "United States",
    "longitude": "",
    "latitude": ""
  },
  {
    "id": "7847",
    "name": "Fox River Brewing Co and Restaurant",
    "brewery_type": "brewpub",
    "street": "4301 W Wisconsin Ave Ste 189",
    "city": "Appleton",
    "state": "Wisconsin",
    "postal_code": "54913-6530",
    "website_url": "http://www.supplerestaurantgroup.com",
    "phone": "9209910000",
    "created_at": "2018-07-24 01:34:35.29962",
    "updated_at": "2018-08-11 21:40:32.754383",
    "country": "United States",
    "longitude": "",
    "latitude": ""
  },
  {
    "id": "7848",
    "name": "Foxtown Brewing",
    "brewery_type": "planning",
    "street": "",
    "city": "Mequon",
    "state": "Wisconsin",
    "postal_code": "53097-2206",
    "website_url": "",
    "phone": "",
    "created_at": "2018-07-24 01:34:35.312992",
    "updated_at": "2018-08-11 21:40:32.800798",
    "country": "United States",
    "longitude": "",
    "latitude": ""
  },
  {
    "id": "7852",
    "name": "Geneva Lake Brewing Co",
    "brewery_type": "micro",
    "street": "750 Veterans Pkwy Unit 107",
    "city": "Lake Geneva",
    "state": "Wisconsin",
    "postal_code": "53147-4950",
    "website_url": "http://www.genevalakebrewingcompany.com",
    "phone": "2622154955",
    "created_at": "2018-07-24 01:34:35.36916",
    "updated_at": "2018-08-11 21:40:32.976511",
    "country": "United States",
    "longitude": "",
    "latitude": ""
  },
  {
    "id": "7853",
    "name": "Giant Jones Brewing LLC",
    "brewery_type": "micro",
    "street": "931 E Main St Suite 9",
    "city": "Madison ",
    "state": "Wisconsin",
    "postal_code": "53703",
    "website_url": "http://Www.giantjones.com",
    "phone": "6086205172",
    "created_at": "2018-07-24 01:34:35.382166",
    "updated_at": "2018-08-11 21:40:33.035376",
    "country": "United States",
    "longitude": "",
    "latitude": ""
  },
  {
    "id": "7857",
    "name": "Great Dane Pub and Brewing Co - Downtown",
    "brewery_type": "brewpub",
    "street": "123 E Doty St Ste 1",
    "city": "Madison",
    "state": "Wisconsin",
    "postal_code": "53703-5134",
    "website_url": "http://www.greatdanepub.com",
    "phone": "6082840000",
    "created_at": "2018-07-24 01:34:35.432163",
    "updated_at": "2018-08-11 21:40:33.151166",
    "country": "United States",
    "longitude": "",
    "latitude": ""
  },
  {
    "id": "7818",
    "name": "Central Waters Brewing Co",
    "brewery_type": "regional",
    "street": "351 Allen St",
    "city": "Amherst",
    "state": "Wisconsin",
    "postal_code": "54406-8954",
    "website_url": "http://www.centralwaters.com",
    "phone": "7158242739",
    "created_at": "2018-07-24 01:34:34.892416",
    "updated_at": "2018-08-24 16:42:28.805883",
    "country": "United States",
    "longitude": "-89.2797018161119",
    "latitude": "44.4422503"
  },
  {
    "id": "7819",
    "name": "Cercis Brewing Company",
    "brewery_type": "micro",
    "street": "106 N Dickason Blvd",
    "city": "Columbus",
    "state": "Wisconsin",
    "postal_code": "53925-",
    "website_url": "",
    "phone": "9203500500",
    "created_at": "2018-07-24 01:34:34.905479",
    "updated_at": "2018-08-24 16:42:30.272155",
    "country": "United States",
    "longitude": "-89.0154292244898",
    "latitude": "43.339077877551"
  },
  {
    "id": "7821",
    "name": "City Lights Brewing Co.",
    "brewery_type": "micro",
    "street": "2200 W Mount Vernon Ave",
    "city": "Milwaukee",
    "state": "Wisconsin",
    "postal_code": "53233-2672",
    "website_url": "http://www.citylightsbrewing.com",
    "phone": "4145209692",
    "created_at": "2018-07-24 01:34:34.932288",
    "updated_at": "2018-08-24 16:42:33.337047",
    "country": "United States",
    "longitude": "-88.0118646",
    "latitude": "43.0339815"
  },
  {
    "id": "7822",
    "name": "City Service Brewing",
    "brewery_type": "micro",
    "street": "404 Main St",
    "city": "Darlington",
    "state": "Wisconsin",
    "postal_code": "53530-1428",
    "website_url": "http://www.cityservicebrewing.wixsite.com",
    "phone": "",
    "created_at": "2018-07-24 01:34:34.94646",
    "updated_at": "2018-08-24 16:42:34.810419",
    "country": "United States",
    "longitude": "-90.1178715510204",
    "latitude": "42.6802841836735"
  },
  {
    "id": "7823",
    "name": "Company Brewing Co",
    "brewery_type": "brewpub",
    "street": "735 E Center St",
    "city": "Milwaukee",
    "state": "Wisconsin",
    "postal_code": "53212-2944",
    "website_url": "",
    "phone": "4149300909",
    "created_at": "2018-07-24 01:34:34.962243",
    "updated_at": "2018-08-24 16:42:36.293092",
    "country": "United States",
    "longitude": "-87.901820861198",
    "latitude": "43.0672919"
  },
  {
    "id": "7825",
    "name": "Copper State Brewing Co",
    "brewery_type": "brewpub",
    "street": "313 Dousman St",
    "city": "Green Bay",
    "state": "Wisconsin",
    "postal_code": "54303-2713",
    "website_url": "http://www.copperstate.beer",
    "phone": "9204898575",
    "created_at": "2018-07-24 01:34:34.987291",
    "updated_at": "2018-08-24 16:42:39.278246",
    "country": "United States",
    "longitude": "-88.0191605414824",
    "latitude": "44.5189616395188"
  },
  {
    "id": "7827",
    "name": "Courthouse Pub",
    "brewery_type": "brewpub",
    "street": "1001 S 8th St",
    "city": "Manitowoc",
    "state": "Wisconsin",
    "postal_code": "54220-5307",
    "website_url": "http://www.courthousepub.com",
    "phone": "9206861166",
    "created_at": "2018-07-24 01:34:35.045739",
    "updated_at": "2018-08-24 16:42:42.247265",
    "country": "United States",
    "longitude": "-87.657895875",
    "latitude": "44.089506375"
  },
  {
    "id": "7828",
    "name": "Cross Plains Brewery Inc.",
    "brewery_type": "contract",
    "street": "2109 Hickory St",
    "city": "Cross Plains",
    "state": "Wisconsin",
    "postal_code": "53528-9700",
    "website_url": "http://www.essersbest.com",
    "phone": "6087983911",
    "created_at": "2018-07-24 01:34:35.059579",
    "updated_at": "2018-08-24 16:42:43.709016",
    "country": "United States",
    "longitude": "-89.6529392177922",
    "latitude": "43.1142776522926"
  },
  {
    "id": "7829",
    "name": "Dave's Brew Farm",
    "brewery_type": "micro",
    "street": "2470 Wilson St",
    "city": "Wilson",
    "state": "Wisconsin",
    "postal_code": "54027-3950",
    "website_url": "http://www.brewfarm.com",
    "phone": "6124328130",
    "created_at": "2018-07-24 01:34:35.072483",
    "updated_at": "2018-08-24 16:42:45.19276",
    "country": "United States",
    "longitude": "-92.176188",
    "latitude": "44.959339"
  },
  {
    "id": "7830",
    "name": "Dead Bird Brewing Company",
    "brewery_type": "contract",
    "street": "4539 Helgesen Dr",
    "city": "Madison",
    "state": "Wisconsin",
    "postal_code": "53718-6747",
    "website_url": "http://www.deadbirdbrewing.com",
    "phone": "",
    "created_at": "2018-07-24 01:34:35.084617",
    "updated_at": "2018-08-24 16:42:46.639182",
    "country": "United States",
    "longitude": "-89.305331202224",
    "latitude": "43.0662949"
  },
  {
    "id": "7831",
    "name": "Delafield Brewhaus",
    "brewery_type": "brewpub",
    "street": "3832 Hillside Dr",
    "city": "Delafield",
    "state": "Wisconsin",
    "postal_code": "53018-2174",
    "website_url": "http://www.delafield-brewhaus.com",
    "phone": "2626467821",
    "created_at": "2018-07-24 01:34:35.098326",
    "updated_at": "2018-08-24 16:42:48.091581",
    "country": "United States",
    "longitude": "-88.350304",
    "latitude": "43.048373"
  },
  {
    "id": "7833",
    "name": "District 14 Brewery & Pub",
    "brewery_type": "brewpub",
    "street": "2273 S Howell Ave",
    "city": "Milwaukee",
    "state": "Wisconsin",
    "postal_code": "53207-1325",
    "website_url": "",
    "phone": "4147440399",
    "created_at": "2018-07-24 01:34:35.122585",
    "updated_at": "2018-08-24 16:42:49.65259",
    "country": "United States",
    "longitude": "-87.9095587",
    "latitude": "42.9581912"
  },
  {
    "id": "7836",
    "name": "Eagle Park Brewing Company",
    "brewery_type": "brewpub",
    "street": "823 E Hamilton St",
    "city": "Milwaukee",
    "state": "Wisconsin",
    "postal_code": "53202",
    "website_url": "http://www.eagleparkbrewing.com",
    "phone": "4145850123",
    "created_at": "2018-07-24 01:34:35.159329",
    "updated_at": "2018-08-24 16:42:54.112049",
    "country": "United States",
    "longitude": "-87.9014396124632",
    "latitude": "43.0542106"
  },
  {
    "id": "7837",
    "name": "Earth Rider Brewing Co",
    "brewery_type": "micro",
    "street": "1617 N 3rd St",
    "city": "Superior",
    "state": "Wisconsin",
    "postal_code": "54880-1016",
    "website_url": "http://www.earthrider.beer",
    "phone": "7153947391",
    "created_at": "2018-07-24 01:34:35.171316",
    "updated_at": "2018-08-24 16:42:55.623853",
    "country": "United States",
    "longitude": "-92.1011774897959",
    "latitude": "46.7352811632653"
  },
  {
    "id": "7840",
    "name": "Fat Boy Brewing Co",
    "brewery_type": "contract",
    "street": "2851 S Stratton Dr",
    "city": "Milwaukee",
    "state": "Wisconsin",
    "postal_code": "53219-2759",
    "website_url": "http://www.fatboybeer.com",
    "phone": "4147616366",
    "created_at": "2018-07-24 01:34:35.209884",
    "updated_at": "2018-08-24 16:42:58.598466",
    "country": "United States",
    "longitude": "-88.013008100964",
    "latitude": "42.9922707920844"
  },
  {
    "id": "7841",
    "name": "Ffats Brewing Co - Production Only",
    "brewery_type": "micro",
    "street": "36447 Main St",
    "city": "Whitehall",
    "state": "Wisconsin",
    "postal_code": "54773-9108",
    "website_url": "http://www.ffatsbrewing.com",
    "phone": "7155383162",
    "created_at": "2018-07-24 01:34:35.222642",
    "updated_at": "2018-08-24 16:43:00.062",
    "country": "United States",
    "longitude": "-91.3167513033617",
    "latitude": "44.3712155010867"
  },
  {
    "id": "7842",
    "name": "Fifth Ward Brewing Company",
    "brewery_type": "micro",
    "street": "1009 S Main St",
    "city": "Oshkosh",
    "state": "Wisconsin",
    "postal_code": "54902-6019",
    "website_url": "http://www.fifthwardbrewing.com",
    "phone": "9204791876",
    "created_at": "2018-07-24 01:34:35.234927",
    "updated_at": "2018-08-24 16:43:01.607405",
    "country": "United States",
    "longitude": "-88.5408574",
    "latitude": "44.0206919"
  },
  {
    "id": "7843",
    "name": "Flix Brewhouse - Madison",
    "brewery_type": "brewpub",
    "street": "85 East Towne Mall",
    "city": "Madison",
    "state": "Wisconsin",
    "postal_code": "53704",
    "website_url": "",
    "phone": "5122442739",
    "created_at": "2018-07-24 01:34:35.247522",
    "updated_at": "2018-08-24 16:43:03.123911",
    "country": "United States",
    "longitude": "-89.3040968034347",
    "latitude": "43.1283021039365"
  },
  {
    "id": "7844",
    "name": "Fountain City Brewing Co / Monarch Public House",
    "brewery_type": "contract",
    "street": "19 N Main St",
    "city": "Fountain City",
    "state": "Wisconsin",
    "postal_code": "54629-",
    "website_url": "http://www.monarchtavern.com",
    "phone": "6086874231",
    "created_at": "2018-07-24 01:34:35.260158",
    "updated_at": "2018-08-24 16:43:04.643645",
    "country": "United States",
    "longitude": "-91.717370392497",
    "latitude": "44.1312440098884"
  },
  {
    "id": "7846",
    "name": "Fox River Brewing Co",
    "brewery_type": "brewpub",
    "street": "1501 Arboretum Dr",
    "city": "Oshkosh",
    "state": "Wisconsin",
    "postal_code": "54901-2791",
    "website_url": "http://www.foxriverbrewing.com",
    "phone": "9202322337",
    "created_at": "2018-07-24 01:34:35.285637",
    "updated_at": "2018-08-24 16:43:07.65325",
    "country": "United States",
    "longitude": "-88.560941",
    "latitude": "44.036512"
  },
  {
    "id": "7850",
    "name": "Furthermore Beer",
    "brewery_type": "contract",
    "street": "320 Pierce St",
    "city": "Black River Falls",
    "state": "Wisconsin",
    "postal_code": "54615",
    "website_url": "http://www.furthermorebeer.com",
    "phone": "6085883300",
    "created_at": "2018-07-24 01:34:35.34242",
    "updated_at": "2018-08-24 16:43:12.04878",
    "country": "United States",
    "longitude": "-90.8511552303856",
    "latitude": "44.2927912590671"
  },
  {
    "id": "7851",
    "name": "Gathering Place Brewing Company",
    "brewery_type": "micro",
    "street": "811 E Vienna Ave",
    "city": "Milwaukee",
    "state": "Wisconsin",
    "postal_code": "53212-1775",
    "website_url": "http://www.gatheringplacebrewing.com",
    "phone": "4143646328",
    "created_at": "2018-07-24 01:34:35.355699",
    "updated_at": "2018-08-24 16:43:13.546854",
    "country": "United States",
    "longitude": "-87.9010744489796",
    "latitude": "43.0857358979592"
  },
  {
    "id": "7859",
    "name": "Great Dane Pub and Brewing Co -- Hilldale",
    "brewery_type": "brewpub",
    "street": "357 Price Pl",
    "city": "Madison",
    "state": "Wisconsin",
    "postal_code": "53705-3208",
    "website_url": "http://www.greatdanepub.com",
    "phone": "6086619400",
    "created_at": "2018-07-24 01:34:35.458983",
    "updated_at": "2018-08-24 16:43:24.455979",
    "country": "United States",
    "longitude": "-89.4524381815434",
    "latitude": "43.0706137534088"
  },
  {
    "id": "7860",
    "name": "Great Dane Pub and Brewing Co- Wausau",
    "brewery_type": "brewpub",
    "street": "2305 Sherman St",
    "city": "Wausau",
    "state": "Wisconsin",
    "postal_code": "54401-1708",
    "website_url": "http://www.greatdanepub.com",
    "phone": "7158453000",
    "created_at": "2018-07-24 01:34:35.471777",
    "updated_at": "2018-08-24 16:43:25.977859",
    "country": "United States",
    "longitude": "-89.6648256841412",
    "latitude": "44.9511963"
  },
  {
    "id": "7861",
    "name": "Grumpy Troll, The",
    "brewery_type": "micro",
    "street": "105 S 2nd St",
    "city": "Mount Horeb",
    "state": "Wisconsin",
    "postal_code": "53572-2105",
    "website_url": "http://www.thegrumpytroll.com",
    "phone": "6084372739",
    "created_at": "2018-07-24 01:34:35.484492",
    "updated_at": "2018-08-24 16:43:27.471949",
    "country": "United States",
    "longitude": "-89.7383040408163",
    "latitude": "43.0084144285714"
  },
  {
    "id": "7862",
    "name": "Highholder Brewing Company",
    "brewery_type": "micro",
    "street": "2211 Oregon St",
    "city": "Oshkosh",
    "state": "Wisconsin",
    "postal_code": "54902-7001",
    "website_url": "http://www.highholderbrewing.com",
    "phone": "9207445122",
    "created_at": "2018-07-24 01:34:35.496862",
    "updated_at": "2018-08-24 16:43:29.002634",
    "country": "United States",
    "longitude": "-88.5425973061224",
    "latitude": "43.9938571836735"
  },
  {
    "id": "7863",
    "name": "Hillsboro Brewing Company",
    "brewery_type": "brewpub",
    "street": "815 Water Ave",
    "city": "Hillsboro",
    "state": "Wisconsin",
    "postal_code": "54634-6213",
    "website_url": "http://www.hillsborobrewingcompany.com",
    "phone": "6084897486",
    "created_at": "2018-07-24 01:34:35.509745",
    "updated_at": "2018-08-24 16:43:30.492443",
    "country": "United States",
    "longitude": "-90.3398480714286",
    "latitude": "43.6506641632653"
  },
  {
    "id": "7866",
    "name": "Hop Garden Brewing",
    "brewery_type": "contract",
    "street": "N8668 County Road D",
    "city": "Belleville",
    "state": "Wisconsin",
    "postal_code": "53508-9626",
    "website_url": "http://www.thehopgarden.net",
    "phone": "6085169649",
    "created_at": "2018-07-24 01:34:35.547307",
    "updated_at": "2018-08-11 21:40:33.500015",
    "country": "United States",
    "longitude": "",
    "latitude": ""
  },
  {
    "id": "7870",
    "name": "Hubbleton Brewing",
    "brewery_type": "micro",
    "street": "W10445 Hubbleton Rd",
    "city": "Waterloo",
    "state": "Wisconsin",
    "postal_code": "53594",
    "website_url": "",
    "phone": "9202537141",
    "created_at": "2018-07-24 01:34:35.598573",
    "updated_at": "2018-08-11 21:40:33.658509",
    "country": "United States",
    "longitude": "",
    "latitude": ""
  },
  {
    "id": "7880",
    "name": "Lazy Monk Brewing",
    "brewery_type": "micro",
    "street": "320 Putnam St Unit 4",
    "city": "Eau Claire",
    "state": "Wisconsin",
    "postal_code": "54703-3896",
    "website_url": "http://www.lazymonkbrewing.com",
    "phone": "7152710848",
    "created_at": "2018-07-24 01:34:35.726492",
    "updated_at": "2018-08-11 21:40:34.025044",
    "country": "United States",
    "longitude": "",
    "latitude": ""
  },
  {
    "id": "7888",
    "name": "McFleshman's Public House",
    "brewery_type": "planning",
    "street": "",
    "city": "Appleton",
    "state": "Wisconsin",
    "postal_code": "54911-5840",
    "website_url": "http://www.mcfleshmans.com",
    "phone": "4056270167",
    "created_at": "2018-07-24 01:34:35.834223",
    "updated_at": "2018-08-11 21:40:34.272242",
    "country": "United States",
    "longitude": "",
    "latitude": ""
  },
  {
    "id": "7896",
    "name": "Minocqua Brewing Co",
    "brewery_type": "brewpub",
    "street": "238 Lake Shore Dr",
    "city": "Minocqua",
    "state": "Wisconsin",
    "postal_code": "54548-0081",
    "website_url": "http://minocquabrewingcompany.com",
    "phone": "7153562600",
    "created_at": "2018-07-24 01:34:35.939031",
    "updated_at": "2018-08-11 21:40:34.545041",
    "country": "United States",
    "longitude": "",
    "latitude": ""
  },
  {
    "id": "7898",
    "name": "Modicum Brewing",
    "brewery_type": "micro",
    "street": "3732 Spooner Ave Ste A",
    "city": "Altoona",
    "state": "Wisconsin",
    "postal_code": "54720-1097",
    "website_url": "http://www.modicumbrewing.com",
    "phone": "7158958585",
    "created_at": "2018-07-24 01:34:35.964034",
    "updated_at": "2018-08-11 21:40:34.613663",
    "country": "United States",
    "longitude": "",
    "latitude": ""
  },
  {
    "id": "7900",
    "name": "New Barons Brewing Cooperative",
    "brewery_type": "planning",
    "street": "",
    "city": "Milwaukee",
    "state": "Wisconsin",
    "postal_code": "53202-2821",
    "website_url": "http://www.newbaronsbrewing.com",
    "phone": "3147050016",
    "created_at": "2018-07-24 01:34:35.988883",
    "updated_at": "2018-08-11 21:40:34.683447",
    "country": "United States",
    "longitude": "",
    "latitude": ""
  },
  {
    "id": "7902",
    "name": "New Glarus Brewing Co - Riverside",
    "brewery_type": "micro",
    "street": "2400 State Hwy 69",
    "city": "New Glarus",
    "state": "Wisconsin",
    "postal_code": "53574",
    "website_url": "http://www.newglarusbrewing.com",
    "phone": "6085275851",
    "created_at": "2018-07-24 01:34:36.019624",
    "updated_at": "2018-08-11 21:40:34.752348",
    "country": "United States",
    "longitude": "",
    "latitude": ""
  },
  {
    "id": "7909",
    "name": "Oliphant Brewing",
    "brewery_type": "micro",
    "street": "350 Main St Ste 2",
    "city": "Somerset",
    "state": "Wisconsin",
    "postal_code": "54025-9108",
    "website_url": "http://www.oliphantbrewing.com",
    "phone": "6513077881",
    "created_at": "2018-07-24 01:34:36.109798",
    "updated_at": "2018-08-11 21:40:35.113264",
    "country": "United States",
    "longitude": "",
    "latitude": ""
  },
  {
    "id": "7910",
    "name": "Ombibulous Brewing Company",
    "brewery_type": "planning",
    "street": "",
    "city": "Fall Creek",
    "state": "Wisconsin",
    "postal_code": "54742-4965",
    "website_url": "",
    "phone": "7155779151",
    "created_at": "2018-07-24 01:34:36.122559",
    "updated_at": "2018-08-11 21:40:35.143155",
    "country": "United States",
    "longitude": "",
    "latitude": ""
  },
  {
    "id": "7867",
    "name": "Hop Haus Brewing Co",
    "brewery_type": "brewpub",
    "street": "231 S Main St",
    "city": "Verona",
    "state": "Wisconsin",
    "postal_code": "53593-1470",
    "website_url": "http://www.hophausbrewing.com",
    "phone": "6084973165",
    "created_at": "2018-07-24 01:34:35.559787",
    "updated_at": "2018-08-24 16:43:36.728929",
    "country": "United States",
    "longitude": "-89.5335302111111",
    "latitude": "42.9880348555556"
  },
  {
    "id": "7868",
    "name": "Hops and Leisure",
    "brewery_type": "contract",
    "street": "1225 Robruck Dr # A",
    "city": "Oconomowoc",
    "state": "Wisconsin",
    "postal_code": "53066-4446",
    "website_url": "http://www.hopsandleisure.com",
    "phone": "2625678536",
    "created_at": "2018-07-24 01:34:35.572351",
    "updated_at": "2018-08-24 16:43:38.322952",
    "country": "United States",
    "longitude": "-88.4785190960753",
    "latitude": "43.0922443643863"
  },
  {
    "id": "7869",
    "name": "House of Brews",
    "brewery_type": "micro",
    "street": "4539 Helgesen Dr",
    "city": "Madison",
    "state": "Wisconsin",
    "postal_code": "53718-6747",
    "website_url": "",
    "phone": "6083477243",
    "created_at": "2018-07-24 01:34:35.585867",
    "updated_at": "2018-08-24 16:43:39.75857",
    "country": "United States",
    "longitude": "-89.305331202224",
    "latitude": "43.0662949"
  },
  {
    "id": "7871",
    "name": "Inventors Brewpub",
    "brewery_type": "brewpub",
    "street": "435 N Lake St",
    "city": "Port Washington",
    "state": "Wisconsin",
    "postal_code": "53074-1608",
    "website_url": "",
    "phone": "",
    "created_at": "2018-07-24 01:34:35.611",
    "updated_at": "2018-08-24 16:43:42.68768",
    "country": "United States",
    "longitude": "-87.8670010500134",
    "latitude": "43.3919503946063"
  },
  {
    "id": "7872",
    "name": "Jacob Leinenkugel Brewing Co",
    "brewery_type": "large",
    "street": "1 Jefferson Ave",
    "city": "Chippewa Falls",
    "state": "Wisconsin",
    "postal_code": "54729-1318",
    "website_url": "http://www.leinie.com",
    "phone": "7157235558",
    "created_at": "2018-07-24 01:34:35.623486",
    "updated_at": "2018-08-24 16:43:44.159571",
    "country": "United States",
    "longitude": "-91.396442",
    "latitude": "44.944606"
  },
  {
    "id": "7873",
    "name": "K Point Brewing",
    "brewery_type": "brewpub",
    "street": "507 Main St",
    "city": "Eau Claire",
    "state": "Wisconsin",
    "postal_code": "54701-3736",
    "website_url": "http://www.thecoffeegrounds.com/k-point-brewing/",
    "phone": "",
    "created_at": "2018-07-24 01:34:35.635858",
    "updated_at": "2018-08-24 16:43:45.669807",
    "country": "United States",
    "longitude": "-91.4963440532083",
    "latitude": "44.8111483394508"
  },
  {
    "id": "7874",
    "name": "Karben4 Brewing",
    "brewery_type": "micro",
    "street": "3698 Kinsman Blvd",
    "city": "Madison",
    "state": "Wisconsin",
    "postal_code": "53704-2509",
    "website_url": "http://www.karben4.com",
    "phone": "6082414811",
    "created_at": "2018-07-24 01:34:35.648697",
    "updated_at": "2018-08-24 16:43:47.099614",
    "country": "United States",
    "longitude": "-89.3257324806858",
    "latitude": "43.126221"
  },
  {
    "id": "7875",
    "name": "Knuth Brewing Company",
    "brewery_type": "brewpub",
    "street": "221 Watson St",
    "city": "Ripon",
    "state": "Wisconsin",
    "postal_code": "54971-1514",
    "website_url": "http://www.knuthbrewingcompany.com",
    "phone": "9207485188",
    "created_at": "2018-07-24 01:34:35.661412",
    "updated_at": "2018-08-24 16:43:48.556005",
    "country": "United States",
    "longitude": "-88.8386613",
    "latitude": "43.8446401"
  },
  {
    "id": "7876",
    "name": "Kozy Yak Brewery & Fresar Winery",
    "brewery_type": "brewpub",
    "street": "197 N Main St",
    "city": "Rosholt",
    "state": "Wisconsin",
    "postal_code": "54473-9741",
    "website_url": "http://www.kozyyak.com",
    "phone": "7156773082",
    "created_at": "2018-07-24 01:34:35.673523",
    "updated_at": "2018-08-24 16:43:50.030838",
    "country": "United States",
    "longitude": "-89.3091476326531",
    "latitude": "44.6293434285714"
  },
  {
    "id": "7877",
    "name": "Kul Brewing",
    "brewery_type": "contract",
    "street": "1106 3rd St S",
    "city": "La Crosse",
    "state": "Wisconsin",
    "postal_code": "54601",
    "website_url": "http://www.kulbrewing.com",
    "phone": "",
    "created_at": "2018-07-24 01:34:35.685751",
    "updated_at": "2018-08-24 16:43:51.510592",
    "country": "United States",
    "longitude": "-91.2535935333311",
    "latitude": "43.8024902889693"
  },
  {
    "id": "7878",
    "name": "Lake Louie Brewing Co",
    "brewery_type": "micro",
    "street": "7556 Pine Rd",
    "city": "Arena",
    "state": "Wisconsin",
    "postal_code": "53503-9236",
    "website_url": "http://www.lakelouie.com",
    "phone": "6087532675",
    "created_at": "2018-07-24 01:34:35.699617",
    "updated_at": "2018-08-24 16:43:52.989513",
    "country": "United States",
    "longitude": "-89.9322691785827",
    "latitude": "43.1729971906664"
  },
  {
    "id": "7882",
    "name": "Legends Brewhouse and Eatery (#2)",
    "brewery_type": "brewpub",
    "street": "875 Heritage Rd",
    "city": "de Pere",
    "state": "Wisconsin",
    "postal_code": "54115-3148",
    "website_url": "http://www.legendseatery.com",
    "phone": "9203368036",
    "created_at": "2018-07-24 01:34:35.75443",
    "updated_at": "2018-08-24 16:43:58.989509",
    "country": "United States",
    "longitude": "-88.0641076442953",
    "latitude": "44.4281921275168"
  },
  {
    "id": "7883",
    "name": "Leinenkugel's 10th Street Brewery",
    "brewery_type": "large",
    "street": "1515 N 10th St",
    "city": "Milwaukee",
    "state": "Wisconsin",
    "postal_code": "53205-2157",
    "website_url": "http://www.leinie.com",
    "phone": "4149313900",
    "created_at": "2018-07-24 01:34:35.770093",
    "updated_at": "2018-08-24 16:44:00.446243",
    "country": "United States",
    "longitude": "-87.9245508313463",
    "latitude": "43.05050335"
  },
  {
    "id": "7884",
    "name": "Like Minds Brewing Co.",
    "brewery_type": "micro",
    "street": "823 E Hamilton St",
    "city": "Milwaukee",
    "state": "Wisconsin",
    "postal_code": "53202-1555",
    "website_url": "http://www.likemindsbrewingco.com",
    "phone": "4142398587",
    "created_at": "2018-07-24 01:34:35.783351",
    "updated_at": "2018-08-24 16:44:01.923808",
    "country": "United States",
    "longitude": "-87.9014396124632",
    "latitude": "43.0542106"
  },
  {
    "id": "7885",
    "name": "Lion's Tail Brewing",
    "brewery_type": "brewpub",
    "street": "116 S Commercial St",
    "city": "Neenah",
    "state": "Wisconsin",
    "postal_code": "54956-3020",
    "website_url": "http://www.lionstailbrewing.com",
    "phone": "9202156443",
    "created_at": "2018-07-24 01:34:35.7968",
    "updated_at": "2018-08-24 16:44:03.664513",
    "country": "United States",
    "longitude": "-88.461836",
    "latitude": "44.1863130306122"
  },
  {
    "id": "7886",
    "name": "Lucette Brewing Co",
    "brewery_type": "micro",
    "street": "910 Hudson Rd",
    "city": "Menomonie",
    "state": "Wisconsin",
    "postal_code": "54751-1748",
    "website_url": "http://www.lucettebrewing.com",
    "phone": "7152316836",
    "created_at": "2018-07-24 01:34:35.809961",
    "updated_at": "2018-08-24 16:44:05.291079",
    "country": "United States",
    "longitude": "-91.940075",
    "latitude": "44.875861"
  },
  {
    "id": "7887",
    "name": "Lucky's 1313 Brewpub",
    "brewery_type": "brewpub",
    "street": "1313 Regent St",
    "city": "Madison",
    "state": "Wisconsin",
    "postal_code": "53715-1254",
    "website_url": "http://www.luckys1313.com",
    "phone": "6082508989",
    "created_at": "2018-07-24 01:34:35.821927",
    "updated_at": "2018-08-24 16:44:06.848643",
    "country": "United States",
    "longitude": "-89.407658381214",
    "latitude": "43.0676614390108"
  },
  {
    "id": "7889",
    "name": "Melms Brewing Co",
    "brewery_type": "proprietor",
    "street": "418 Merton Ave",
    "city": "Hartland",
    "state": "Wisconsin",
    "postal_code": "53029-1524",
    "website_url": "http://www.melmsbrewery.com",
    "phone": "2629932566",
    "created_at": "2018-07-24 01:34:35.846751",
    "updated_at": "2018-08-24 16:44:08.300853",
    "country": "United States",
    "longitude": "-88.3331145892884",
    "latitude": "43.1107502846124"
  },
  {
    "id": "7890",
    "name": "Mel's Micro",
    "brewery_type": "brewpub",
    "street": "21733 US Hwy 14",
    "city": "Richland Center",
    "state": "Wisconsin",
    "postal_code": "53581",
    "website_url": "http://www.melsmicro.com",
    "phone": "",
    "created_at": "2018-07-24 01:34:35.859415",
    "updated_at": "2018-08-24 16:44:09.821064",
    "country": "United States",
    "longitude": "-90.3868474",
    "latitude": "43.3294383"
  },
  {
    "id": "7891",
    "name": "MillerCoors Brewing Co - Milwaukee",
    "brewery_type": "large",
    "street": "4251 W State St",
    "city": "Milwaukee",
    "state": "Wisconsin",
    "postal_code": "53208-3137",
    "website_url": "",
    "phone": "",
    "created_at": "2018-07-24 01:34:35.872402",
    "updated_at": "2018-08-24 16:44:11.320151",
    "country": "United States",
    "longitude": "-87.9663367938432",
    "latitude": "43.0420798126358"
  },
  {
    "id": "7892",
    "name": "Milwaukee Brewing Co - Production facility",
    "brewery_type": "micro",
    "street": "613 S 2nd St",
    "city": "Milwaukee",
    "state": "Wisconsin",
    "postal_code": "53204-1616",
    "website_url": "http://www.ale-house.com",
    "phone": "4142262337",
    "created_at": "2018-07-24 01:34:35.8863",
    "updated_at": "2018-08-24 16:44:12.780487",
    "country": "United States",
    "longitude": "-87.9130368185914",
    "latitude": "43.02500965"
  },
  {
    "id": "7893",
    "name": "Milwaukee Brewing Company",
    "brewery_type": "micro",
    "street": "613 S 2nd St",
    "city": "Milwaukee",
    "state": "Wisconsin",
    "postal_code": "53204-1616",
    "website_url": "http://www.mkebrewing.com",
    "phone": "4142262337",
    "created_at": "2018-07-24 01:34:35.899208",
    "updated_at": "2018-08-24 16:44:14.33587",
    "country": "United States",
    "longitude": "-87.9130368185914",
    "latitude": "43.02500965"
  },
  {
    "id": "7894",
    "name": "Milwaukee Premium Brewing Co",
    "brewery_type": "contract",
    "street": "6591 N Sidney Pl",
    "city": "Glendale",
    "state": "Wisconsin",
    "postal_code": "53209-3215",
    "website_url": "",
    "phone": "4143625000",
    "created_at": "2018-07-24 01:34:35.912069",
    "updated_at": "2018-08-24 16:44:15.867497",
    "country": "United States",
    "longitude": "-87.9486092998057",
    "latitude": "43.1384574323742"
  },
  {
    "id": "7901",
    "name": "New Glarus Brewing Co",
    "brewery_type": "regional",
    "street": "2400 State Highway 69",
    "city": "New Glarus",
    "state": "Wisconsin",
    "postal_code": "53574",
    "website_url": "http://www.newglarusbrewing.com",
    "phone": "6085275850",
    "created_at": "2018-07-24 01:34:36.006634",
    "updated_at": "2018-08-24 16:44:25.112055",
    "country": "United States",
    "longitude": "-89.6312918",
    "latitude": "42.8095311"
  },
  {
    "id": "7903",
    "name": "Next Door Brewing Company",
    "brewery_type": "brewpub",
    "street": "2439 Atwood Ave",
    "city": "Madison",
    "state": "Wisconsin",
    "postal_code": "53704-5604",
    "website_url": "http://www.nextdoorbrewing.com",
    "phone": "6087293683",
    "created_at": "2018-07-24 01:34:36.032538",
    "updated_at": "2018-08-24 16:44:28.217148",
    "country": "United States",
    "longitude": "-89.3457201808979",
    "latitude": "43.09371275"
  },
  {
    "id": "7904",
    "name": "Noble Roots Brewing",
    "brewery_type": "micro",
    "street": "2790 University Ave",
    "city": "Green Bay",
    "state": "Wisconsin",
    "postal_code": "54311-5856",
    "website_url": "",
    "phone": "",
    "created_at": "2018-07-24 01:34:36.044895",
    "updated_at": "2018-08-24 16:44:29.865722",
    "country": "United States",
    "longitude": "-87.996992",
    "latitude": "44.51462"
  },
  {
    "id": "7906",
    "name": "Octopi Brewing / Untitled Art",
    "brewery_type": "micro",
    "street": "1131 Uniek Dr",
    "city": "Waunakee",
    "state": "Wisconsin",
    "postal_code": "53597-8947",
    "website_url": "http://www.octopibrewing.com",
    "phone": "6086204705",
    "created_at": "2018-07-24 01:34:36.071664",
    "updated_at": "2018-08-24 16:44:32.979296",
    "country": "United States",
    "longitude": "-89.4223579",
    "latitude": "43.1858364"
  },
  {
    "id": "7908",
    "name": "Old Bavarian Brewing Co",
    "brewery_type": "contract",
    "street": "1515 Greendale St",
    "city": "Menasha",
    "state": "Wisconsin",
    "postal_code": "54952-2620",
    "website_url": "http://www.oldbavarian.com",
    "phone": "9207300202",
    "created_at": "2018-07-24 01:34:36.097018",
    "updated_at": "2018-08-24 16:44:34.495151",
    "country": "United States",
    "longitude": "-88.416059",
    "latitude": "44.217357"
  },
  {
    "id": "7911",
    "name": "One Barrel Brewing Company",
    "brewery_type": "micro",
    "street": "2001 Atwood Ave",
    "city": "Madison",
    "state": "Wisconsin",
    "postal_code": "53704-5324",
    "website_url": "http://www.onebarrelbrewing.com",
    "phone": "6086309286",
    "created_at": "2018-07-24 01:34:36.135268",
    "updated_at": "2018-08-24 16:44:37.503795",
    "country": "United States",
    "longitude": "-89.3549947891516",
    "latitude": "43.09180985"
  },
  {
    "id": "7914",
    "name": "Parched Eagle Brewpub",
    "brewery_type": "brewpub",
    "street": "5440 Willow Rd Ste 112",
    "city": "Waunakee",
    "state": "Wisconsin",
    "postal_code": "53597-8431",
    "website_url": "http://www.parchedeaglebrewpub.com",
    "phone": "6082049192",
    "created_at": "2018-07-24 01:34:36.174262",
    "updated_at": "2018-08-11 21:40:35.268849",
    "country": "United States",
    "longitude": "",
    "latitude": ""
  },
  {
    "id": "7927",
    "name": "Raised Grain Brewing Company",
    "brewery_type": "brewpub",
    "street": "2244 W Bluemound Rd Ste E",
    "city": "Waukesha",
    "state": "Wisconsin",
    "postal_code": "53186-2921",
    "website_url": "",
    "phone": "",
    "created_at": "2018-07-24 01:34:36.345",
    "updated_at": "2018-08-11 21:40:35.641422",
    "country": "United States",
    "longitude": "",
    "latitude": ""
  },
  {
    "id": "7932",
    "name": "Rock Bottom Brewery - Milwaukee",
    "brewery_type": "brewpub",
    "street": "740 N Plankinton Ave Fl 1",
    "city": "Milwaukee",
    "state": "Wisconsin",
    "postal_code": "53203-2403",
    "website_url": "http://www.rockbottom.com",
    "phone": "4142763030",
    "created_at": "2018-07-24 01:34:36.408087",
    "updated_at": "2018-08-11 21:40:35.824346",
    "country": "United States",
    "longitude": "",
    "latitude": ""
  },
  {
    "id": "7938",
    "name": "Rural Brewing Company",
    "brewery_type": "planning",
    "street": "",
    "city": "Sturgeon Bay",
    "state": "Wisconsin",
    "postal_code": "53590",
    "website_url": "http://www.ruralbrewingcompany.com",
    "phone": "",
    "created_at": "2018-07-24 01:34:36.486007",
    "updated_at": "2018-08-11 21:40:36.045111",
    "country": "United States",
    "longitude": "",
    "latitude": ""
  },
  {
    "id": "7942",
    "name": "Sapporo Brewery USA",
    "brewery_type": "large",
    "street": "",
    "city": "La Crosse",
    "state": "Wisconsin",
    "postal_code": "54601",
    "website_url": "",
    "phone": "",
    "created_at": "2018-07-24 01:34:36.537357",
    "updated_at": "2018-08-11 21:40:36.178239",
    "country": "United States",
    "longitude": "",
    "latitude": ""
  },
  {
    "id": "7945",
    "name": "Sconnie Beverage",
    "brewery_type": "contract",
    "street": "1403 N SUMMIT AVE",
    "city": "Oconomowoc",
    "state": "Wisconsin",
    "postal_code": "53066",
    "website_url": "http://www.sconniebeer.com",
    "phone": "6085563112",
    "created_at": "2018-07-24 01:34:36.575252",
    "updated_at": "2018-08-11 21:40:36.259902",
    "country": "United States",
    "longitude": "",
    "latitude": ""
  },
  {
    "id": "7947",
    "name": "Shipwrecked Restaurant and Brewery",
    "brewery_type": "brewpub",
    "street": "7791 Egg Harbor Road",
    "city": "Egg Harbor",
    "state": "Wisconsin",
    "postal_code": "54209",
    "website_url": "http://www.shipwreckedmicrobrew.com",
    "phone": "9208682767",
    "created_at": "2018-07-24 01:34:36.601005",
    "updated_at": "2018-08-11 21:40:36.317929",
    "country": "United States",
    "longitude": "",
    "latitude": ""
  },
  {
    "id": "7948",
    "name": "Silver Creek Brewing Co",
    "brewery_type": "micro",
    "street": "N57 W6172 Portland Rd",
    "city": "Cedarburg",
    "state": "Wisconsin",
    "postal_code": "53012",
    "website_url": "http://www.silvercreekbrewing.com",
    "phone": "2623754444",
    "created_at": "2018-07-24 01:34:36.614032",
    "updated_at": "2018-08-11 21:40:36.344381",
    "country": "United States",
    "longitude": "",
    "latitude": ""
  },
  {
    "id": "7949",
    "name": "Skeleton Crew Brew",
    "brewery_type": "micro",
    "street": "575 Lester Ave Ste 206",
    "city": "Onalaska",
    "state": "Wisconsin",
    "postal_code": "54650-8694",
    "website_url": "http://www.skeletoncrewbrew.com",
    "phone": "7155709463",
    "created_at": "2018-07-24 01:34:36.62631",
    "updated_at": "2018-08-11 21:40:36.369522",
    "country": "United States",
    "longitude": "",
    "latitude": ""
  },
  {
    "id": "7956",
    "name": "Steel Squared Brewing Company",
    "brewery_type": "contract",
    "street": "1597 Tiffany Ct",
    "city": "de Pere",
    "state": "Wisconsin",
    "postal_code": "54115-9042",
    "website_url": "",
    "phone": "",
    "created_at": "2018-07-24 01:34:36.715443",
    "updated_at": "2018-08-11 21:40:36.574336",
    "country": "United States",
    "longitude": "",
    "latitude": ""
  },
  {
    "id": "7913",
    "name": "Pabst Milwaukee Brewery",
    "brewery_type": "large",
    "street": "1037 W Juneau Ave",
    "city": "Milwaukee",
    "state": "Wisconsin",
    "postal_code": "53233-1405",
    "website_url": "",
    "phone": "4149080025",
    "created_at": "2018-07-24 01:34:36.16103",
    "updated_at": "2018-08-24 16:44:40.487744",
    "country": "United States",
    "longitude": "-87.9255251006808",
    "latitude": "43.04554365"
  },
  {
    "id": "7915",
    "name": "Pearl Street Brewery",
    "brewery_type": "micro",
    "street": "1401 Saint Andrew St",
    "city": "La Crosse",
    "state": "Wisconsin",
    "postal_code": "54603-2866",
    "website_url": "http://pearlstreetbrewery.com/",
    "phone": "",
    "created_at": "2018-07-24 01:34:36.187722",
    "updated_at": "2018-08-24 16:44:43.434416",
    "country": "United States",
    "longitude": "-91.2352633365263",
    "latitude": "43.835173"
  },
  {
    "id": "7916",
    "name": "Petskull Brewing",
    "brewery_type": "micro",
    "street": "220 N 9th St",
    "city": "Manitowoc",
    "state": "Wisconsin",
    "postal_code": "54220-4637",
    "website_url": "http://www.petskullbrewing.com",
    "phone": "9209465670",
    "created_at": "2018-07-24 01:34:36.200897",
    "updated_at": "2018-08-24 16:44:44.897695",
    "country": "United States",
    "longitude": "-87.659310122449",
    "latitude": "44.0940222040816"
  },
  {
    "id": "7917",
    "name": "Pigeon River Brewing",
    "brewery_type": "brewpub",
    "street": "1103 N Main St",
    "city": "Marion",
    "state": "Wisconsin",
    "postal_code": "54950-9182",
    "website_url": "http://www.pigeonriverbrewing.com",
    "phone": "7152567721",
    "created_at": "2018-07-24 01:34:36.214701",
    "updated_at": "2018-08-24 16:44:46.435626",
    "country": "United States",
    "longitude": "-88.889789775842",
    "latitude": "44.6798648532707"
  },
  {
    "id": "7918",
    "name": "Pitchfork Brewing",
    "brewery_type": "micro",
    "street": "709 Rodeo Dr Ste 104",
    "city": "Hudson",
    "state": "Wisconsin",
    "postal_code": "54016-4700",
    "website_url": "http://www.pitchforkbrewing.com",
    "phone": "7152453675",
    "created_at": "2018-07-24 01:34:36.228133",
    "updated_at": "2018-08-24 16:44:47.968394",
    "country": "United States",
    "longitude": "-92.683543042585",
    "latitude": "44.9654252"
  },
  {
    "id": "7919",
    "name": "Plymouth Brewing Co",
    "brewery_type": "micro",
    "street": "222 E Mill St",
    "city": "Plymouth",
    "state": "Wisconsin",
    "postal_code": "53073-1706",
    "website_url": "http://www.plymouthbrewingcompany.com",
    "phone": "9208576083",
    "created_at": "2018-07-24 01:34:36.242325",
    "updated_at": "2018-08-24 16:44:49.454461",
    "country": "United States",
    "longitude": "-87.9776737",
    "latitude": "43.7477014"
  },
  {
    "id": "7921",
    "name": "Potosi Brewing Co",
    "brewery_type": "micro",
    "street": "209 S Main St",
    "city": "Potosi",
    "state": "Wisconsin",
    "postal_code": "53820-9675",
    "website_url": "http://www.potosibrewery.com",
    "phone": "6087634002",
    "created_at": "2018-07-24 01:34:36.268024",
    "updated_at": "2018-08-24 16:44:52.809573",
    "country": "United States",
    "longitude": "-90.7248719244345",
    "latitude": "42.6755069"
  },
  {
    "id": "7922",
    "name": "Potosi Brewing Production Facility",
    "brewery_type": "micro",
    "street": "215 S Main St",
    "city": "Potosi",
    "state": "Wisconsin",
    "postal_code": "53820",
    "website_url": "",
    "phone": "",
    "created_at": "2018-07-24 01:34:36.280609",
    "updated_at": "2018-08-24 16:44:54.492501",
    "country": "United States",
    "longitude": "-87.7836648",
    "latitude": "42.7318273846154"
  },
  {
    "id": "7924",
    "name": "RNoggin Brewing",
    "brewery_type": "micro",
    "street": "6521 120th Ave",
    "city": "Kenosha ",
    "state": "Wisconsin",
    "postal_code": "53142",
    "website_url": "http://www.rnogginbrewing.com",
    "phone": "2629601298",
    "created_at": "2018-07-24 01:34:36.305756",
    "updated_at": "2018-08-24 16:44:57.517501",
    "country": "United States",
    "longitude": "-87.9532177992012",
    "latitude": "42.5762412514599"
  },
  {
    "id": "7925",
    "name": "Racine Brewing Co",
    "brewery_type": "micro",
    "street": "303 Main St",
    "city": "Racine",
    "state": "Wisconsin",
    "postal_code": "53403",
    "website_url": "http://www.racinebrewingcompany.com",
    "phone": "2626310670",
    "created_at": "2018-07-24 01:34:36.318017",
    "updated_at": "2018-08-24 16:44:59.054601",
    "country": "United States",
    "longitude": "-87.7833925714286",
    "latitude": "42.7305074081633"
  },
  {
    "id": "7926",
    "name": "Railhouse Restaurant and Brewery",
    "brewery_type": "brewpub",
    "street": "2029 Old Peshtigo Ct",
    "city": "Marinette",
    "state": "Wisconsin",
    "postal_code": "54143-1066",
    "website_url": "http://www.railhousebrewpub.com",
    "phone": "7157324646",
    "created_at": "2018-07-24 01:34:36.3303",
    "updated_at": "2018-08-24 16:45:00.676828",
    "country": "United States",
    "longitude": "-87.6543602",
    "latitude": "45.085149"
  },
  {
    "id": "7928",
    "name": "Raw Deal",
    "brewery_type": "brewpub",
    "street": "603 Broadway St S",
    "city": "Menomonie",
    "state": "Wisconsin",
    "postal_code": "54751-2457",
    "website_url": "http://www.rawdealwi.weebly.com",
    "phone": "7152313255",
    "created_at": "2018-07-24 01:34:36.35779",
    "updated_at": "2018-08-24 16:45:03.675323",
    "country": "United States",
    "longitude": "-91.9298545",
    "latitude": "44.8773142"
  },
  {
    "id": "7929",
    "name": "Red Eye Brewing Co",
    "brewery_type": "brewpub",
    "street": "612 Washington St",
    "city": "Wausau",
    "state": "Wisconsin",
    "postal_code": "54403-5439",
    "website_url": "http://www.redeyebrewing.com",
    "phone": "7158437334",
    "created_at": "2018-07-24 01:34:36.370369",
    "updated_at": "2018-08-24 16:45:05.133227",
    "country": "United States",
    "longitude": "-89.6228425",
    "latitude": "44.9588496"
  },
  {
    "id": "7930",
    "name": "Rhinelander Brewing Co",
    "brewery_type": "contract",
    "street": "59 S Brown St",
    "city": "Rhinelander",
    "state": "Wisconsin",
    "postal_code": "54501-3450",
    "website_url": "http://www.rhinelanderbrewery.com",
    "phone": "7155502337",
    "created_at": "2018-07-24 01:34:36.383023",
    "updated_at": "2018-08-24 16:45:06.678279",
    "country": "United States",
    "longitude": "-89.4126462244898",
    "latitude": "45.637332877551"
  },
  {
    "id": "7931",
    "name": "Riverside Brewery &  Restaurant",
    "brewery_type": "brewpub",
    "street": "255 S Main St",
    "city": "West Bend",
    "state": "Wisconsin",
    "postal_code": "53095-3323",
    "website_url": "",
    "phone": "2623342739",
    "created_at": "2018-07-24 01:34:36.395249",
    "updated_at": "2018-08-24 16:45:08.389913",
    "country": "United States",
    "longitude": "-88.181280877551",
    "latitude": "43.4216479183673"
  },
  {
    "id": "7933",
    "name": "Rock County Brewing Company",
    "brewery_type": "micro",
    "street": "10 N Parker Dr",
    "city": "Janesville",
    "state": "Wisconsin",
    "postal_code": "53545-",
    "website_url": "http://www.rockcounty.beer",
    "phone": "6085318120",
    "created_at": "2018-07-24 01:34:36.421455",
    "updated_at": "2018-08-24 16:45:12.688589",
    "country": "United States",
    "longitude": "-89.0217731417567",
    "latitude": "42.6835456515041"
  },
  {
    "id": "7934",
    "name": "Rockhound Brewing Co",
    "brewery_type": "brewpub",
    "street": "444 S Park St",
    "city": "Madison",
    "state": "Wisconsin",
    "postal_code": "53715-1618",
    "website_url": "http://www.rockhoundbrewing.com",
    "phone": "6082859023",
    "created_at": "2018-07-24 01:34:36.434069",
    "updated_at": "2018-08-24 16:45:14.349202",
    "country": "United States",
    "longitude": "-89.4006464102564",
    "latitude": "43.0623835512821"
  },
  {
    "id": "7935",
    "name": "Rocky Reef Brewing Company",
    "brewery_type": "micro",
    "street": "1101 1st Ave",
    "city": "Woodruff",
    "state": "Wisconsin",
    "postal_code": "54568-0615",
    "website_url": "http://www.rockyreefbrewing.com",
    "phone": "2623391230",
    "created_at": "2018-07-24 01:34:36.447603",
    "updated_at": "2018-08-24 16:45:15.838214",
    "country": "United States",
    "longitude": "-89.695183",
    "latitude": "45.895883"
  },
  {
    "id": "7936",
    "name": "Rowlands Calumet Brewery Co",
    "brewery_type": "micro",
    "street": "25 N Madison St",
    "city": "Chilton",
    "state": "Wisconsin",
    "postal_code": "53014-1451",
    "website_url": "",
    "phone": "9208492534",
    "created_at": "2018-07-24 01:34:36.460154",
    "updated_at": "2018-08-24 16:45:17.379687",
    "country": "United States",
    "longitude": "-88.1632129",
    "latitude": "44.0293888"
  },
  {
    "id": "7940",
    "name": "Rustic Road Brewing Co",
    "brewery_type": "micro",
    "street": "5706 6th Ave",
    "city": "Kenosha",
    "state": "Wisconsin",
    "postal_code": "53140-4104",
    "website_url": "http://www.rusticbrewing.com",
    "phone": "2623207623",
    "created_at": "2018-07-24 01:34:36.511204",
    "updated_at": "2018-08-24 16:45:21.928366",
    "country": "United States",
    "longitude": "-87.8184826109322",
    "latitude": "42.5839921519281"
  },
  {
    "id": "7941",
    "name": "Sand Creek Brewing Co",
    "brewery_type": "micro",
    "street": "320 Pierce St",
    "city": "Black River Falls",
    "state": "Wisconsin",
    "postal_code": "54615",
    "website_url": "http://www.sandcreekbrewing.com",
    "phone": "7152847553",
    "created_at": "2018-07-24 01:34:36.524284",
    "updated_at": "2018-08-24 16:45:23.531589",
    "country": "United States",
    "longitude": "-90.8511552303856",
    "latitude": "44.2927912590671"
  },
  {
    "id": "7943",
    "name": "Sawmill Brewing Co",
    "brewery_type": "micro",
    "street": "1110 E 10th St",
    "city": "Merrill",
    "state": "Wisconsin",
    "postal_code": "54452-1221",
    "website_url": "http://www.sawmillbrewing.net",
    "phone": "7157720230",
    "created_at": "2018-07-24 01:34:36.549821",
    "updated_at": "2018-08-24 16:45:25.118725",
    "country": "United States",
    "longitude": "-89.6830877979798",
    "latitude": "45.1885922323232"
  },
  {
    "id": "7944",
    "name": "Sawmill Pizza and Brew Shed",
    "brewery_type": "brewpub",
    "street": "805 30th Ave",
    "city": "Clear Lake",
    "state": "Wisconsin",
    "postal_code": "54005",
    "website_url": "http://www.weddingsinechovalley.com",
    "phone": "",
    "created_at": "2018-07-24 01:34:36.562593",
    "updated_at": "2018-08-24 16:45:26.729104",
    "country": "United States",
    "longitude": "-92.29614",
    "latitude": "45.252594"
  },
  {
    "id": "7946",
    "name": "Second Salem Brewing Company",
    "brewery_type": "brewpub",
    "street": "111 W Whitewater St",
    "city": "Whitewater",
    "state": "Wisconsin",
    "postal_code": "53190-1935",
    "website_url": "http://www.secondsalem.com",
    "phone": "2624732920",
    "created_at": "2018-07-24 01:34:36.588002",
    "updated_at": "2018-08-24 16:45:29.687928",
    "country": "United States",
    "longitude": "-88.7317525714286",
    "latitude": "42.8327498979592"
  },
  {
    "id": "7951",
    "name": "South Shore Brewery",
    "brewery_type": "micro",
    "street": "808 Main St W",
    "city": "Ashland",
    "state": "Wisconsin",
    "postal_code": "54806-1404",
    "website_url": "http://www.southshorebrewery.com",
    "phone": "7156829199",
    "created_at": "2018-07-24 01:34:36.651903",
    "updated_at": "2018-08-24 16:45:36.077264",
    "country": "United States",
    "longitude": "-90.8927798439729",
    "latitude": "46.5872012268752"
  },
  {
    "id": "7952",
    "name": "South Shore Brewery - Washburn",
    "brewery_type": "micro",
    "street": "532 W Bayfield St",
    "city": "Washburn",
    "state": "Wisconsin",
    "postal_code": "54891-1138",
    "website_url": "",
    "phone": "7156829199",
    "created_at": "2018-07-24 01:34:36.664636",
    "updated_at": "2018-08-24 16:45:37.646584",
    "country": "United States",
    "longitude": "-90.9011646443901",
    "latitude": "46.6706142686684"
  },
  {
    "id": "7954",
    "name": "St. Francis Brewing Company",
    "brewery_type": "brewpub",
    "street": "3825 S Kinnickinnic Ave",
    "city": "Saint Francis",
    "state": "Wisconsin",
    "postal_code": "53235-4225",
    "website_url": "http://www.stfrancisbrewery.com",
    "phone": "4147444448",
    "created_at": "2018-07-24 01:34:36.689846",
    "updated_at": "2018-08-24 16:45:40.684018",
    "country": "United States",
    "longitude": "-87.875747",
    "latitude": "42.97452"
  },
  {
    "id": "7955",
    "name": "Starboard Brewing Co",
    "brewery_type": "brewpub",
    "street": "151 N 3rd Ave",
    "city": "Sturgeon Bay",
    "state": "Wisconsin",
    "postal_code": "54235-2415",
    "website_url": "http://www.starboardbrewing.com",
    "phone": "9208181062",
    "created_at": "2018-07-24 01:34:36.702678",
    "updated_at": "2018-08-24 16:45:42.154248",
    "country": "United States",
    "longitude": "-87.3775298372093",
    "latitude": "44.8354098372093"
  },
  {
    "id": "7960",
    "name": "Stone Cellar Brewpub / Stone Arch Brew House",
    "brewery_type": "brewpub",
    "street": "1004 S Olde Oneida St Uppr",
    "city": "Appleton",
    "state": "Wisconsin",
    "postal_code": "54915-1753",
    "website_url": "http://www.stonecellarbrewpub.com",
    "phone": "9207313322",
    "created_at": "2018-07-24 01:34:36.769411",
    "updated_at": "2018-08-11 21:40:36.687995",
    "country": "United States",
    "longitude": "",
    "latitude": ""
  },
  {
    "id": "7961",
    "name": "Stoney Acres Farm",
    "brewery_type": "brewpub",
    "street": "7002 Rangeline Rd",
    "city": "Athens",
    "state": "Wisconsin",
    "postal_code": "54411",
    "website_url": "http://www.stoneyacresfarm.net",
    "phone": "7154326285",
    "created_at": "2018-07-24 01:34:36.782269",
    "updated_at": "2018-08-11 21:40:36.714622",
    "country": "United States",
    "longitude": "",
    "latitude": ""
  },
  {
    "id": "7966",
    "name": "The Crafter Space",
    "brewery_type": "contract",
    "street": "1550 N Warren Ave Apt 114",
    "city": "Milwaukee",
    "state": "Wisconsin",
    "postal_code": "53202-2298",
    "website_url": "http://www.thecrafterspace.com",
    "phone": "4144188888",
    "created_at": "2018-07-24 01:34:36.847579",
    "updated_at": "2018-08-11 21:40:36.877945",
    "country": "United States",
    "longitude": "",
    "latitude": ""
  },
  {
    "id": "7967",
    "name": "The Explorium Brewpub",
    "brewery_type": "brewpub",
    "street": "5300 S 76th St Unit 1450A",
    "city": "Greendale",
    "state": "Wisconsin",
    "postal_code": "53129-1102",
    "website_url": "http://exploriumbrew.com",
    "phone": "4145537702",
    "created_at": "2018-07-24 01:34:36.860104",
    "updated_at": "2018-08-11 21:40:36.921572",
    "country": "United States",
    "longitude": "",
    "latitude": ""
  },
  {
    "id": "7969",
    "name": "The Lone Girl Brewing Company",
    "brewery_type": "brewpub",
    "street": "114 E Main St Ste 101",
    "city": "Waunakee",
    "state": "Wisconsin",
    "postal_code": "53597-1274",
    "website_url": "http://www.thelonegirl.com",
    "phone": "6088507175",
    "created_at": "2018-07-24 01:34:36.885779",
    "updated_at": "2018-08-11 21:40:37.016923",
    "country": "United States",
    "longitude": "",
    "latitude": ""
  },
  {
    "id": "7972",
    "name": "Thumb Knuckle Brewing Company",
    "brewery_type": "micro",
    "street": "E0208 State Rd 54",
    "city": "Luxemburg",
    "state": "Wisconsin",
    "postal_code": "54217",
    "website_url": "http://www.thumbknuckle.beer",
    "phone": "",
    "created_at": "2018-07-24 01:34:36.923901",
    "updated_at": "2018-08-11 21:40:37.119444",
    "country": "United States",
    "longitude": "",
    "latitude": ""
  },
  {
    "id": "7974",
    "name": "Trap Rock Brewing Co.",
    "brewery_type": "planning",
    "street": "",
    "city": "Saint Croix Falls",
    "state": "Wisconsin",
    "postal_code": "54024",
    "website_url": "http://traprockbrewing.com",
    "phone": "",
    "created_at": "2018-07-24 01:34:36.95172",
    "updated_at": "2018-08-11 21:40:37.176285",
    "country": "United States",
    "longitude": "",
    "latitude": ""
  },
  {
    "id": "7977",
    "name": "Two Beagles Brewpub",
    "brewery_type": "brewpub",
    "street": "910 2nd Ave N",
    "city": "Onalaska",
    "state": "Wisconsin",
    "postal_code": "54650-2277",
    "website_url": "http://www.twobeaglesbrewpub.com",
    "phone": "6085191921",
    "created_at": "2018-07-24 01:34:36.992623",
    "updated_at": "2018-08-11 21:40:37.259136",
    "country": "United States",
    "longitude": "",
    "latitude": ""
  },
  {
    "id": "7979",
    "name": "Union House Brewing LLC",
    "brewery_type": "planning",
    "street": "",
    "city": "Plum City",
    "state": "Wisconsin",
    "postal_code": "54761-0055",
    "website_url": "",
    "phone": "",
    "created_at": "2018-07-24 01:34:37.059255",
    "updated_at": "2018-08-11 21:40:37.325334",
    "country": "United States",
    "longitude": "",
    "latitude": ""
  },
  {
    "id": "7982",
    "name": "Valkyrie Brewing",
    "brewery_type": "micro",
    "street": "234 W Dallas St",
    "city": "Dallas",
    "state": "Wisconsin",
    "postal_code": "54733-9706",
    "website_url": "http://www.valkyriebrewery.com",
    "phone": "7158371824",
    "created_at": "2018-07-24 01:34:37.097947",
    "updated_at": "2018-08-11 21:40:37.382969",
    "country": "United States",
    "longitude": "",
    "latitude": ""
  },
  {
    "id": "7988",
    "name": "Water Street Brewery - Lake County",
    "brewery_type": "brewpub",
    "street": "3191 Golf Rd",
    "city": "Delafield",
    "state": "Wisconsin",
    "postal_code": "53018-2156",
    "website_url": "http://www.waterstreetbrewery.com",
    "phone": "2626467878",
    "created_at": "2018-07-24 01:34:37.173387",
    "updated_at": "2018-08-11 21:40:37.562528",
    "country": "United States",
    "longitude": "",
    "latitude": ""
  },
  {
    "id": "7993",
    "name": "Wisconsin Dells Brewing Company",
    "brewery_type": "brewpub",
    "street": "110 Wisconsin Dells Pkwy S",
    "city": "Wisconsin Dells",
    "state": "Wisconsin",
    "postal_code": "53965-8304",
    "website_url": "http://www.dellsmoosejaw.com",
    "phone": "6082541122",
    "created_at": "2018-07-24 01:34:37.239723",
    "updated_at": "2018-08-11 21:40:37.742274",
    "country": "United States",
    "longitude": "",
    "latitude": ""
  },
  {
    "id": "7995",
    "name": "Zambaldi Beer",
    "brewery_type": "contract",
    "street": "",
    "city": "Green Bay",
    "state": "Wisconsin",
    "postal_code": "54305-0246",
    "website_url": "http://www.zambaldi.com",
    "phone": "6124707926",
    "created_at": "2018-07-24 01:34:37.266144",
    "updated_at": "2018-08-11 21:40:37.80777",
    "country": "United States",
    "longitude": "",
    "latitude": ""
  },
  {
    "id": "7959",
    "name": "Stillmank Brewing Company",
    "brewery_type": "micro",
    "street": "215 N Henry St",
    "city": "Green Bay",
    "state": "Wisconsin",
    "postal_code": "54302-2613",
    "website_url": "http://www.stillmankbrewery.com",
    "phone": "9207852337",
    "created_at": "2018-07-24 01:34:36.755817",
    "updated_at": "2018-08-24 16:45:46.835403",
    "country": "United States",
    "longitude": "-87.9783883301305",
    "latitude": "44.5044596"
  },
  {
    "id": "7962",
    "name": "Sunshine Brewing Company",
    "brewery_type": "micro",
    "street": "121 S Main St",
    "city": "Lake Mills",
    "state": "Wisconsin",
    "postal_code": "53551-1613",
    "website_url": "http://www.sunshinebrewco.com",
    "phone": "9206508579",
    "created_at": "2018-07-24 01:34:36.795254",
    "updated_at": "2018-08-24 16:45:51.450126",
    "country": "United States",
    "longitude": "-88.9129639698996",
    "latitude": "43.0791730977934"
  },
  {
    "id": "7963",
    "name": "Swinging Bridge Brewing Co",
    "brewery_type": "brewpub",
    "street": "122 S Main St",
    "city": "River Falls",
    "state": "Wisconsin",
    "postal_code": "54022-2423",
    "website_url": "http://swingingbridgebrewing.com",
    "phone": "7156291464",
    "created_at": "2018-07-24 01:34:36.808033",
    "updated_at": "2018-08-24 16:45:53.045628",
    "country": "United States",
    "longitude": "-92.6262914897959",
    "latitude": "44.8577474285714"
  },
  {
    "id": "7964",
    "name": "SwitchGear Brewing Co",
    "brewery_type": "micro",
    "street": "44 D Gottfried St",
    "city": "Elkhart Lake",
    "state": "Wisconsin",
    "postal_code": "53020",
    "website_url": "http://www.switchgearbrewing.com",
    "phone": "9207815120",
    "created_at": "2018-07-24 01:34:36.820909",
    "updated_at": "2018-08-24 16:45:54.555007",
    "country": "United States",
    "longitude": "-88.019601",
    "latitude": "43.834243"
  },
  {
    "id": "7965",
    "name": "The Brewing Projekt",
    "brewery_type": "micro",
    "street": "1807 N Oxford Ave",
    "city": "Eau Claire",
    "state": "Wisconsin",
    "postal_code": "54703-5187",
    "website_url": "http://www.thebrewingprojekt.com",
    "phone": "7154562486",
    "created_at": "2018-07-24 01:34:36.833955",
    "updated_at": "2018-08-24 16:45:56.066798",
    "country": "United States",
    "longitude": "-91.5095090773519",
    "latitude": "44.8189402440188"
  },
  {
    "id": "7970",
    "name": "Third Space Brewing",
    "brewery_type": "micro",
    "street": "1505 W Saint Paul Ave",
    "city": "Milwaukee",
    "state": "Wisconsin",
    "postal_code": "53233",
    "website_url": "http://www.thirdspacebrewing.com",
    "phone": "4149092337",
    "created_at": "2018-07-24 01:34:36.898604",
    "updated_at": "2018-08-24 16:46:02.211678",
    "country": "United States",
    "longitude": "-87.9146199",
    "latitude": "43.0346679"
  },
  {
    "id": "7971",
    "name": "Thirsty Pagan Brewing Co",
    "brewery_type": "brewpub",
    "street": "1623 Broadway St",
    "city": "Superior",
    "state": "Wisconsin",
    "postal_code": "54880-1616",
    "website_url": "http://www.thirstypaganbrewing.com",
    "phone": "7153942500",
    "created_at": "2018-07-24 01:34:36.91111",
    "updated_at": "2018-08-24 16:46:03.738494",
    "country": "United States",
    "longitude": "-92.1021385",
    "latitude": "46.7267785"
  },
  {
    "id": "7975",
    "name": "Tribute Brewing Co",
    "brewery_type": "micro",
    "street": "1106 N Bluebird Rd",
    "city": "Eagle River",
    "state": "Wisconsin",
    "postal_code": "54521-7557",
    "website_url": "http://www.tributebrewing.com",
    "phone": "7154802337",
    "created_at": "2018-07-24 01:34:36.964016",
    "updated_at": "2018-08-24 16:46:08.273267",
    "country": "United States",
    "longitude": "-89.2579185042039",
    "latitude": "45.9293506182914"
  },
  {
    "id": "7976",
    "name": "Turtle Stack Brewery",
    "brewery_type": "micro",
    "street": "125 2nd St S",
    "city": "La Crosse",
    "state": "Wisconsin",
    "postal_code": "54601-3206",
    "website_url": "http://www.turtlestackbrewery.com",
    "phone": "6085192284",
    "created_at": "2018-07-24 01:34:36.977593",
    "updated_at": "2018-08-24 16:46:09.789257",
    "country": "United States",
    "longitude": "-91.2539366035481",
    "latitude": "43.8130152831456"
  },
  {
    "id": "7978",
    "name": "Tyranena Brewing Co",
    "brewery_type": "micro",
    "street": "1025 Owen St",
    "city": "Lake Mills",
    "state": "Wisconsin",
    "postal_code": "53551-0736",
    "website_url": "http://www.tyranena.com",
    "phone": "9206488699",
    "created_at": "2018-07-24 01:34:37.045709",
    "updated_at": "2018-08-24 16:46:12.891899",
    "country": "United States",
    "longitude": "-88.8965312",
    "latitude": "43.0861774"
  },
  {
    "id": "7983",
    "name": "Viking Brewpub",
    "brewery_type": "brewpub",
    "street": "211 E Main St",
    "city": "Stoughton",
    "state": "Wisconsin",
    "postal_code": "53589-1700",
    "website_url": "",
    "phone": "6087195041",
    "created_at": "2018-07-24 01:34:37.110528",
    "updated_at": "2018-08-24 16:46:17.517101",
    "country": "United States",
    "longitude": "-89.2188242",
    "latitude": "42.9166357"
  },
  {
    "id": "7984",
    "name": "Vintage Brewing Co",
    "brewery_type": "brewpub",
    "street": "674 S Whitney Way",
    "city": "Madison",
    "state": "Wisconsin",
    "postal_code": "53711-1035",
    "website_url": "http://www.vintagebrewingco.com",
    "phone": "6082042739",
    "created_at": "2018-07-24 01:34:37.123109",
    "updated_at": "2018-08-24 16:46:19.187832",
    "country": "United States",
    "longitude": "-89.4726634457831",
    "latitude": "43.0517163253012"
  },
  {
    "id": "7985",
    "name": "Vintage Brewing Co",
    "brewery_type": "brewpub",
    "street": "600 Water Street",
    "city": "Sauk City",
    "state": "Wisconsin",
    "postal_code": "53583",
    "website_url": "",
    "phone": "6082042739",
    "created_at": "2018-07-24 01:34:37.135553",
    "updated_at": "2018-08-24 16:46:20.676085",
    "country": "United States",
    "longitude": "-89.7180892",
    "latitude": "43.2820804"
  },
  {
    "id": "7986",
    "name": "Water Street Brewery",
    "brewery_type": "micro",
    "street": "1101 N Water St",
    "city": "Milwaukee",
    "state": "Wisconsin",
    "postal_code": "53202-3107",
    "website_url": "http://www.waterstreetbrewery.com",
    "phone": "4142721195",
    "created_at": "2018-07-24 01:34:37.14785",
    "updated_at": "2018-08-24 16:46:22.143196",
    "country": "United States",
    "longitude": "-87.9112223",
    "latitude": "43.0447248"
  },
  {
    "id": "7989",
    "name": "Water Street Brewery - Oak Creek",
    "brewery_type": "brewpub",
    "street": "140 W Town Square Way",
    "city": "Oak Creek",
    "state": "Wisconsin",
    "postal_code": "53154-6811",
    "website_url": "",
    "phone": "4143015288",
    "created_at": "2018-07-24 01:34:37.185892",
    "updated_at": "2018-08-24 16:46:25.240573",
    "country": "United States",
    "longitude": "-87.9121000699205",
    "latitude": "42.90064865"
  },
  {
    "id": "7990",
    "name": "West Bend Lithia Beer Co",
    "brewery_type": "contract",
    "street": "825 Schoenhaar Dr",
    "city": "West Bend",
    "state": "Wisconsin",
    "postal_code": "53090-2633",
    "website_url": "http://www.lithiabeer.com",
    "phone": "2623343000",
    "created_at": "2018-07-24 01:34:37.198926",
    "updated_at": "2018-08-24 16:46:26.724143",
    "country": "United States",
    "longitude": "-88.1577515345107",
    "latitude": "43.4313618830334"
  },
  {
    "id": "7991",
    "name": "Westallion Brewing Company",
    "brewery_type": "micro",
    "street": "1825 S 72nd St",
    "city": "West Allis",
    "state": "Wisconsin",
    "postal_code": "53214-4714",
    "website_url": "http://www.westallionbrewing.com",
    "phone": "4145787998",
    "created_at": "2018-07-24 01:34:37.212505",
    "updated_at": "2018-08-24 16:46:28.315658",
    "country": "United States",
    "longitude": "-88.0027164974316",
    "latitude": "43.0113052505337"
  },
  {
    "id": "7992",
    "name": "Wisconsin Brewing Co",
    "brewery_type": "regional",
    "street": "1079 American Way",
    "city": "Verona",
    "state": "Wisconsin",
    "postal_code": "53593-9384",
    "website_url": "http://www.wisconsinbrewingcompany.com",
    "phone": "6088481079",
    "created_at": "2018-07-24 01:34:37.225468",
    "updated_at": "2018-08-24 16:46:29.82775",
    "country": "United States",
    "longitude": "-89.5089549402501",
    "latitude": "42.9688832"
  },
  {
    "id": "7994",
    "name": "Working Draft Beer Company",
    "brewery_type": "micro",
    "street": "1129 E Wilson St",
    "city": "Madison",
    "state": "Wisconsin",
    "postal_code": "53703-3758",
    "website_url": "http://www.workingdraftbeer.com",
    "phone": "",
    "created_at": "2018-07-24 01:34:37.252717",
    "updated_at": "2018-08-24 16:46:32.862137",
    "country": "United States",
    "longitude": "-89.3652802",
    "latitude": "43.0833378"
  },
  {
    "id": "7786",
    "name": "Ahnapee Brewery",
    "brewery_type": "micro",
    "street": "N9153 Cherry Tree Rd Apt 4",
    "city": "Algoma",
    "state": "Wisconsin",
    "postal_code": "54201-9501",
    "website_url": "http://www.ahnapeebrewery.com",
    "phone": "9202178527",
    "created_at": "2018-07-24 01:34:34.479419",
    "updated_at": "2018-08-11 21:40:30.396445",
    "country": "United States",
    "longitude": "",
    "latitude": ""
  },
  {
    "id": "7834",
    "name": "Door County Brewing Co./ Hacienda Beer Co",
    "brewery_type": "micro",
    "street": "8099 State Highway 57 PO Box 201",
    "city": "Baileys Harbor",
    "state": "Wisconsin",
    "postal_code": "54202-0201",
    "website_url": "http://doorcountybrewingco.com",
    "phone": "9204931517",
    "created_at": "2018-07-24 01:34:35.134864",
    "updated_at": "2018-08-11 21:40:32.313018",
    "country": "United States",
    "longitude": "",
    "latitude": ""
  },
  {
    "id": "7950",
    "name": "Some Nerve Brewing Company",
    "brewery_type": "micro",
    "street": "5586 US Highway 51",
    "city": "Manitowish Waters",
    "state": "Wisconsin",
    "postal_code": "54545-6325",
    "website_url": "http://www.somenervebrewing.com",
    "phone": "6085766040",
    "created_at": "2018-07-24 01:34:36.639216",
    "updated_at": "2018-08-11 21:40:36.397925",
    "country": "United States",
    "longitude": "",
    "latitude": ""
  },
  {
    "id": "7987",
    "name": "Water Street Brewery - Grafton",
    "brewery_type": "brewpub",
    "street": "1251 Gateway Dr 143 & Highway 60",
    "city": "Grafton",
    "state": "Wisconsin",
    "postal_code": "53024-9336",
    "website_url": "http://www.waterstreetbrewery.com",
    "phone": "2623752222",
    "created_at": "2018-07-24 01:34:37.160903",
    "updated_at": "2018-08-11 21:40:37.527215",
    "country": "United States",
    "longitude": "",
    "latitude": ""
  },
  {
    "id": "7797",
    "name": "Big Head Brewing Co.",
    "brewery_type": "micro",
    "street": "6204 W State St",
    "city": "Milwaukee",
    "state": "Wisconsin",
    "postal_code": "53213-2906",
    "website_url": "http://www.bigheadbrewingco.com",
    "phone": "6082359636",
    "created_at": "2018-07-24 01:34:34.618837",
    "updated_at": "2018-08-24 16:42:07.915243",
    "country": "United States",
    "longitude": "-87.9201437",
    "latitude": "43.0429687"
  },
  {
    "id": "7801",
    "name": "Blue Heron Brew Pub",
    "brewery_type": "brewpub",
    "street": "108 W 9th St",
    "city": "Marshfield",
    "state": "Wisconsin",
    "postal_code": "54449-4111",
    "website_url": "http://www.blueheronbrewpub.com",
    "phone": "7153891868",
    "created_at": "2018-07-24 01:34:34.669586",
    "updated_at": "2018-08-24 16:42:13.93753",
    "country": "United States",
    "longitude": "-90.1814890162256",
    "latitude": "44.6593807910629"
  },
  {
    "id": "7817",
    "name": "Capital Brewery Co Inc",
    "brewery_type": "regional",
    "street": "7734 Terrace Ave",
    "city": "Middleton",
    "state": "Wisconsin",
    "postal_code": "53562-3163",
    "website_url": "http://www.capitalbrewery.com",
    "phone": "6088367100",
    "created_at": "2018-07-24 01:34:34.879376",
    "updated_at": "2018-08-24 16:42:27.346081",
    "country": "United States",
    "longitude": "-89.5165797754161",
    "latitude": "43.09489645"
  },
  {
    "id": "7849",
    "name": "Funk Factory Geuzeria",
    "brewery_type": "micro",
    "street": "1602 Gilson St",
    "city": "Madison",
    "state": "Wisconsin",
    "postal_code": "53715-2128",
    "website_url": "http://www.funkfactorygeuzeria.com",
    "phone": "",
    "created_at": "2018-07-24 01:34:35.328638",
    "updated_at": "2018-08-24 16:43:10.601125",
    "country": "United States",
    "longitude": "-89.3919797327108",
    "latitude": "43.0501017743752"
  },
  {
    "id": "7858",
    "name": "Great Dane Pub and Brewing Co - Fitchburg",
    "brewery_type": "brewpub",
    "street": "2980 Cahill Main",
    "city": "Fitchburg",
    "state": "Wisconsin",
    "postal_code": "53711-7146",
    "website_url": "http://www.greatdanepub.com",
    "phone": "6084429000",
    "created_at": "2018-07-24 01:34:35.444842",
    "updated_at": "2018-08-24 16:43:22.913492",
    "country": "United States",
    "longitude": "-89.4237090342225",
    "latitude": "43.0181626711064"
  },
  {
    "id": "7879",
    "name": "Lakefront Brewery Inc",
    "brewery_type": "regional",
    "street": "1872 N Commerce St",
    "city": "Milwaukee",
    "state": "Wisconsin",
    "postal_code": "53212-3701",
    "website_url": "http://www.lakefrontbrewery.com",
    "phone": "4143728800",
    "created_at": "2018-07-24 01:34:35.712997",
    "updated_at": "2018-08-24 16:43:54.449315",
    "country": "United States",
    "longitude": "-87.9051723",
    "latitude": "43.0547874"
  },
  {
    "id": "7895",
    "name": "Minhas Craft Brewery",
    "brewery_type": "regional",
    "street": "1208 14th Ave",
    "city": "Monroe",
    "state": "Wisconsin",
    "postal_code": "53566-2055",
    "website_url": "http://www.minhasbrewery.com",
    "phone": "6083289120",
    "created_at": "2018-07-24 01:34:35.925633",
    "updated_at": "2018-08-24 16:44:17.35575",
    "country": "United States",
    "longitude": "-89.641509",
    "latitude": "42.5986305132204"
  },
  {
    "id": "7899",
    "name": "MoonRidge Brewpub",
    "brewery_type": "brewpub",
    "street": "501 Bridge St",
    "city": "Cornell",
    "state": "Wisconsin",
    "postal_code": "54732-8392",
    "website_url": "http://www.facebook.com/MoonRidge-Brew-Pub-1501996800095070",
    "phone": "7152391341",
    "created_at": "2018-07-24 01:34:35.976592",
    "updated_at": "2018-08-24 16:44:23.532821",
    "country": "United States",
    "longitude": "-91.1589648",
    "latitude": "45.1653752"
  },
  {
    "id": "7905",
    "name": "Northwoods Brewpub and Grill",
    "brewery_type": "brewpub",
    "street": "50918 West Street",
    "city": "Osseo",
    "state": "Wisconsin",
    "postal_code": "54758",
    "website_url": "http://www.northwoodsbrewpub.com",
    "phone": "7155520510",
    "created_at": "2018-07-24 01:34:36.057783",
    "updated_at": "2018-08-24 16:44:31.455342",
    "country": "United States",
    "longitude": "-91.2266512323232",
    "latitude": "44.5827066565657"
  },
  {
    "id": "7923",
    "name": "Public Craft Brewing Co",
    "brewery_type": "micro",
    "street": "716 58th St",
    "city": "Kenosha",
    "state": "Wisconsin",
    "postal_code": "53140-4137",
    "website_url": "http://www.publiccraftbrewing.com",
    "phone": "2626522739",
    "created_at": "2018-07-24 01:34:36.293005",
    "updated_at": "2018-08-24 16:44:56.034139",
    "country": "United States",
    "longitude": "-87.8197509130208",
    "latitude": "42.5831542416945"
  },
  {
    "id": "7958",
    "name": "Stevens Point Brewery",
    "brewery_type": "regional",
    "street": "2617 Water St",
    "city": "Stevens Point",
    "state": "Wisconsin",
    "postal_code": "54481-5248",
    "website_url": "http://www.pointbeer.com",
    "phone": "7153449310",
    "created_at": "2018-07-24 01:34:36.742352",
    "updated_at": "2018-08-24 16:45:45.320701",
    "country": "United States",
    "longitude": "-89.5739807755102",
    "latitude": "44.5102627142857"
  },
  {
    "id": "7973",
    "name": "Titletown Brewing Co",
    "brewery_type": "brewpub",
    "street": "200 Dousman St",
    "city": "Green Bay",
    "state": "Wisconsin",
    "postal_code": "54303-2712",
    "website_url": "http://www.titletownbrewing.com",
    "phone": "9204372337",
    "created_at": "2018-07-24 01:34:36.936323",
    "updated_at": "2018-08-24 16:46:06.736073",
    "country": "United States",
    "longitude": "-88.018517",
    "latitude": "44.51892"
  }
]