id,name,brewery_type,street,address_2,address_3,city,state,county_province,postal_code,website_url,phone,created_at,updated_at,country,longitude,latitude,tags
lab-brewing-co-/-twisted-oak-tavern,LAB Brewing Co / Twisted Oak Tavern,brewpub,30105 Agoura Rd,,,Agoura Hills,California,,91301-2003,http://www.twistedoaktavern.pub,8187350091,2018-07-24 01:32:58,2018-08-23 23:58:41,United States,-118.7799133,34.14511931,
ladyface-ale-companie,Ladyface Ale Companie,brewpub,29281 Agoura Rd,,,Agoura Hills,California,,91301-2597,http://www.ladyfaceale.com,8184774566,2018-07-24 01:32:58,2018-08-23 23:58:42,United States,-118.76615359999998,34.14404216,
alameda-island-brewing-company,Alameda Island Brewing Company,micro,1716 Park St,,,Alameda,California,,94501-1416,http://www.alamedaislandbrewingcompany.com,5102178885,2018-07-24 01:32:51,2018-08-23 23:24:06,United States,-122.2394506,37.76833631,
almanac-beer-company,Almanac Beer Company,micro,651B W Tower Ave,,,Alameda,California,,94501-5047,http://almanacbeer.com,4159326531,2018-07-24 01:32:51,2018-08-23 23:24:12,United States,-122.3062832,37.78344977,
faction-brewing-co,Faction Brewing Co,micro,2501 Monarch St Ste 200,,,Alameda,California,,94501-5098,http://www.factionbrewing.com,5105232739,2018-07-24 01:32:55,2018-08-23 23:28:09,United States,-122.3097077,37.7866722,
stadium-brewing-co,Stadium Brewing Co,brewpub,26731 Aliso Creek Rd Ste C,,,Aliso Viejo,California,,92656-4811,http://www.stadiumbrewingco.com,9494489611,2018-07-24 01:33:01,2018-08-11 21:36:22,United States,,,
junction-brewery-and-grill,Junction Brewery & Grill,brewpub,110 W American Canyon Rd,,,American Canyon,California,,94503-4196,http://www.junctionbreweryandgrill.com,7076492285,2018-07-24 01:32:57,2018-08-23 23:58:13,United States,-122.261689,38.1658134,
back-street-brewery-and-tasting-room,Back Street Brewery & Tasting Room,micro,1884 S Santa Cruz St,,,Anaheim,California,,92805-6726,http://www.backstreetbrew.com,6572364050,2018-07-24 01:32:52,2018-08-23 23:24:46,United States,-117.8960894,33.79983678,
asylum-brewing,Asylum Brewing,micro,2970 E. La Palma Ave. Suite D,,,Anaheim,California,,92806,http://Www.asylumbrewing.beer,9494495191,2018-07-24 01:32:52,2018-08-11 21:35:55,United States,,,
anaheim-brewery,Anaheim Brewery,micro,336 S Anaheim Blvd,,,Anaheim,California,,92805-3830,http://www.anaheimbrew.com,7147801888,2018-07-24 01:32:52,2018-08-23 23:24:25,United States,-117.9125249,33.8328226,
ballast-point-brewing-company,Ballast Point Brewing Company,planning,,,,Anaheim,California,,92802-2294,,,2018-07-24 01:32:52,2018-08-23 23:24:51,United States,-117.911732,33.8347516,
bottle-logic-brewing,Bottle Logic Brewing,micro,1072 N Armando St,,,Anaheim,California,,92806-2605,http://www.bottlelogic.com,714660,2018-07-24 01:32:53,2018-08-23 23:25:50,United States,-117.8597226,33.8495705,
brewheim-brewing-company,Brewheim Brewing Company,planning,,,,Anaheim,California,,92806,http://www.brewheim.com,,2018-07-24 01:32:53,2018-08-23 23:26:10,United States,-117.911732,33.8347516,
bruery-terreux,Bruery Terreux,micro,1174 N Grove St,,,Anaheim,California,,92806-2129,http://www.thebruery.com,7149966258,2018-07-24 01:32:53,2018-08-23 23:26:18,United States,-117.8418759,33.85793692,
golden-road-brewing,Golden Road Brewing,large,2210 E Orangewood Ave,,,Anaheim,California,,92806,,7149124015,2018-07-24 01:32:56,2018-08-11 21:36:05,United States,,,
h2ops-llc,H2OPS LLC,planning,,,,Anaheim,California,,92808-1225,http://www.h2ops.com,7143924414,2018-07-24 01:32:56,2018-08-23 23:29:06,United States,-117.911732,33.8347516,
hoparazzi-brewing-co,Hoparazzi Brewing Co,micro,2910 E La Palma Ave Ste D,,,Anaheim,California,,92806-2618,,,2018-07-24 01:32:57,2018-08-11 21:36:07,United States,,,
karl-strauss-brewing-co-anaheim,Karl Strauss Brewing Co - Anaheim,brewpub,2390 E Orangewood Ave Ste 100,,,Anaheim,California,,92806-6141,,7149401772,2018-07-24 01:32:57,2018-08-11 21:36:10,United States,,,
legends-craft-brewery,Legends Craft Brewery,micro,1301 S Lewis St,,,Anaheim,California,,92805-6431,http://www.legendsbeer.com,8883270202,2018-07-24 01:32:58,2018-08-23 23:58:56,United States,-117.8980621,33.81628085,
noble-ale-works,Noble Ale Works,micro,1621 S Sinclair St Ste B,,,Anaheim,California,,92806-5947,http://www.noblealeworks.com,7146342739,2018-07-24 01:32:59,2018-08-11 21:36:14,United States,,,
all-american-ale-works,All-American Ale Works,micro,5120 E La Palma Ave Ste 103,,,Anaheim,California,,92807-2082,http://www.all-americanaleworks.com,9517412771,2018-07-24 01:32:51,2018-08-11 21:35:54,United States,,,
jt-schmids-restaurant-and-brewery,JT Schmids Restaurant & Brewery,brewpub,2610 E Katella Ave,,,Anaheim,California,,92806-5903,http://www.jtschmids.com,7146349200,2018-07-24 01:32:57,2018-08-23 23:58:11,United States,-117.8770639,33.805668299999994,
phantom-ales,Phantom Ales,brewpub,1211 N Las Brisas St,,,Anaheim,California,,92806-1823,http://www.phantomales.com,7146309463,2018-07-24 01:32:59,2018-08-24 00:00:51,United States,-117.8667466,33.8540325,
unsung-brewing-company-taproom,Unsung Brewing Company- Taproom,micro,500 S Anaheim Blvd Ste B,,,Anaheim,California,,92805-4725,,,2018-07-24 01:33:03,2018-08-11 21:36:27,United States,,,
off-the-grid-brewing-co,Off the Grid Brewing Co,micro,13615 John Glenn Rd Ste A,,,Apple Valley,California,,92308-5730,http://www.otgbrew.com,7602475600,2018-07-24 01:32:59,2018-08-11 21:36:15,United States,,,
oggis-sports-brewhouse-pizza-apple-valley,Oggi's Sports Brewhouse Pizza - Apple Valley,brewpub,19201 Bear Valley Rd Ste D,,,Apple Valley,California,,92308-2704,http://www.oggis.com,7607922622,2018-07-24 01:32:59,2018-08-11 21:36:15,United States,,,
mt-lowe-brewing-company,Mt Lowe Brewing Company,micro,150 E Saint Joseph St,,,Arcadia,California,,91006-2851,http://www.mtlowebrewing.com,6262447593,2018-07-24 01:32:59,2018-08-23 23:59:53,United States,-118.0268254,34.14332231,
redwood-curtain-brewing-co,Redwood Curtain Brewing Co,micro,550 S G St Ste 6,,,Arcata,California,,95521-6683,http://www.redwoodcurtainbrewing.com,7078267222,2018-07-24 01:33:00,2018-08-11 21:36:17,United States,,,
snowshoe-brewing-co,Snowshoe Brewing Co,brewpub,2050 Hwy 4,,,Arnold,California,,95223,http://www.snowshoebrewing.com,2097952272,2018-07-24 01:33:01,2018-08-24 00:02:39,United States,-120.3617024,38.2423881,
figueroa-mountain-brewing-arroyo-grande,Figueroa Mountain Brewing - Arroyo Grande,brewpub,1462 E Grand Ave,,,Arroyo Grande,California,,93420-2448,http://www.figmtnbrew.com,8058869275,2018-07-24 01:32:55,2018-08-23 23:28:23,United States,-120.6059582,35.12102175,
dead-oak-brewing-company,Dead Oak Brewing Company,micro,5925 Entrada Ave,,,Atascadero,California,,93422-4223,http://www.facebook.com/deadoakbrewing,6023327027,2018-07-24 01:32:54,2018-08-23 23:27:13,United States,-120.66873590000002,35.48978839999999,
tent-city-beer-company,Tent City Beer Company,micro,6760 El Camino Real,,,Atascadero,California,,93422-4205,http://www.tentcitybeer.com,8054606454,2018-07-24 01:33:02,2018-08-24 00:03:46,United States,-120.66767,35.487726,
auburn-alehouse,Auburn Alehouse,brewpub,289 Washington St,,,Auburn,California,,95603-5036,http://www.auburnalehouse.com,5308852537,2018-07-24 01:32:52,2018-08-23 23:24:42,United States,-121.07895829999998,38.89612107,
moonraker-brewing-company-production-facility,Moonraker Brewing Company (Production Facility),micro,2349 Rickenbacker Way,,,Auburn,California,,95602,,5307456816,2018-07-24 01:32:58,2018-08-23 23:59:46,United States,-121.0813686,38.95249916,
tap-and-vine,Tap and Vine,brewpub,907 Lincoln Way,,,Auburn,California,,95603,http://www.tapandvineauburn.com,5308898463,2018-07-24 01:33:02,2018-08-24 00:03:34,United States,-121.0694956,38.89956738,
knee-deep-brewing-co,Knee Deep Brewing Co.,regional,13395 New Airport Rd Ste H,,,Auburn,California,,95602-7419,http://www.kneedeepbrewing.com,5307974677,2018-07-24 01:32:57,2018-08-11 21:36:11,United States,,,
moonraker-brewing-co,Moonraker Brewing Co.,micro,12970 Earhart Ave Ste 100,,,Auburn,California,,95602-9022,http://www.moonrakerbrewing.com,5307456816,2018-07-24 01:32:58,2018-08-11 21:36:14,United States,,,
crooked-lane-brewing-co,Crooked Lane Brewing Co,micro,536 Grass Valley Hwy,,,Auburn,California,,95603-3807,http://www.crookedlanebrewing.com,5306137434,2018-07-24 01:32:54,2018-08-23 23:27:09,United States,-121.0769384,38.90869888,
catalina-island-brew-house,Catalina Island Brew House,micro,417 Crescent Ave,,,Avalon,California,,90704,http://www.catalinaislandbrewhouse.com,3105906905,2018-07-24 01:32:54,2018-08-23 23:26:31,United States,-118.3256345,33.3434987,
congregation-ales,Congregation Ales,micro,619 N Azusa Ave Ste C,,,Azusa,California,,91702-2910,http://www.congregationalehouse.com,6263342337,2018-07-24 01:32:54,2018-08-11 21:36:00,United States,,,
dionysus-brewing-co,Dionysus Brewing Co.,micro,6201 Schirra Ct Ste 13,,,Bakersfield,California,,93313-2119,http://www.dionysusbrewing.com,6618336000,2018-07-24 01:32:54,2018-08-11 21:36:01,United States,,,
great-change-brewing,Great Change Brewing,planning,,,,Bakersfield,California,,93313,http://www.greatchangebrewing.com,6195170736,2018-07-24 01:32:56,2018-08-23 23:28:58,United States,-119.0194639,35.3738712,
lengthwise-brewing-co,Lengthwise Brewing Co,brewpub,7700 District Blvd,,,Bakersfield,California,,93313-4861,http://www.lengthwise.com,6618362537,2018-07-24 01:32:58,2018-08-23 23:58:57,United States,-119.0885472,35.31323456,
temblor-brewing-company,Temblor Brewing Company,brewpub,3200 Buck Owens Blvd Ste 200,,,Bakersfield,California,,93308-6376,http://www.temblorbrewing.com,6614894855,2018-07-24 01:33:02,2018-08-24 00:03:43,United States,-119.043071,35.3885985,
brew-rebellion,Brew Rebellion,micro,33 S San Gorgonio Ave,,,Banning,California,,92220-6001,,9519074844,2018-07-24 01:32:53,2018-08-23 23:25:54,United States,-116.876825,33.92568489,
pacific-brew-lab,Pacific Brew Lab,contract,111 Industrial Way,,,Belmont,California,,94002-8202,http://www.pacbrewlab.com,4159377843,2018-07-24 01:32:59,2018-08-11 21:36:16,United States,,,
alpha-acid-brewing-co,Alpha Acid Brewing Co,micro,121 Industrial Way Ste 12,,,Belmont,California,,94002-8208,,6503944728,2018-07-24 01:32:52,2018-08-11 21:35:54,United States,,,
bruehol-brewing-llc,Bruehol Brewing LLC,proprietor,4828 E 2nd St,,,Benicia,California,,94510-1023,http://www.bruehol.com,7073276768,2018-07-24 01:32:53,2018-08-23 23:26:17,United States,-122.1275637,38.08086313,
fieldwork-brewing-co,Fieldwork Brewing Co,regional,1160 6th St,,,Berkeley,California,,94710-1247,http://www.fieldworkbrewing.com,5108981203,2018-07-24 01:32:55,2018-08-23 23:28:19,United States,-122.3022147,37.88157297,
the-rare-barrel,The Rare Barrel,micro,940 Parker St,,,Berkeley,California,,94710,http://www.therarebarrel.com,5109846585,2018-07-24 01:33:02,2018-08-24 00:03:56,United States,-122.2914445,37.8576209,
gilman-brewing-company,Gilman Brewing Company,micro,912 Gilman St,,,Berkeley,California,,94710-1424,http://www.gilmanbrew.com,,2018-07-24 01:32:56,2018-08-23 23:28:47,United States,-122.2998747,37.879466,
hoi-polloi-brewpub-and-beat-lounge,Hoi Polloi Brewpub and Beat Lounge,micro,1763 Alcatraz Ave,,,Berkeley,California,,94703,,5108587334,2018-07-24 01:32:57,2018-08-23 23:29:28,United States,-122.272181,37.8487711,
jupiter,Jupiter,brewpub,2181 Shattuck Ave,,,Berkeley,California,,94704-1308,http://www.jupiterbeer.com,5108438277,2018-07-24 01:32:57,2018-08-23 23:58:15,United States,-122.2676799,37.8697889,
triple-rock-brewery-and-alehouse,Triple Rock Brewery and Alehouse,brewpub,1920 Shattuck Ave,,,Berkeley,California,,94704-1022,http://www.triplerock.com,5108432739,2018-07-24 01:33:03,2018-08-24 00:04:28,United States,-122.268746,37.873419,
trumer-brewery,Trumer Brewery,regional,1404 4th St,,,Berkeley,California,,94710-1323,http://www.trumer-international.com,5105261160,2018-07-24 01:33:03,2018-08-24 00:04:30,United States,-122.3030265,37.87686526,
lucky-devil-brewing,Lucky Devil Brewing,contract,1134 Delaware St Apt E,,,Berkeley,California,,94702-1672,http://www.luckydevilbrewery.com,5109692865,2018-07-24 01:32:58,2018-08-11 21:36:12,United States,,,
big-bear-lake-brewing-co,Big Bear Lake Brewing Co,brewpub,40827 Stone Rd,,,Big Bear Lake,California,,92315,http://www.bblbc.com,9098780283,2018-07-24 01:32:52,2018-08-23 23:25:20,United States,-116.9110287,34.2425583,
big-bear-mountain-brewery,Big Bear Mountain Brewery,brewpub,40260 Big Bear Blvd,,,Big Bear Lake,California,,92315,http://www.mountainbrewery.com,9098662337,2018-07-24 01:32:52,2018-08-23 23:25:21,United States,-116.923042,34.23876062,
mountain-rambler-brewery,Mountain Rambler Brewery,micro,186 S Main St,,,Bishop,California,,93514-3415,http://www.mountainramblerbrewery.com,7602581348,2018-07-24 01:32:59,2018-08-23 23:59:51,United States,-118.3944494,37.3606708,
the-brewing-lair,The Brewing Lair,micro,67007 CA Hwy 70,,,Blairsden-Graeagle,California,,96103-1651,http://www.thebrewinglair.com,5303940940,2018-07-24 01:33:02,2018-08-11 21:36:24,United States,,,
mad-river-brewing-co,Mad River Brewing Co,micro,101 Taylor Way,,,Blue Lake,California,,95525,http://www.madriverbrewing.com,7076684151,2018-07-24 01:32:58,2018-08-23 23:59:20,United States,-123.992063,40.878682,
anderson-valley-brewing-co,Anderson Valley Brewing Co,regional,17700 CA-253,,,Boonville,California,,95415,http://www.avbc.com,7078952337,2018-07-24 01:32:52,2018-08-11 21:35:55,United States,,,
taps-fish-house-and-brewery-brea,TAPS Fish House and Brewery - Brea,brewpub,101 E Imperial Hwy,,,Brea,California,,92821-4924,http://www.tapsbrea.com,7142570101,2018-07-24 01:33:02,2018-08-24 00:03:38,United States,-117.9018387,33.9171643,
bjs-restaurant-and-brewery-brea,BJs Restaurant & Brewery - Brea,brewpub,600 Brea Mall Dr,,,Brea,California,,92821-5764,http://www.bjsrestaurants.com,7149902095,2018-07-24 01:32:53,2018-08-23 23:25:29,United States,-117.8863245,33.9152037,
firestone-walker-barrelworks,Firestone Walker Barrelworks,micro,620 McMurray Rd,,,Buellton,California,,93427-2511,http://www.firestonewalker.com,8056861557,2018-07-24 01:32:55,2018-08-23 23:28:28,United States,-120.1883447,34.6248627,
figueroa-mountain-brewing,Figueroa Mountain Brewing,regional,45 Industrial Way,,,Buellton,California,,93427-9565,http://www.figmtnbrew.com,8056942252,2018-07-24 01:32:55,2018-08-23 23:28:22,United States,-120.2022226,34.61068975,
brewery-at-simmzys-burbank,Brewery At Simmzys Burbank,brewpub,3000 W Olive Ave,,,Burbank,California,,91505-4537,http://www.Simmzys.com,8189622500,2018-07-24 01:32:53,2018-08-23 23:25:59,United States,-118.3336262,34.1572656,
gordon-biersch-brewery-restaurant-burbank,Gordon Biersch Brewery Restaurant - Burbank,brewpub,145 S San Fernando Blvd,,,Burbank,California,,91502-1322,http://www.gordonbiersch.com/restaurant,8185695240,2018-07-24 01:32:56,2018-08-23 23:28:54,United States,-118.3083397,34.18041759,
henson-brewing,Henson Brewing,micro,,,,Burbank,California,,91504,http://www.facebook.com/HensonBrewing/,,2018-07-24 01:32:56,2018-08-23 23:29:20,United States,-118.3258554,34.181648200000005,
lincoln-beer-company,Lincoln Beer Company,micro,3083 N Lima St,,,Burbank,California,,91504-2013,http://www.lincolnbeercompany.com,8186874206,2018-07-24 01:32:58,2018-08-23 23:59:01,United States,-118.3466206,34.20605273,
verdugo-west-brewing-company,Verdugo West Brewing Company,micro,156 W Verdugo Ave,,,Burbank,California,,91502-2132,http://www.verdugowestbrewing.com,8188415040,2018-07-24 01:33:03,2018-08-24 00:04:46,United States,-118.3103682,34.17375015,
steelhead-brewing-co-burlingame-station,Steelhead Brewing Co - Burlingame Station,brewpub,333 California Dr,,,Burlingame,California,,94010-4114,http://www.steelheadbrewery.com,6503446050,2018-07-24 01:33:01,2018-08-24 00:03:11,United States,-122.3462607,37.57997279999999,
fall-river-brewing-company,Fall River Brewing Company,micro,24339 State Highway 89,,,Burney,California,,96013-9615,http://www.fallriverbrewing.com,,2018-07-24 01:32:55,2018-08-11 21:36:03,United States,,,
johnnys-calistoga-/-mud-city-brews,Johnny's Calistoga / Mud City Brews,brewpub,1457 Lincoln Ave,,,Calistoga,California,,94515,http://www.johnnyscalistoga.com,7079425938,2018-07-24 01:32:57,2018-08-23 23:58:09,United States,-122.579054,38.578753000000006,
napa-valley-brewing-co/-calistoga-inn,Napa Valley Brewing Co/ Calistoga Inn,brewpub,1250 Lincoln Ave,,,Calistoga,California,,94515-1741,http://www.napabeer.com,7079424101,2018-07-24 01:32:59,2018-08-23 23:59:56,United States,-122.5796312,38.57693444,
brewery-in-planning-camarillo-ca,"Brewery in Planning - Camarillo, CA",planning,,,,Camarillo,California,,93012-9406,,8054077641,2018-07-24 01:32:53,2018-08-23 23:26:01,United States,-119.0376024,34.2163939,
institution-ale-company,Institution Ale Company,brewpub,3841 Mission Oaks Blvd,,,Camarillo,California,,93012-5036,http://www.institutionales.com,8054823777,2018-07-24 01:32:57,2018-08-23 23:29:56,United States,-119.0203372,34.21646691,
flat-fish-brewing,Flat Fish Brewing,micro,126 N Wood Rd Ste 104,,,Camarillo,California,,93010-8334,http://www.flatfishbrewing.com,8054849600,2018-07-24 01:32:56,2018-08-11 21:36:04,United States,,,
927-beer-company,927 Beer Company,micro,821 Cornwall St,,,Cambria,California,,93428-2434,http://www.cambriabeerco.com,8052035265,2018-07-24 01:32:51,2018-08-23 23:23:58,United States,-121.0985408,35.5666725,
climber-nine-brewing,Climber Nine Brewing,planning,,,,Cameron Park,California,,95682-8975,,,2018-07-24 01:32:54,2018-08-23 23:26:50,United States,-120.9851442,38.68200185,
hwy-50-brewery,HWY 50 Brewery,planning,,,,Camino,California,,95709,http://www.hwy50brewery.com,,2018-07-24 01:32:57,2018-08-23 23:29:44,United States,-120.67493020000002,38.7382366,
jack-russell-farm-ales,Jack Russell Farm Ales,brewpub,2380 Larsen Dr,,,Camino,California,,95709-9749,http://www.jackrussellbrewing.com,5306479420,2018-07-24 01:32:57,2018-08-23 23:30:02,United States,-120.6801664,38.75368647,
campbell-brewing-co,Campbell Brewing Co,micro,200 E Campbell Ave,,,Campbell,California,,95008-2010,,4088662699,2018-07-24 01:32:54,2018-08-23 23:26:26,United States,-121.9332743,37.2870748,
rock-bottom-brewery-san-jose,Rock Bottom Brewery - San Jose,brewpub,1875 S Bascom Ave Ste 700,,,Campbell,California,,95008-2310,http://www.rockbottom.com,4083770707,2018-07-24 01:33:00,2018-08-11 21:36:18,United States,,,
8one8-brewing-company,8one8 Brewing Company,micro,8951 de Soto Ave,,,Canoga Park,California,,91304-5901,http://www.818brewing.com,8188352286,2018-07-24 01:32:51,2018-08-23 23:23:57,United States,-118.58853229999998,34.2218019,
sante-adairius-rustic-ales,Sante Adairius Rustic Ales,micro,103 Kennedy Dr,,,Capitola,California,,95010-3641,http://www.rusticales.com,8313454867,2018-07-24 01:33:01,2018-08-24 00:02:11,United States,-121.9405748,36.9822865,
rouleur-brewing-company,Rouleur Brewing Company,micro,5840 El Camino Real Ste 101,,,Carlsbad,California,,92008-8804,http://www.rouleurbrewing.com,4422445111,2018-07-24 01:33:00,2018-08-24 00:01:46,United States,-117.269558,33.133904,
culver-beer-company,Culver Beer Company,micro,2719 Loker Ave W Ste D,,,Carlsbad,California,,92010-6679,http://www.culverbeer.com,7608142355,2018-07-24 01:32:54,2018-08-11 21:36:01,United States,,,
arcana-brewing-company,Arcana Brewing Company,micro,5621 Palmer Way Ste C,,,Carlsbad,California,,92010-7254,http://www.arcanabrewing.com,,2018-07-24 01:32:52,2018-08-11 21:35:55,United States,,,
burgeon-beer-company,Burgeon Beer Company,micro,6350 Yarrow Dr Ste C,,,Carlsbad,California,,92011-1544,http://www.burgeonbeer.com,7608142548,2018-07-24 01:32:53,2018-08-11 21:35:59,United States,,,
guadalupe-brewery,Guadalupe Brewery,micro,5674 El Camino Real Ste D,,,Carlsbad,California,,92008-7130,http://www.guadalupebrewery.com,8587514278,2018-07-24 01:32:56,2018-08-11 21:36:05,United States,,,
karl-strauss-brewing-co-carlsbad,Karl Strauss Brewing Co - Carlsbad,brewpub,5801 Armada Dr,,,Carlsbad,California,,92008-4609,http://www.karlstrauss.com,7604312739,2018-07-24 01:32:57,2018-08-23 23:58:20,United States,-117.314236,33.124447,
papa-marces-cerveceria,Papa Marce's Cerveceria,planning,,,,Carlsbad,California,,92008,http://www.papamarces.com,8584146976,2018-07-24 01:32:59,2018-08-24 00:00:44,United States,-117.3505966,33.158093300000004,
pizza-port-bressi-ranch,Pizza Port - Bressi Ranch,regional,2730 Gateway Rd,,,Carlsbad,California,,92009-1730,http://www.pizzaport.com,7607071655,2018-07-24 01:32:59,2018-08-24 00:00:56,United States,-117.2510773,33.12807761,
pizza-port-carlsbad,Pizza Port Carlsbad,regional,571 Carlsbad Village Dr,,,Carlsbad,California,,92008-2304,http://www.pizzaport.com,7607207007,2018-07-24 01:33:00,2018-08-24 00:00:57,United States,-117.3477152,33.1598703,
kuracali-inc,Kuracali Inc,proprietor,821 Caminito del Reposo,,,Carlsbad,California,,92011-2404,http://www.kuracali.com,8587756502,2018-07-24 01:32:57,2018-08-23 23:58:38,United States,-117.315852,33.11493,
logoff-brewing-llc,LogOff Brewing LLC,planning,,,,Carmichael,California,,95608-5615,,9165416677,2018-07-24 01:32:58,2018-08-23 23:59:05,United States,-121.3222422,38.62709845,
brewlab,BrewLAB,micro,4191 Carpinteria Ave Ste 8,,,Carpinteria,California,,93013-3302,http://www.brewlabcraft.com/,,2018-07-24 01:32:53,2018-08-11 21:35:58,United States,,,
island-brewing-co,Island Brewing Co,micro,5049 6th St,,,Carpinteria,California,,93013-2001,http://www.islandbrewingcompany.com,8057458272,2018-07-24 01:32:57,2018-08-23 23:30:01,United States,-119.521007,34.39590392,
rincon-brewery,Rincon Brewery,brewpub,5065 Carpinteria Ave,,,Carpinteria,California,,93013-2046,http://www.rinconbrewery.com,8056846044,2018-07-24 01:33:00,2018-08-24 00:01:31,United States,-119.51785859999998,34.398340000000005,
teeccino-brewing-company,Teeccino Brewing Company,planning,,,,Carpinteria,California,,93013-2905,http://www.teeccino.com,8059660999,2018-07-24 01:33:02,2018-08-24 00:03:41,United States,-119.5184564,34.3988838,
cayucos-brewing-co,Cayucos Brewing Co,contract,136 Ocean Front Ln,,,Cayucos,California,,93430-1649,http://www.cayucosbeer.com,8059951993,2018-07-24 01:32:54,2018-08-23 23:26:32,United States,-120.9021884,35.44711022,
blaker-brewing,Blaker Brewing,micro,1063 Montcalire Dr,,,Ceres,California,,95307,http://www.blakerbrewing.com,2095854040,2018-07-24 01:32:53,2018-08-11 21:35:57,United States,,,
great-beer-co,Great Beer Co,contract,21119 Superior St,,,Chatsworth,California,,91311-4309,http://www.greatbeerco.com,8187182739,2018-07-24 01:32:56,2018-08-23 23:28:58,United States,-118.5932845,34.24643282,
hand-brewed-beer,Hand-Brewed Beer,micro,9771 Variel Ave,,,Chatsworth,California,,91311-4315,http://www.handbrewedbeer.com,8189641422,2018-07-24 01:32:56,2018-08-23 23:29:10,United States,-118.5930241,34.24766895,
british-bulldog-brewery,British Bulldog Brewery,micro,14540 Camaren Park Dr,,,Chico,California,,95973-8835,http://www.britishbulldogbrewery.com,5308928759,2018-07-24 01:32:53,2018-08-23 23:26:15,United States,-121.8468316,39.83081138,
eckert-malting-and-brewing-co,Eckert Malting and Brewing Co,micro,2280 Ivy St Ste 130,,,Chico,California,,95928-8000,http://www.eckertmaltingandbrewing.com,5303422320,2018-07-24 01:32:55,2018-08-23 23:27:52,United States,-121.8241602,39.71428839,
secret-trail-brewing-company-llc,"Secret Trail Brewing Company, LLC",micro,132 Meyers St Ste 120,,,Chico,California,,95928-8002,http://ww.secrettrailbrewing.com,9167094820,2018-07-24 01:33:01,2018-08-11 21:36:20,United States,,,
sierra-nevada-brewing-co,Sierra Nevada Brewing Co,regional,1075 E 20th St,,,Chico,California,,95928-6722,http://www.sierranevada.com,5308933520,2018-07-24 01:33:01,2018-08-24 00:02:29,United States,-121.8098801,39.7257632,
i-and-i-brewing,I & I Brewing,micro,5135 Edison Ave Ste 1,,,Chino,California,,91710-5773,http://www.iandibrewing.com,9095913915,2018-07-24 01:32:57,2018-08-11 21:36:08,United States,,,
chula-vista-brewery,Chula Vista Brewery,micro,294 Third Ave,,,Chula Vista,California,,91910-2701,http://www.chulavistabrewery.com,6196168806,2018-07-24 01:32:54,2018-08-23 23:26:43,United States,-117.080369,32.641495,
novo-brazil-brewing-company,Novo Brazil Brewing Company,micro,901 Lane Ave # 100,,,Chula Vista,California,,91914-3501,http://www.novobrazilbrewing.com,6198694274,2018-07-24 01:32:59,2018-08-24 00:00:11,United States,-116.9613594,32.6518762,
thr3e-punks-ale,Thr3e Punks Ale,micro,259 Third Ave,,,Chula Vista,California,,91910-2721,http://3punkales.com/red/index.html,6198579092,2018-07-24 01:33:02,2018-08-24 00:04:05,United States,-117.080107,32.642827000000004,
bay-bridge-brewing-co,Bay Bridge Brewing Co,micro,688 Marsat Ct Ste B,,,Chula Vista,California,,91911-4697,http://www.baybridgebrewing.com,6199347371,2018-07-24 01:32:52,2018-08-11 21:35:56,United States,,,
brewery-in-planning-claremont,Brewery in Planning - Claremont,planning,,,,Claremont,California,,91711,,,2018-07-24 01:32:53,2018-08-23 23:26:02,United States,-117.7197785,34.0966764,
brewery-in-planning-claremont,Brewery In Planning - Claremont,planning,,,,Claremont,California,,91711-1764,,,2018-07-24 01:32:53,2018-08-23 23:26:02,United States,-117.7197785,34.0966764,
claremont-craft-ales,Claremont Craft Ales,micro,1420 N Claremont Blvd Ste 204C,,,Claremont,California,,91711-3528,http://www.claremontcraftales.com,9096255350,2018-07-24 01:32:54,2018-08-11 21:36:00,United States,,,
two-dude-brew,Two Dude Brew,planning,,,,Clearlake,California,,95422-8159,,7075337600,2018-07-24 01:33:03,2018-08-24 00:04:34,United States,-122.62637279999998,38.9582307,
cloverdale-ale-companys-ruth-mcgowans-brewpub,Cloverdale Ale Company's Ruth McGowan's Brewpub,brewpub,131 E 1st St,,,Cloverdale,California,,95425-3701,http://www.ruthmcgowansbrewpub.com,7078949610,2018-07-24 01:32:54,2018-08-23 23:26:51,United States,-123.0165729,38.80532322,
bear-republic-brewing-co-production-facility,Bear Republic Brewing Co - Production facility,regional,110 Sandholm Ln Ste 10,,,Cloverdale,California,,95425-4439,http://www.bearrepublic.com,7078942722,2018-07-24 01:32:52,2018-08-11 21:35:56,United States,,,
559-local-brewing,559 Local Brewing,micro,608 4th St,,,Clovis,California,,93612-1183,http://www.fresnobrewingcompany.com,5594731875,2018-07-24 01:32:51,2018-08-23 23:23:53,United States,-119.7017487,36.82517171,
kings-river-brewing-company,Kings River Brewing Company,planning,,,,Clovis,California,,93612-2825,http://www.kingsriverbrewing.com,5599060615,2018-07-24 01:32:57,2018-08-23 23:58:34,United States,-119.7029194,36.8252277,
machinehead-brewing-co,MachineHead Brewing Co.,planning,,,,Clovis,California,,93612,,,2018-07-24 01:32:58,2018-08-23 23:59:17,United States,-119.7029194,36.8252277,
rileys-brew-pub,Riley's Brew Pub,brewpub,2674 Owens Mountain Pkwy Ste 104,,,Clovis,California,,93611-9588,http://rileysbrew.pub,5598622925,2018-07-24 01:33:00,2018-08-24 00:01:30,United States,-119.6452626,36.855494,
zone-9-brewing-company,Zone 9 Brewing Company,micro,1450 Tollhouse Rd Ste 105,,,Clovis,California,,93611-0503,,5592600539,2018-07-24 01:33:03,2018-08-24 00:05:09,United States,-119.6906567,36.82610331,
3-iron-brewing-company,3 Iron Brewing Company,micro,898 Via Lata Ste A,,,Colton,California,,92324-3920,http://www.3ironbrewingco.com,9095334892,2018-07-24 01:32:51,2018-08-11 21:35:53,United States,,,
ej-phair-brewing-co,E.J. Phair Brewing Co,micro,2151 Salvio St Ste L,,,Concord,California,,94520-2470,http://www.ejphair.com,9256804253,2018-07-24 01:32:55,2018-08-11 21:36:02,United States,,,
epidemic-ales,Epidemic Ales,micro,150 Mason Circle Stes I&J,,,Concord,California,,94520,http://www.epidemicales.com,9255668850,2018-07-24 01:32:55,2018-08-11 21:36:03,United States,,,
cool-beerwerks,Cool Beerwerks,brewpub,5020 Ellinghouse Dr,,,Cool,California,,95614-9569,http://www.cbwbeer.com,5308855866,2018-07-24 01:32:54,2018-08-11 21:36:00,United States,,,
main-street-brewery,Main Street Brewery,brewpub,493 N Main St,,,Corona,California,,92880-2042,http://www.mainstreetbrewery.com,9513711471,2018-07-24 01:32:58,2018-08-23 23:59:23,United States,-117.5636924,33.8925168,
skyland-ale-works,Skyland Ale Works,micro,1869 Pomona Rd Ste E,,,Corona,California,,92880-1789,http://www.skylandaleworks.com,9518173037,2018-07-24 01:33:01,2018-08-11 21:36:21,United States,,,
stone-church-brewing,Stone Church Brewing,micro,2785 Cabot Dr Ste 160,,,Corona,California,,92883-7388,http://www.stonechurchbrewing.com,3105676582,2018-07-24 01:33:01,2018-08-24 00:03:15,United States,-117.5046237,33.813180700000004,
storytellers-brewery-and-meet-house-llc,"Storytellers Brewery and Meet House, LLC",planning,,,,Corona,California,,92880-1798,http://www.storytellersbrewery.com,9092475710,2018-07-24 01:33:01,2018-08-24 00:03:16,United States,-117.5664449,33.8752945,
taps-fish-house-and-brewery-corona,TAPS Fish House and Brewery - Corona,brewpub,2745 Lakeshore Dr,,,Corona,California,,92883-7367,,9512775800,2018-07-24 01:33:02,2018-08-24 00:03:39,United States,-117.5088541,33.81408315,
coronado-brewing-co,Coronado Brewing Co,regional,170 Orange Ave,,,Coronado,California,,92118-1409,http://www.coronadobrewingcompany.com,6194374452,2018-07-24 01:32:54,2018-08-23 23:26:59,United States,-117.1791416,32.6873641,
barley-forge-brewing,Barley Forge Brewing,micro,2957 Randolph Ave Ste B,,,Costa Mesa,California,,92626-4375,http://www.barleyforge.com,7146412084,2018-07-24 01:32:52,2018-08-11 21:35:55,United States,,,
gunwhale-ales,Gunwhale Ales,micro,2960 Randolph Ave Unit A,,,Costa Mesa,California,,92626-4312,http://www.gunwhaleales.com,9492399074,2018-07-24 01:32:56,2018-08-11 21:36:05,United States,,,
karl-strauss-brewing-co-costa-mesa,Karl Strauss Brewing Co - Costa Mesa,brewpub,901 S Coast Dr Ste A,,,Costa Mesa,California,,92626-7790,http://www.karlstrauss.com,7145462739,2018-07-24 01:32:57,2018-08-11 21:36:10,United States,,,
gravsouth-brewing-co,GravSouth Brewing Co.,brewpub,7950 Redwood Dr Ste 15,,,Cotati,California,,94931-3054,http://www.gravsouthbrewco.com,7077534198,2018-07-24 01:32:56,2018-08-11 21:36:05,United States,,,
arrow-lodge-brewing,Arrow Lodge Brewing,micro,720 E Arrow Hwy Ste C,,,Covina,California,,91722-2103,,6264832667,2018-07-24 01:32:52,2018-08-11 21:35:55,United States,,,
alosta-brewing-co,Alosta Brewing Co,micro,692 Arrow Grand Cir,,,Covina,California,,91722-2122,http://www.alostabrewing.com,9094558707,2018-07-24 01:32:52,2018-08-23 23:24:13,United States,-117.8781466,34.10365026,
rev-brewing-co,REV Brewing Co,micro,1580 W San Bernardino Rd Ste H,,,Covina,California,,91722-3457,http://www.revwineryandbrewingco.com,6263889949,2018-07-24 01:33:00,2018-08-11 21:36:18,United States,,,
port-opints-brewing-co,Port O'Pints Brewing Co.,brewpub,1215 Northcrest Dr,,,Crescent City,California,,95531-2320,http://www.portopints.com,7074601154,2018-07-24 01:33:00,2018-08-24 00:01:08,United States,-124.1993085,41.76863139,
seaquake-brewing,Seaquake Brewing,brewpub,400 Front St,,,Crescent City,California,,95531-4369,http://www.seaquakebrewing.com,7074654444,2018-07-24 01:33:01,2018-08-24 00:02:17,United States,-124.200063,41.749045,
brewery-in-planning-culver-city,Brewery in Planning - Culver City,planning,,,,Culver City,California,,90230-4108,,,2018-07-24 01:32:53,2018-08-23 23:26:02,United States,-118.3964665,34.0211224,
brewery-in-planning-daly-city,Brewery In Planning - Daly City,planning,,,,Daly City,California,,94015,,,2018-07-24 01:32:53,2018-08-23 23:26:03,United States,-122.4619205,37.7057671,
danville-brewing-company,Danville Brewing Company,brewpub,200 Railroad Ave Ste A,,,Danville,California,,94526-3855,,,2018-07-24 01:32:54,2018-08-11 21:36:01,United States,,,
dunloe-brewing-llc,Dunloe Brewing LLC,micro,1606 Olive Dr,,,Davis,California,,95616-4741,http://Dunloebrewing.com,5302313502,2018-07-24 01:32:55,2018-08-23 23:27:42,United States,-121.7311242,38.54474329999999,
sudwerk-brewing-co,Sudwerk Brewing Co,micro,2001 2nd St,,,Davis,California,,95618-5474,http://www.sudwerkbrew.com,5307562739,2018-07-24 01:33:02,2018-08-24 00:03:23,United States,-121.726084,38.546614,
super-owl-brewing,Super Owl Brewing,micro,1260 Lake Blvd Ste 121,,,Davis,California,,95616-5669,http://www.superowlbrewing.com,5307465992,2018-07-24 01:33:02,2018-08-24 00:03:26,United States,-121.787547,38.55363515,
three-mile-brewing-co,Three Mile Brewing Co,micro,231 G St,,,Davis,California,,95616-4549,http://www.threemilebrewing.com/,5305644351,2018-07-24 01:33:02,2018-08-24 00:04:07,United States,-121.739122,38.54403522,
viewpoint-brewing-co,Viewpoint Brewing Co,brewpub,2201 San Dieguito Dr Ste F,,,del Mar,California,,92014-2257,http://www.viewpointbrewing.com,8583569346,2018-07-24 01:33:03,2018-08-11 21:36:28,United States,,,
el-dorado-brewing-co,El Dorado Brewing Co,micro,6051 Enterprise Dr,,,Diamond Springs,California,,95619-9447,http://www.eldobrew.com,5305584188,2018-07-24 01:32:55,2018-08-23 23:27:56,United States,-120.8345161,38.69423629999999,
solid-ground-brewing,Solid Ground Brewing,brewpub,552 Pleasant Valley Road,,,Diamond Springs,California,,95619,http://www.solidgroundbrewing.com,5303447442,2018-07-24 01:33:01,2018-08-24 00:02:43,United States,-120.8219606,38.69327929999999,
ruhstaller-beer,Ruhstaller Beer,micro,"800 Business Park Drive, Suite G",,,Dixon,California,,95620,,5306018240,2018-07-24 01:33:00,2018-08-11 21:36:19,United States,,,
inc-82-brewing,Inc 82 Brewing,brewpub,7370 San Ramon Rd,,,Dublin,California,,94568-2336,http://www.inc82.com,9255608344,2018-07-24 01:32:57,2018-08-23 23:29:47,United States,-121.93774740000002,37.7059588,
dunsmuir-brewery-works,Dunsmuir Brewery Works,brewpub,5701 Dunsmuir Ave,,,Dunsmuir,California,,96025-2008,http://www.dunsmuirbreweryworks.com,5302351900,2018-07-24 01:32:55,2018-08-23 23:27:43,United States,-122.271862,41.211366,
burning-beard-brewing,Burning Beard Brewing,micro,785 Vernon Way,,,El Cajon,California,,92020-1938,http://www.burningbeardbrewing.com,6194569185,2018-07-24 01:32:53,2018-08-23 23:26:22,United States,-116.9717836,32.81201287,
elevation-66-brewing-co,Elevation 66 Brewing Co,brewpub,10082 San Pablo Ave,,,El Cerrito,California,,94530-3927,http://www.elevation66.com,5308489176,2018-07-24 01:32:55,2018-08-23 23:27:59,United States,-122.3030241,37.90204179999999,
mraz-brewing-company,Mraz Brewing Company,micro,2222 Francisco Dr Ste 510,,,El Dorado Hills,California,,95762-3766,http://www.mrazbrewingcompany.com,9169340744,2018-07-24 01:32:59,2018-08-11 21:36:14,United States,,,
el-segundo-brewing-co,El Segundo Brewing Co,micro,140 Main St,,,El Segundo,California,,90245-3801,http://www.elsegundobrewing.com,3105293882,2018-07-24 01:32:55,2018-08-23 23:27:57,United States,-118.4156967,33.91771,
surfridge-brewing-company,Surfridge Brewing Company,planning,,,,El Segundo,California,,90245-4209,http://www.surfridgebrewery.com,3108470283,2018-07-24 01:33:02,2018-08-24 00:03:28,United States,-118.383179,33.912594,
dreaming-dog-brewery,Dreaming Dog Brewery,micro,2501 W Taron Ct,,,Elk Grove,California,,95757-8423,,,2018-07-24 01:32:55,2018-08-11 21:36:02,United States,,,
tilted-mash-brewery,Tilted Mash Brewery,micro,9175 Union Park Way,,,Elk Grove,California,,95624-2792,http://www.tiltedmash.com,,2018-07-24 01:33:02,2018-08-24 00:04:13,United States,-121.3611472,38.38804656,
waterman-brewing-company,Waterman Brewing Company,micro,9824 Dino Dr Unit 150,,,Elk Grove,California,,95624-1277,http://www.watermanbrewing.com,9167142337,2018-07-24 01:33:03,2018-08-11 21:36:28,United States,,,
brewery-in-planning-elk-grove,Brewery In Planning - Elk Grove,planning,,,,Elk Grove,California,,95624-6066,,,2018-07-24 01:32:53,2018-08-23 23:26:03,United States,-121.3716178,38.4087993,
flatland-brewing-company,Flatland Brewing Company,micro,9183 Survey Rd Ste 104,,,Elk Grove,California,,95624-9712,http://www.flatlandbrewingco.com,9167533116,2018-07-24 01:32:56,2018-08-23 23:28:34,United States,-121.3567686,38.37684711,
devils-potion-brewing-company-llc,Devil's Potion Brewing Company LLC,planning,,,,Escondido,California,,92026-3187,http://www.devilspotion.com,7605329091,2018-07-24 01:32:54,2018-08-23 23:27:22,United States,-117.08148490000002,33.1216751,
escondido-brewing-company,Escondido Brewing Company,micro,649 Rock Springs Rd,,,Escondido,California,,92025-1622,http://www.escobrewco.com,,2018-07-24 01:32:55,2018-08-23 23:28:06,United States,-117.097042,33.124632,
jacked-up-brewery,Jacked Up Brewery,micro,800 W Grand Ave Ste B Ste 201,,,Escondido,California,,92025-2562,http://jackedupbrewery.com,7603000633,2018-07-24 01:32:57,2018-08-11 21:36:09,United States,,,
plan-9-alehouse,Plan 9 Alehouse,brewpub,155 E Grand Ave,,,Escondido,California,,92025-2701,http://www.plan9alehouse.com,7604898817,2018-07-24 01:33:00,2018-08-24 00:01:02,United States,-117.0821707,33.12121471,
stone-brewing-co,Stone Brewing Co,regional,2120 Harmony Grove Rd,,,Escondido,California,,92029-2053,http://www.stonebrewing.com,7602947866,2018-07-24 01:33:01,2018-08-24 00:03:12,United States,-117.11565,33.109969,
etna-brewing-co-llc,Etna Brewing Co LLC,micro,131 Callahan Street,,,Etna,California,,96027,http://www.etnabrew.com,5304675277,2018-07-24 01:32:55,2018-08-23 23:28:07,United States,-122.8918305,41.45674141,
paystreak-brewing,Paystreak Brewing,brewpub,449 Main Street,,,Etna,California,,96027,http://www.paystreakbrewing.com,5304672337,2018-07-24 01:32:59,2018-08-24 00:00:47,United States,-122.8937015,41.4565805,
humboldt-springs-brewing-co,Humboldt Springs Brewing Co,planning,,,,Eureka,California,,95501,,7074993050,2018-07-24 01:32:57,2018-08-23 23:29:42,United States,-124.1636729,40.80207120000001,
lost-coast-brew-house,Lost Coast Brew House,brewpub,1600 Sunset Dr,,,Eureka,California,,95503-2401,http://www.lostcoast.com,7074454484,2018-07-24 01:32:58,2018-08-11 21:36:12,United States,,,
lost-coast-brewery-and-cafe-table-bluff-brewing-inc,"Lost Coast Brewery and Cafe - Table Bluff Brewing, Inc.",regional,617 4th St,,,Eureka,California,,95501-1013,http://www.lostcoast.com,7074454480,2018-07-24 01:32:58,2018-08-23 23:59:12,United States,-124.1648141,40.80302047,
the-booth-brewing-co,The Booth Brewing Co.,micro,123 W 3rd St,,,Eureka,California,,95501-0222,http://www.theboothbrewing.com,7075725728,2018-07-24 01:33:02,2018-08-24 00:03:49,United States,-124.1743072,40.80226985,
rocky-hill-brewing,Rocky Hill Brewing,micro,20147 Avenue 306,,,Exeter,California,,93221-9763,,5595924594,2018-07-24 01:33:00,2018-08-11 21:36:18,United States,,,
fair-oaks-brew-pub,Fair Oaks Brew Pub,brewpub,7988 California Ave,,,Fair Oaks,California,,95628-7140,http://www.fairoaksbrewpub.com,,2018-07-24 01:32:55,2018-08-23 23:28:10,United States,-121.2687393,38.64181849,
iron-springs-pub-and-brewery,Iron Springs Pub & Brewery,brewpub,765 Center Blvd,,,Fairfax,California,,94930-1764,http://www.ironspringspub.com,4154851005,2018-07-24 01:32:57,2018-08-23 23:29:59,United States,-122.5862525,37.98670111,
anheuser-busch-inc-a-fairfield,Anheuser-Busch Inc â Fairfield,large,3101 Busch Dr,,,Fairfield,California,,94534-9726,,7074292000,2018-07-24 01:32:52,2018-08-23 23:24:29,United States,-122.0902992,38.2365838,
blue-frog-brewing-company,Blue Frog Brewing Company,micro,1740 Travis Blvd,,,Fairfield,California,,94533-3431,http://www.bluefrogbrewingcompany.com,7074292337,2018-07-24 01:32:53,2018-08-23 23:25:38,United States,-122.06005890000002,38.2585569,
chau-tien-beer-company,Chau Tien Beer Company,contract,,,,Fairfield,California,,94533-0244,http://www.paleale.com,7072808044,2018-07-24 01:32:54,2018-08-23 23:26:40,United States,-122.0399663,38.2493581,
heretic-brewing-company,Heretic Brewing Company,micro,1052 Horizon Dr Ste B,,,Fairfield,California,,94533-1694,http://www.hereticbrewing.com,7073894573,2018-07-24 01:32:56,2018-08-11 21:36:06,United States,,,
old-country-brewing,Old Country Brewing,planning,,,,Fairfield,California,,94533-7790,,,2018-07-24 01:32:59,2018-08-24 00:00:27,United States,-122.0399663,38.2493581,
fallbrook-brewing-co,Fallbrook Brewing Co,micro,116 W Hawthorne St,,,Fallbrook,California,,92028-,http://www.fallbrookbrewing.com,,2018-07-24 01:32:55,2018-08-23 23:28:13,United States,-117.2516425,33.38273379,
red-bus-brewing-company,Red Bus Brewing Company,micro,802 Reading St Ste A,,,Folsom,California,,95630-3061,http://www.redbusbrew.com,9169857299,2018-07-24 01:33:00,2018-08-11 21:36:17,United States,,,
north-coast-brewing-co-inc,North Coast Brewing Co Inc.,regional,455 N Main St,,,Fort Bragg,California,,95437-3215,http://www.northcoastbrewing.com,7079642739,2018-07-24 01:32:59,2018-08-24 00:00:07,United States,-123.8057604,39.44618406,
eel-river-brewing-co,Eel River Brewing Co,micro,1777 Alamar Way,,,Fortuna,California,,95540-9548,http://www.eelriverbrewing.com,7077252739,2018-07-24 01:32:55,2018-08-23 23:27:52,United States,-124.1524471,40.57874196,
black-magic-brewing,Black Magic Brewing,planning,,,,Fountain Valley,California,,92708-6431,,,2018-07-24 01:32:53,2018-08-23 23:25:33,United States,-117.96273490000002,33.7038145,
fossil-fuels-brewing-co,Fossil Fuels Brewing Co,contract,45928 Omega Dr,,,Fremont,California,,94539-6848,,5103815739,2018-07-24 01:32:56,2018-08-23 23:28:38,United States,-121.9215949,37.4989939,
jacks-brewing-co,Jack's Brewing Co,brewpub,39176 Argonaut Way,,,Fremont,California,,94538-1304,,5107962036,2018-07-24 01:32:57,2018-08-23 23:58:07,United States,-121.9884025,37.5442084,
jp-dasbrew,JP DasBrew,micro,44356 S Grimmer Blvd,,,Fremont,California,,94538-6385,http://www.dasbrewinc.com,5102705345,2018-07-24 01:32:57,2018-08-23 23:58:10,United States,-121.95778359999998,37.5043737,
sequoia-brewing-co-tower-district,Sequoia Brewing Co - Tower District,brewpub,777 E Olive Ave,,,Fresno,California,,93728-3350,http://www.sequoiabrewing.com,5592645521,2018-07-24 01:33:01,2018-08-24 00:02:21,United States,-119.8019622,36.75774408,
pine-and-palm-brewing,Pine and Palm Brewing,micro,352 W Bedford Ave Ste 102,,,Fresno,California,,93711-6079,http://www.pineandpalmbrewing.com,,2018-07-24 01:32:59,2018-08-11 21:36:16,United States,,,
411-broadway-ales,411 Broadway Ales,planning,,,,Fresno,California,,93721-2801,,5412706076,2018-07-24 01:32:51,2018-08-23 23:23:50,United States,-119.7088613,36.7295295,
full-circle-brewing-co,Full Circle Brewing Co,micro,620 F St,,,Fresno,California,,93706-3413,http://www.fullcirclebrewing.com,5592646323,2018-07-24 01:32:56,2018-08-23 23:28:42,United States,-119.7907797,36.72683719,
mad-duck-craft-brewing-company,Mad Duck Craft Brewing Company,brewpub,3085 E Campus Pointe Dr,,,Fresno,California,,93710-7526,http://www.madduckcraft.com,5593253825,2018-07-24 01:32:58,2018-08-11 21:36:13,United States,,,
sackbut-brewing-and-barrelwerks,Sackbut Brewing and Barrelwerks,micro,3153 E Huntington Blvd,,,Fresno,California,,93702-3215,http://www.sackbutbrewing.com,,2018-07-24 01:33:00,2018-08-24 00:01:53,United States,-119.7715206,36.73946658,
tactical-ops-brewing-inc,Tactical OPS Brewing Inc.,proprietor,2985 N Burl 102,,,Fresno,California,,93727,http://www.tacticalopsbrewing.com,5593138759,2018-07-24 01:33:02,2018-08-24 00:03:30,United States,-119.6761563,36.7913344,
tioga-sequoia-brewing-co,Tioga-Sequoia Brewing Co,micro,746 Broadway St,,,Fresno,California,,93721-2808,http://www.tiogasequoia.com,5592645521,2018-07-24 01:33:02,2018-08-24 00:04:15,United States,-119.78830790000002,36.73071679,
bootleggers-brewery,Bootleggers Brewery,micro,130 S Highland Ave,,,Fullerton,California,,92832-1803,,7148712337,2018-07-24 01:32:53,2018-08-23 23:25:46,United States,-117.928591,33.87004,
bootleggers-brewery,Bootleggers Brewery,micro,1100 E Truslow Ave,,,Fullerton,California,,92831-4626,http://www.bootleggersbrewery.com,7148712337,2018-07-24 01:32:53,2018-08-23 23:25:45,United States,-117.9080095,33.86741253,
river-rock-brewery,River Rock Brewery,micro,807 C St,,,Galt,California,,95632-1706,http://riverrockbrewery.com,2093316071,2018-07-24 01:33:00,2018-08-24 00:01:36,United States,-121.3004126,38.2532789,
stash-brewing-co,Stash Brewing Co,micro,3782 Winding Creek Ln,,,Garden Valley,California,,95633-9773,http://stashbrewingco.com,4156804181,2018-07-24 01:33:01,2018-08-11 21:36:23,United States,,,
phantom-carriage-brewery,Phantom Carriage Brewery,brewpub,18525 S Main St,,,Gardena,California,,90248-4611,http://www.phantomcarriage.com,3105385834,2018-07-24 01:32:59,2018-08-11 21:36:16,United States,,,
state-brewing-co-llc,State Brewing Co LLC,micro,1237 W 134th St Ste 2,,,Gardena,California,,90247-1962,http://www.statebrewingco.com,3108198179,2018-07-24 01:33:01,2018-08-11 21:36:23,United States,,,
two-coast-brewing-co,Two Coast Brewing Co.,contract,1866 W 169th St Ste H,,,Gardena,California,,90247-5231,http://www.twocoastbrewing.com,3107300055,2018-07-24 01:33:03,2018-08-11 21:36:27,United States,,,
ximix-craft-exploration,Ximix Craft Exploration,micro,13723 1/2 Harvard Pl,,,Gardena,California,,90249-2527,http://www.ximixcraft.com,7603332351,2018-07-24 01:33:03,2018-08-11 21:36:29,United States,,,
golden-state-brew-and-grill,Golden State Brew and Grill,brewpub,7560 Monterey Rd Ste 100,,,Gilroy,California,,95020,,4088467070,2018-07-24 01:32:56,2018-08-23 23:28:52,United States,-121.5695839,37.0088398,
brewyard-beer-company-llc,Brewyard Beer Company LLC,micro,906 Western Ave,,,Glendale,California,,91201,http://www.brewyardbeercompany.com,8184099448,2018-07-24 01:32:53,2018-08-23 23:26:14,United States,-118.3018112,34.159644,
can-of-worms-brewing,Can Of Worms Brewing,planning,,,,Glendale,California,,91214-1713,http://www.canofwormsbrewing.com,8187975520,2018-07-24 01:32:54,2018-08-23 23:26:27,United States,-118.2462486,34.192912,
oak-grove-brewing-company,Oak Grove Brewing Company,planning,,,,Glendale,California,,91208-1836,http://Www.oakgrovebrewingcompany.com,8183199577,2018-07-24 01:32:59,2018-08-24 00:00:11,United States,-118.2462486,34.192912,
captain-fattys,Captain Fatty's,micro,6483 Calle Real Ste D,,,Goleta,California,,93117-1541,http://www.captainfattys.com,,2018-07-24 01:32:54,2018-08-11 21:35:59,United States,,,
hollister-brewing-co,Hollister Brewing Co,brewpub,6980 Market Place Dr,,,Goleta,California,,93117-2997,http://www.holisterbrewco.com,8059682810,2018-07-24 01:32:57,2018-08-23 23:29:29,United States,-119.873842,34.428764,
mspecial-brewing-company,M.Special Brewing Company,micro,6860 Cortona Dr Ste C,,,Goleta,California,,93117-5507,http://www.mspecialbrewco.com,,2018-07-24 01:32:58,2018-08-11 21:36:13,United States,,,
draughtsmen-aleworks,Draughtsmen Aleworks,micro,53 Santa Felicia Dr,,,Goleta,California,,93117-2804,http://www.draughtsmenaleworks.com,8053872577,2018-07-24 01:32:55,2018-08-23 23:27:36,United States,-119.8759909,34.43146172,
bittersweet-brewing-company-llc,"Bittersweet Brewing Company, LLC",micro,191 S Oak Park Blvd Ste 3,,,Grover Beach,California,,93433-2265,http://www.bittersweetbrewing.com,,2018-07-24 01:32:53,2018-08-11 21:35:57,United States,,,
manrock-brewing,ManRock Brewing,brewpub,1750 El Camino Real Ste A,,,Grover Beach,California,,93433-1416,http://www.manrockbrewing.com,7022172826,2018-07-24 01:32:58,2018-08-11 21:36:13,United States,,,
stumptown-brewery,Stumptown Brewery,brewpub,15045 River Rd,,,Guerneville,California,,95446-8043,,7078690705,2018-07-24 01:33:02,2018-08-24 00:03:22,United States,-122.9838017,38.51320677,
brewjeria-company,Brewjeria Company,planning,,,,Hacienda Heights,California,,91745-1620,http://www.brewjeriacompany.com,,2018-07-24 01:32:53,2018-08-23 23:26:11,United States,-117.9686755,33.993067700000005,
half-moon-bay-brewing-co,Half Moon Bay Brewing Co,brewpub,390 Capistrano Road,,,Half Moon Bay,California,,94019,http://www.hmbbrewingco.com,6507282739,2018-07-24 01:32:56,2018-08-11 21:36:06,United States,,,
hop-dogma-brewing-company,Hop Dogma Brewing Company,micro,270 Capistrano Rd #22,,,Half Moon Bay,California,,94019,http://www.hopdogma.com,6505608729,2018-07-24 01:32:57,2018-08-11 21:36:07,United States,,,
sacrilege-brewing-project,Sacrilege Brewing Project,brewpub,730 Main St,,,Half Moon Bay,California,,94019-1925,,6502767029,2018-07-24 01:33:00,2018-08-24 00:01:55,United States,-122.4299132,37.460938,
brewery-in-planning-appleton,Brewery in Planning - Appleton,planning,,,,Hawthorne,California,,90250-6602,,3102089613,2018-07-24 01:32:53,2018-08-23 23:26:00,United States,-118.34816,33.911454,
common-space-brewery,Common Space Brewery,micro,3411 W El Segundo Blvd,,,Hawthorne,California,,90250-4816,http://www.commonspace.la,3106662825,2018-07-24 01:32:54,2018-08-23 23:26:55,United States,-118.3328574,33.91653119,
los-angeles-ale-works,Los Angeles Ale Works,micro,12918 Cerise Ave,,,Hawthorne,California,,90250-5521,http://www.laaleworks.com,4244564191,2018-07-24 01:32:58,2018-08-23 23:59:10,United States,-118.3322768,33.9149155,
buffalo-bills-brewery,Buffalo Bills Brewery,brewpub,1082 B St,,,Hayward,California,,94541-4108,http://www.buffalobillsbrewery.com,5108869823,2018-07-24 01:32:53,2018-08-23 23:26:20,United States,-122.0768666,37.6770284,
bear-republic-brewing-co,Bear Republic Brewing Co,regional,345 Healdsburg Ave,,,Healdsburg,California,,95448-4105,http://www.bearrepublic.com,7074332337,2018-07-24 01:32:52,2018-08-23 23:25:09,United States,-122.8713046,38.61103170000001,
abigaile,Abigaile,brewpub,1301 Manhattan Ave,,,Hermosa Beach,California,,90254-3666,http://abigailrestaurant.com,3107988227,2018-07-24 01:32:51,2018-08-23 23:23:59,United States,-118.4048656,33.8734519,
brewery-at-abigaile,Brewery At Abigaile,brewpub,1301 Manhattan Ave,,,Hermosa Beach,California,,90254-3666,http://www.abigailerestaurant.com,3107988227,2018-07-24 01:32:53,2018-08-23 23:25:57,United States,-118.4048656,33.8734519,
desert-barn-brewing-co,Desert Barn Brewing Co.,brewpub,11352 Hesperia Rd Ste B,,,Hesperia,California,,92345-2165,,,2018-07-24 01:32:54,2018-08-11 21:36:01,United States,,,
oak-hills-brewing,Oak Hills Brewing,micro,12221 Poplar St Ste 3,,,Hesperia,California,,92344-9287,http://www.oakhillsbrewing.com,7602448278,2018-07-24 01:32:59,2018-08-11 21:36:15,United States,,,
brewery-twenty-five,Brewery Twenty Five,micro,106 3rd St,,,Hollister,California,,95023,http://www.brewerytwentyfive.com,8316367640,2018-07-24 01:32:53,2018-08-23 23:26:10,United States,-121.4008369,36.85359382,
grillin-and-chillin-alehouse,Grillin & Chillin Alehouse,brewpub,401 McCray St # B24,,,Hollister,California,,95023-2225,http://www.relaxgrillinchillin.com,8316372337,2018-07-24 01:32:56,2018-08-23 23:29:03,United States,-121.398519,36.8518573,
humble-farmer-brewing-co-inc,"Humble Farmer Brewing Co., Inc.",micro,438 Walnut Ave,,,Holtville,California,,92250-1343,http://www.humblefarmerbrewing.com,7603567066,2018-07-24 01:32:57,2018-08-23 23:29:40,United States,-115.376335,32.8093331,
beachwood-brewing,Beachwood Brewing,micro,7631 Woodwind Dr Ste B,,,Huntington Beach,California,,92647-7117,http://www.beachwoodbbq.com,5103269575,2018-07-24 01:32:52,2018-08-11 21:35:56,United States,,,
four-sons-brewing,Four Sons Brewing,micro,18421 Gothard St Ste 100,,,Huntington Beach,California,,92648-1236,http://www.foursonsbrewing.com,7145847501,2018-07-24 01:32:56,2018-08-11 21:36:04,United States,,,
huntington-beach-beer-co,Huntington Beach Beer Co,brewpub,201 Main St Ste E,,,Huntington Beach,California,,92648-8110,http://www.hbbeerco.com,7149605343,2018-07-24 01:32:57,2018-08-11 21:36:07,United States,,,
riip-beer-company,Riip Beer Company,micro,17216 Pacific Coast Hwy,,,Huntington Beach,California,,92649-4116,http://www.riipbeer.com,7142486710,2018-07-24 01:33:00,2018-08-24 00:01:29,United States,-117.9872302,33.6480028,
dfamle-enterprises-lp-dba-four-sons-brewing,Dfamle Enterprises LP (DBA Four Sons Brewing),micro,18421 Gothard St Ste 100,,,Huntington Beach,California,,92648-1235,,,2018-07-24 01:32:54,2018-08-11 21:36:01,United States,,,
idyllwild-brewpub,Idyllwild Brewpub,brewpub,54423 Village Center Dr,,,Idyllwild,California,,92549,http://www.idyllwildbrewpub.com,9516590163,2018-07-24 01:32:57,2018-08-23 23:29:46,United States,-116.711296,33.7436195,
humble-farmer-brewing-co,Humble Farmer Brewing Co.,brewpub,116 S Imperial Ave Ste C,,,Imperial,California,,92251-1666,,7605450037,2018-07-24 01:32:57,2018-08-11 21:36:07,United States,,,
pentagonal-brewing-co,Pentagonal Brewing Co,micro,115 N Imperial Ave Suite A,,,Imperial,California,,92251-1250,http://www.facebook.com/Pentagonalbrewingcompany/,7605451045,2018-07-24 01:32:59,2018-08-11 21:36:16,United States,,,
three-weavers-brewing-company,Three Weavers Brewing Company,micro,1031 W Manchester Blvd Unit A-B,,,Inglewood,California,,90301-1509,http://www.threeweavers.la,3104005830,2018-07-24 01:33:02,2018-08-11 21:36:25,United States,,,
tortugo-brewing-company,Tortugo Brewing Company,planning,,,,Inglewood,California,,90302-3308,,,2018-07-24 01:33:02,2018-08-24 00:04:19,United States,-118.3550377,33.96185,
indian-wells-brewing-co,Indian Wells Brewing Co,micro,2565 State Highway 14,,,Inyokern,California,,93527-2700,http://www.mojave-red.com,7603775989,2018-07-24 01:32:57,2018-08-11 21:36:08,United States,,,
evans-brewing-co-/-bayhawk-ales,Evans Brewing Co / Bayhawk Ales,micro,2000 Main St,,,Irvine,California,,92614-7202,http://www.evansbrewco.com,7147080082,2018-07-24 01:32:55,2018-08-23 23:28:08,United States,-117.8559667,33.68560798,
left-coast-brewing-co-tasting-room-smokehouse-distillery,Left Coast Brewing Co. Tasting Room Smokehouse Distillery,brewpub,6652 Irvine Center Dr,,,Irvine,California,,92618,,9493619972,2018-07-24 01:32:58,2018-08-23 23:58:55,United States,-117.7640733,33.66814585,
millercoors-brewing-co-irwindale,MillerCoors Brewing Co - Irwindale,large,15801 1st St,,,Irwindale,California,,91706-2069,http://www.millerbrewing.com,6269696225,2018-07-24 01:32:58,2018-08-11 21:36:13,United States,,,
jamul-brewing-co-production-only,Jamul Brewing Co. - Production Only,micro,3113 Calle Allejandro,,,Jamul,California,,91935-3108,http://www.jamulbrewingco.com,6195179829,2018-07-24 01:32:57,2018-08-23 23:58:08,United States,-116.87742,32.709923,
nickel-beer-co,Nickel Beer Co,micro,1485 Hollow Glen Rd,,,Julian,California,,92036,http://www.nickelbeerco.com,7607652337,2018-07-24 01:32:59,2018-08-24 00:00:03,United States,-116.5901544,33.07629942,
julian-brewing-co,Julian Brewing Co,micro,2315 Main St,,,Julian,California,,92065,http://www.baileybbq.com,7607653757,2018-07-24 01:32:57,2018-08-23 23:58:12,United States,-116.603975,33.079171,
june-lake-brewing,June Lake Brewing,micro,131 S Crawford Ave,,,June Lake,California,,93529,http://www.junelakebrewing.com,,2018-07-24 01:32:57,2018-08-23 23:58:14,United States,-119.0772032,37.77835282,
kelsey-creek-brewing,Kelsey Creek Brewing,micro,3945 Main St,,,Kelseyville,California,,95451-7424,http://www.kelseycreekbrewing.com,7072792311,2018-07-24 01:32:57,2018-08-23 23:58:27,United States,-122.8382903,38.97782568,
kern-river-brewing-co,Kern River Brewing Co,brewpub,13415 Sierra Way,,,Kernville,California,,93238-9714,http://www.kernriverbrewingcompany.com,7603762337,2018-07-24 01:32:57,2018-08-11 21:36:11,United States,,,
kern-river-brewing-company-back-yard,Kern River Brewing Company Back Yard,brewpub,134415 Sierra Way Ste B,,,Kernville,California,,93238,,7603762337,2018-07-24 01:32:57,2018-08-11 21:36:11,United States,,,
absolution-by-the-sea,Absolution By the Sea,brewpub,7536 Fay Ave,,,La Jolla,California,,92037-4839,,6192024152,2018-07-24 01:32:51,2018-08-23 23:24:02,United States,-117.27401670000002,32.84083388,
the-fat-cat-beer-co,The Fat Cat Beer Co,contract,7979 Ivanhoe Ave Ste 555,,,La Jolla,California,,92037-4570,http://www.fatcatbeers.com,,2018-07-24 01:33:02,2018-08-24 00:03:52,United States,-117.272443,32.84869008,
karl-strauss-brewing-co-la-jolla,Karl Strauss Brewing Co - La Jolla,brewpub,1044 Wall St,,,La Jolla,California,,92037-4437,http://www.karlstrauss.com,8585512739,2018-07-24 01:32:57,2018-08-23 23:58:24,United States,-117.27421409999998,32.84679009,
rock-bottom-brewery-la-jolla,Rock Bottom Brewery - La Jolla,brewpub,8980 Villa La Jolla Dr,,,La Jolla,California,,92037-1701,http://www.rockbottom.com,8584509277,2018-07-24 01:33:00,2018-08-24 00:01:37,United States,-117.23519,32.870929,
bolt-brewery,Bolt Brewery,brewpub,8179 Center St,,,La Mesa,California,,91942-2907,http://www.boltbrewery.com,6193037837,2018-07-24 01:32:53,2018-08-23 23:25:42,United States,-117.02043,32.771889,
helix-brewing-co,Helix Brewing Co,micro,8101 Commercial St,,,La Mesa,California,,91942-2927,http://www.drinkhelix.com,6197418447,2018-07-24 01:32:56,2018-08-23 23:29:15,United States,-117.023442,32.771907,
draughtsman-brewery,Draughtsman Brewery,planning,,,,La Mirada,California,,90638-3454,,,2018-07-24 01:32:55,2018-08-23 23:27:35,United States,-118.0107092,33.906097100000004,
la-verne-brewing,La Verne Brewing,micro,2125 Wright Ave Ste C15,,,La Verne,California,,91750-5816,http://www.lavernebrewingco.com,9095965804,2018-07-24 01:32:58,2018-08-11 21:36:11,United States,,,
alpenglow-beer-co,Alpenglow Beer Co,contract,,,,Lafayette,California,,94549-4621,http://www.buckwildbrew.com,,2018-07-24 01:32:52,2018-08-23 23:24:13,United States,-122.1180201,37.88575820000001,
laguna-beach-brewery-and-grille,Laguna Beach Brewery and Grille,brewpub,237 Ocean Ave,,,Laguna Beach,California,,92651-2106,http://www.lagunabeachbrewery.net,9494973381,2018-07-24 01:32:58,2018-08-23 23:58:44,United States,-117.7835382,33.5427913,
cebula-craft-brewing-llc-dba-gamecraft-brewing,Cebula Craft Brewing LLC dba GameCraft Brewing,planning,,,,Laguna Hills,California,,92653-1589,http://www.gamecraftbrewing.com,9497340910,2018-07-24 01:32:54,2018-08-23 23:26:33,United States,-117.6882067,33.5948758,
waganupa-brewing,Waganupa Brewing,micro,289 Clifford Dr Unit B,,,Lake Almanor,California,,96137-9641,http://www.waganupa.com,5302593705,2018-07-24 01:33:03,2018-08-11 21:36:28,United States,,,
craft-brewing-company,Craft Brewing Company,micro,530 Crane St,,,Lake Elsinore,California,,92530-2779,http://www.craftbrewibgcompany.com,9516742562,2018-07-24 01:32:54,2018-08-23 23:27:06,United States,-117.3402489,33.68673832,
stadium-pizza-main-st,Stadium Pizza Main ST,brewpub,169 N Main St,,,Lake Elsinore,California,,92530-4005,http://www.stadiumpizza.com,9512282128,2018-07-24 01:33:01,2018-08-11 21:36:22,United States,,,
omeara-bros-brewing-company,O'Meara Bros. Brewing Company,brewpub,901 Bevins St,,,Lakeport,California,,95453-8778,http://www.omearabros.com,7072621234,2018-07-24 01:32:59,2018-08-24 00:00:33,United States,-122.9245547,39.04005267,
timeless-pints-brewing-co,Timeless Pints Brewing Co,micro,3671 Industry Ave Ste C1,,,Lakewood,California,,90712-4155,http://www.timelesspints.com,5624900099,2018-07-24 01:33:02,2018-08-11 21:36:25,United States,,,
kinetic-brewing-company,Kinetic Brewing Company,brewpub,735 W Lancaster Blvd,,,Lancaster,California,,93534-3118,http://www.kineticbrewing.com,6619422337,2018-07-24 01:32:57,2018-08-23 23:58:31,United States,-118.1433223,34.6978404,
bravery-brewing,Bravery Brewing,micro,42705 8th St W,,,Lancaster,California,,93534-7184,http://www.braverybrewing.com,6619514677,2018-07-24 01:32:53,2018-08-23 23:25:51,United States,-118.1456072,34.6582797,
marin-brewing-co,Marin Brewing Co,brewpub,1809 Larkspur Landing Cir,,,Larkspur,California,,94939-1801,http://www.marinbrewing.com,4154614677,2018-07-24 01:32:58,2018-08-23 23:59:27,United States,-122.5068874,37.9458177,
brewery-in-planning-fpo,Brewery In Planning - FPO,planning,,,,Lemon Grove,California,,91945,,,2018-07-24 01:32:53,2018-08-23 23:26:04,United States,-117.0314172,32.7425516,
bird-street-brewing,Bird Street Brewing,micro,242 Heinlen St,,,Lemoore,California,,93245-2947,http://www.birdstreetbrewing.com,5593094649,2018-07-24 01:32:53,2018-08-23 23:25:25,United States,-119.78471100000002,36.30146756,
shire-station-brewing-company,Shire Station Brewing Company,micro,12913 17th Ave,,,Lemoore,California,,93245-9485,http://www.shirestation.com,5592502797,2018-07-24 01:33:01,2018-08-11 21:36:21,United States,,,
dueling-dogs-brewing-company,Dueling Dogs Brewing Company,planning,,,,Lincoln,California,,95648-8503,http://www.duelingdogsbrewing.com,9164348141,2018-07-24 01:32:55,2018-08-23 23:27:40,United States,-121.29318,38.89157410000001,
goathouse-brewing-co,GoatHouse Brewing Co.,micro,600 Wise Rd,,,Lincoln,California,,95648-8518,http://www.goathousebrewing.com,9167409100,2018-07-24 01:32:56,2018-08-11 21:36:05,United States,,,
altamont-beer-works,Altamont Beer Works,micro,2402 Research Dr,,,Livermore,California,,94550-3850,http://www.altamontbeerworks.com,9254432337,2018-07-24 01:32:52,2018-08-23 23:24:17,United States,-121.72109740000002,37.67839114,
eight-bridges-brewing,Eight Bridges Brewing,micro,332 Earhart Way,,,Livermore,California,,94551-9309,http://www.eightbridgesbrewing.com,9259619160,2018-07-24 01:32:55,2018-08-23 23:27:54,United States,-121.8145893,37.69895004,
pennyweight-craft-brewing,Pennyweight Craft Brewing,planning,,,,Livermore,California,,94550,http://www.pennyweightbrew.com,5107541685,2018-07-24 01:32:59,2018-08-24 00:00:48,United States,-121.7680531,37.6820583,
sauced-bbq-and-spirits,Sauced BBQ & Spirits,contract,2300 1st St Ste 120,,,Livermore,California,,94550-3141,http://www.saucedbbqandspirits.com,9259611300,2018-07-24 01:33:01,2018-08-11 21:36:20,United States,,,
shadow-puppet-brewing-company,Shadow Puppet Brewing Company,brewpub,4771 Arroyo Vis Ste B,,,Livermore,California,,94551-4847,http://www.shadowpuppetbrewing.com,9254536498,2018-07-24 01:33:01,2018-08-11 21:36:21,United States,,,
working-man-brewing-co,Working Man Brewing Co,micro,5542 Brisa St Ste F,,,Livermore,California,,94550-2524,http://www.workingmanbrewing.com,9252699622,2018-07-24 01:33:03,2018-08-11 21:36:29,United States,,,
gridlock-brewing-co,Gridlock Brewing Co,contract,2659 Pickfair Lane,,,Livermore,California,,94551,http://www.gridlockbrewing.com,4088358794,2018-07-24 01:32:56,2018-08-23 23:29:02,United States,-121.7669791,37.69251772,
the-dancing-fox,The Dancing Fox,brewpub,203 S School St,,,Lodi,California,,95240-3511,http://www.dancingfoxwinery.com,2093662634,2018-07-24 01:33:02,2018-08-24 00:03:51,United States,-121.3878496,38.097198,
five-window-beer-co,Five Window Beer Co,micro,9 W Locust St,,,Lodi,California,,95240-2137,http://www.fivewindow.com,2097122336,2018-07-24 01:32:56,2018-08-23 23:28:32,United States,-121.29526,38.136971,
idol-beer-works,Idol Beer Works,micro,100 S Sacramento St,,,Lodi,California,,95240-3526,http://www.idolbeerworks.com,,2018-07-24 01:32:57,2018-08-23 23:29:45,United States,-121.2722,38.1328,
lodi-beer-company,Lodi Beer Company,brewpub,105 S School St,,,Lodi,California,,95240-3509,http://www.lodibeercompany.com,2093682964,2018-07-24 01:32:58,2018-08-23 23:59:05,United States,-121.2738676,38.13282339,
burnin-daylight-brewing-company,Burnin Daylight Brewing Company,planning,,,,Lomita,California,,90717,,3107417621,2018-07-24 01:32:53,2018-08-23 23:26:21,United States,-118.3195014,33.8036545,
solvang-brewing-company-lompoc,Solvang Brewing Company - Lompoc,brewpub,234 N H St,,,Lompoc,California,,93436-6022,http://www.solvangbrewing.com,9787292485,2018-07-24 01:33:01,2018-08-24 00:02:46,United States,-120.4574527,34.6419814,
long-beach-beer-lab,Long Beach Beer Lab,micro,518 W Willow St,,,Long Beach,California,,90806-2831,http://www.lbbeer.com,5623413659,2018-07-24 01:32:58,2018-08-23 23:59:07,United States,-118.2156232,33.8044209,
rock-bottom-brewery-long-beach,Rock Bottom Brewery - Long Beach,brewpub,1 Pine Ave,,,Long Beach,California,,90802-4759,http://www.rockbottom.com,5623082255,2018-07-24 01:33:00,2018-08-24 00:01:38,United States,-118.192482,33.767796999999995,
ambitious-ales,Ambitious Ales,planning,,,,Long Beach,California,,90807-2907,http://www.ambitiousales.com,7142962550,2018-07-24 01:32:52,2018-08-23 23:24:20,United States,-118.1580493,33.78538945,
beachwood-bbq-and-brewing,Beachwood BBQ & Brewing,brewpub,210 E 3rd St Ste A,,,Long Beach,California,,90802-3197,http://www.beachwoodbbq.com,5624364020,2018-07-24 01:32:52,2018-08-11 21:35:56,United States,,,
ballast-point-brewing-company,Ballast Point Brewing Company,large,110 N Marina Dr,,,Long Beach,California,,90803-4601,http://www.ballastpoint.com,8586952739,2018-07-24 01:32:52,2018-08-23 23:24:49,United States,-118.114751,33.7464176,
beachwood-blendery,Beachwood Blendery,micro,247 Long Beach Blvd,,,Long Beach,California,,90802-3136,http://beachwoodbbq.com/blendery.html,,2018-07-24 01:32:52,2018-08-23 23:25:07,United States,-118.1894715,33.77015096,
belmont-brewing-co,Belmont Brewing Co,brewpub,25 39th Pl,,,Long Beach,California,,90803-2806,http://www.belmontbrewing.com,5624333891,2018-07-24 01:32:52,2018-08-23 23:25:16,United States,-118.14804540000002,33.759551,
dutchs-brewhouse,Dutch's BrewHouse,brewpub,4244 Atlantic Ave,,,Long Beach,California,,90807-2802,http://dutchsbrewhouse.com,5623361326,2018-07-24 01:32:55,2018-08-23 23:27:45,United States,-118.1859647,33.8781951,
liberation-brewing,Liberation Brewing,micro,3630 Atlantic Ave,,,Long Beach,California,,90807,http://www.liberationbrewing.com,5623490133,2018-07-24 01:32:58,2018-08-23 23:58:59,United States,-118.1859647,33.8781951,
steady-brewing,Steady Brewing,micro,2936 Clark Ave,,,Long Beach,California,,90815,http://Www.steadybrewing.com,5623516793,2018-07-24 01:33:01,2018-08-24 00:03:08,United States,-118.133923,33.825078000000005,
loomis-basin-brewing-co,Loomis Basin Brewing Co,micro,3277 Swetzer Rd,,,Loomis,California,,95650-7607,http://www.loomisbasinbrewing.com,9162592739,2018-07-24 01:32:58,2018-08-23 23:59:09,United States,-121.1916448,38.83182018,
brewery-in-planning-los-angeles,Brewery in Planning - Los Angeles,planning,,,,Los Angeles,California,,90049-1620,,3107796045,2018-07-24 01:32:53,2018-08-23 23:26:04,United States,-118.2427669,34.0536834,
dry-river-brewing,Dry River Brewing,micro,671 S Anderson St,,,Los Angeles,California,,90023-1110,http://www.dryriverbrewing.com,2133755235,2018-07-24 01:32:55,2018-08-23 23:27:38,United States,-118.2233015,34.03638739,
iron-triangle-brewing-company,Iron Triangle Brewing Company,micro,1581 Industrial St,,,Los Angeles,California,,90021-1217,http://www.irontrianglebrewing.com,3109905702,2018-07-24 01:32:57,2018-08-23 23:30:00,United States,-118.2373618,34.03612189,
6th-and-la-brea,6th and La Brea,brewpub,600 South La Brea Ave,,,Los Angeles,California,,90036,http://www.6thlabrea.com,,2018-07-24 01:32:51,2018-08-23 23:23:54,United States,-118.3440213,34.0730485,
angel-city-brewery,Angel City Brewery,micro,216 S Alameda St,,,Los Angeles,California,,90012-4201,http://www.angelcitybrewery.com,2136221261,2018-07-24 01:32:52,2018-08-23 23:24:27,United States,-118.237715,34.04627065,
arts-district-brewing-company,Arts District Brewing Company,brewpub,828 Traction Ave,,,Los Angeles,California,,90013-1816,,,2018-07-24 01:32:52,2018-08-23 23:24:40,United States,-118.2357029,34.04505443,
bonaventure-brewing-co,Bonaventure Brewing Co,brewpub,404 S Figueroa St Ste 418A,,,Los Angeles,California,,90071-1797,http://www.bonaventurebrewing.com,2132360802,2018-07-24 01:32:53,2018-08-11 21:35:57,United States,,,
boomtown-brewery,Boomtown Brewery,micro,700 Jackson St,,,Los Angeles,California,,90012-3443,http://www.boomtownbrew.com,2136178497,2018-07-24 01:32:53,2018-08-23 23:25:44,United States,-118.233179,34.0507711,
eagle-rock-brewery,Eagle Rock Brewery,micro,3056 Roswell St,,,Los Angeles,California,,90065-2214,http://www.eaglerockbrewery.com,3232577866,2018-07-24 01:32:55,2018-08-23 23:27:48,United States,-118.2440377,34.11473143,
frogtown-brewery,Frogtown Brewery,micro,2931 Gilroy St,,,Los Angeles,California,,90039-2817,http://www.frogtownbrewery.com,3234522739,2018-07-24 01:32:56,2018-08-23 23:28:41,United States,-118.2515209,34.10656552,
golden-road-brewing,Golden Road Brewing,large,5430 W San Fernando Rd,,,Los Angeles,California,,90039-1015,http://www.goldenroad.la,2135426039,2018-07-24 01:32:56,2018-08-11 21:36:05,United States,,,
indie-brewing-company,Indie Brewing Company,micro,2301 E 7th St Ste C100 Ste C100,,,Los Angeles,California,,90023-1036,http://indiebrewco.com,3233544285,2018-07-24 01:32:57,2018-08-11 21:36:08,United States,,,
highland-park-brewery,Highland Park Brewery,micro,5125 York Blvd,,,Los Angeles,California,,90042,http://www.hpb.la,4255011255,2018-07-24 01:32:56,2018-08-23 23:29:24,United States,-118.1807106,34.1141508,
highland-park-brewery,Highland Park Brewery,brewpub,1229 N Spring St,,,Los Angeles,California,,90012,,3237396459,2018-07-24 01:32:56,2018-08-23 23:29:24,United States,-118.2339922,34.06593582,
karl-strauss-brewing-co-downtown-los-angeles,Karl Strauss Brewing Co - Downtown Los Angeles,brewpub,600 Wilshire Blvd Ste 100,,,Los Angeles,California,,90017-3212,,2132282739,2018-07-24 01:32:57,2018-08-23 23:58:23,United States,-118.256154,34.047978,
lawless-brewing,Lawless Brewing,planning,,,,Los Angeles,California,,90068-1436,http://www.lawlessbeer.com,8184567345,2018-07-24 01:32:58,2018-08-23 23:58:52,United States,-118.2427669,34.0536834,
mbf-brewing-co,MBF Brewing Co,contract,530 W 7th St Apt 401,,,Los Angeles,California,,90014-2507,http://www.MBFcompany.com,8315217921,2018-07-24 01:32:58,2018-08-11 21:36:13,United States,,,
mumford-brewing-company,Mumford Brewing Company,micro,416 Boyd St,,,Los Angeles,California,,90013-1631,http://www.mumfordbrewing.com,6263759353,2018-07-24 01:32:59,2018-08-23 23:59:54,United States,-118.2425998,34.046418100000004,
ohana-brewing-co,Ohana Brewing Co,micro,1756 E 23rd St,,,Los Angeles,California,,90058-1012,http://www.ohanabrew.com,6262822337,2018-07-24 01:32:59,2018-08-24 00:00:24,United States,-118.2415609,34.01575629,
reel-brew-co,Reel Brew Co.,contract,Â 7037 Laurel Canyon Boulevard,,,Los Angeles,California,,91605,,,2018-07-24 01:33:00,2018-08-11 21:36:17,United States,,,
solarc-brewing,Solarc Brewing,contract,134 S Avenue 57,,,Los Angeles,California,,90042-4702,http://www.solarcbrewing.com,6319442990,2018-07-24 01:33:01,2018-08-11 21:36:21,United States,,,
the-stalking-horse,The Stalking Horse,brewpub,10543 West Pico Blvd,,,Los Angeles,California,,90064,http://www.thestalkinghorsepub.com,4248327511,2018-07-24 01:33:02,2018-08-24 00:03:58,United States,-118.3273271,34.047878600000004,
wiretap-brewing-corporation,Wiretap Brewing Corporation,micro,341B South Avenue 17,,,Los Angeles,California,,90031,http://www.wiretapbrewing.com,,2018-07-24 01:33:03,2018-08-24 00:04:57,United States,-118.2220376,34.06852346,
einstok-beer-company,Einstok Beer Company,contract,12910 Culver Blvd Ste D,,,Los Angeles,California,,90066-6788,http://einstokbeer.com,4242181168,2018-07-24 01:32:55,2018-08-11 21:36:03,United States,,,
paraiso-brewery,Paraiso Brewery,micro,80 W G St,,,Los Banos,California,,93635-3659,http://paraisobrewery.com,2098552337,2018-07-24 01:32:59,2018-08-11 21:36:16,United States,,,
brewery-in-planning-los-gatos,Brewery in Planning - Los Gatos,planning,,,,Los Gatos,California,,95033-8034,,,2018-07-24 01:32:53,2018-08-23 23:26:05,United States,-121.9746797,37.226611,
loma-brewing-company,Loma Brewing Company,brewpub,130 N Santa Cruz Ave Ste G,,,Los Gatos,California,,95030-5949,http://www.lomabrew.com,4085609626,2018-07-24 01:32:58,2018-08-11 21:36:12,United States,,,
soquel-fermentation-project,Soquel Fermentation Project,micro,,,,Los Gatos,California,,95033,http://facebook.com/Soquel-Fermentation-Project-1661153424004618/,,2018-07-24 01:33:01,2018-08-24 00:02:49,United States,-121.9746797,37.226611,
rileys-brewing-co,Riley's Brewing Co,micro,28777 Avenue 15 1/2,,,Madera,California,,93638-2316,http://www.rileysbrewing.us,5596738021,2018-07-24 01:33:00,2018-08-24 00:01:30,United States,-120.0206226,36.97445553,
second-son-brews,Second Son Brews,micro,12810 Road 38,,,Madera,California,,93636-8671,,,2018-07-24 01:33:01,2018-08-24 00:02:18,United States,-119.8580965,36.93416059,
three-monkeys-brewing-co,Three Monkeys Brewing Co,contract,455 S Pine St Ste 3,,,Madera,California,,93637-5242,http://www.3monkeysbrewing.com,5593632709,2018-07-24 01:33:02,2018-08-11 21:36:25,United States,,,
feather-river-brewing-co,Feather River Brewing Co,micro,14665 Forest Ridge Rd,,,Magalia,California,,95954-0443,http://www.featherriverbrewing.com,5308730734,2018-07-24 01:32:55,2018-08-23 23:28:16,United States,-121.5777621,39.84088592,
black-doubt-brewing-company,Black Doubt Brewing Company,micro,"452 Old Mammoth Rd, #104",,,Mammoth Lakes,California,,93546,http://www.blackdoubtbrewing.com,7605250462,2018-07-24 01:32:53,2018-08-23 23:25:31,United States,-118.9668019,37.63958820000001,
mammoth-brewing-company,Mammoth Brewing Company,micro,18 Lake Manor Pl,,,Mammoth Lakes,California,,93546,http://www.mammothbrewingco.com,7609347141,2018-07-24 01:32:58,2018-08-11 21:36:13,United States,,,
firestone-walker-brewing-co,Firestone Walker Brewing Co,brewpub,3205 Washington Blvd,,,Marina del Rey,California,,90292-5552,,3104398264,2018-07-24 01:32:56,2018-08-11 21:36:04,United States,,,
english-ales-brewery,English Ales Brewery,micro,223 Reindollar Ave Ste A,,,Marina,California,,93933-3851,http://www.englishalesbrewery.com,8318833000,2018-07-24 01:32:55,2018-08-11 21:36:03,United States,,,
1850-brewing-company,1850 Brewing Company,micro,,,,Mariposa,California,,95338,http://www.1850restaurant.com,,2018-07-24 01:32:51,2018-08-23 23:23:44,United States,-119.9036592,37.570148,
bridal-veil-brewing,Bridal Veil Brewing,micro,5040 Ca-140 Ste C,,,Mariposa,California,,95338,http://www.facebook.com/Bridal-Veil-Brewing-114925729113371,2099667837,2018-07-24 01:32:53,2018-08-11 21:35:58,United States,,,
del-cielo-brewing-co,Del Cielo Brewing Co.,micro,701 Escobar St Ste A,,,Martinez,California,,94553-1150,http://www.delcielobrewing.com,9253301229,2018-07-24 01:32:54,2018-08-11 21:36:01,United States,,,
five-suns-brewing,Five Suns Brewing,micro,701 Escobar St Ste C,,,Martinez,California,,94553,http://www.fivesunsbrewing.com,9259576706,2018-07-24 01:32:56,2018-08-11 21:36:04,United States,,,
rocksteady-brewing-co,Rocksteady Brewing Co.,brewpub,611 Escobar St,,,Martinez,California,,94553-1111,http://www.creekmonkey.com,9252288787,2018-07-24 01:33:00,2018-08-24 00:01:40,United States,-122.1378119,38.0177998,
siskiyou-brew-works,Siskiyou Brew Works,brewpub,110 Squawvalley Rd,,,Mccloud,California,,96057,http://www.siskiyoubrewworks.com,5309255894,2018-07-24 01:33:01,2018-08-11 21:36:21,United States,,,
humboldt-regeneration,Humboldt Regeneration,micro,2320 Central Ave Ste F,,,McKinleyville,California,,95519-3682,http://www.humboldtregeneration.com,7077388225,2018-07-24 01:32:57,2018-08-11 21:36:07,United States,,,
six-rivers-brewery,Six Rivers Brewery,brewpub,1300 Central Ave,,,McKinleyville,California,,95519-6429,,,2018-07-24 01:33:01,2018-08-24 00:02:33,United States,-124.1003888,40.926064200000006,
the-mason-jar-brewing-company,The Mason Jar Brewing Company,micro,29683 New Hub Dr Ste A,,,Menifee,California,,92586-6545,http://www.masonjarbrewing.com,9512445277,2018-07-24 01:33:02,2018-08-11 21:36:25,United States,,,
headlands-brewing-company,Headlands Brewing Company,proprietor,,,,Mill Valley,California,,94941-2003,http://www.headlandsbrewing.com,4158604226,2018-07-24 01:32:56,2018-08-23 23:29:15,United States,-122.5449763,37.9060368,
mill-valley-beer-works,Mill Valley Beer Works,brewpub,173 Throckmorton Ave,,,Mill Valley,California,,94941-1909,http://www.millvalleybeerworks.com,,2018-07-24 01:32:58,2018-08-23 23:59:33,United States,-122.5493619,37.9053888,
hop-secret-brewing-co,Hop Secret Brewing Co,micro,162 W Pomona Ave,,,Monrovia,California,,91016-4558,http://www.hopsecretbrewing.com,,2018-07-24 01:32:57,2018-08-23 23:29:33,United States,-118.001973,34.134155,
trader-joes-west-coast-office,Trader Joes - West Coast Office,contract,800 S. Shamrock Ave,,,Monrovia,California,,91016,,6265993700,2018-07-24 01:33:03,2018-08-11 21:36:26,United States,,,
pacific-plate-brewing-co,Pacific Plate Brewing Co,micro,1999 S Myrtle Ave,,,Monrovia,California,,91016-4854,http://www.pacificplatebrewing.com,6262398456,2018-07-24 01:32:59,2018-08-24 00:00:41,United States,-118.0010497,34.1492456,
brewery-in-planning-montclair,Brewery in Planning - Montclair,planning,,,,Montclair,California,,91763-1589,,,2018-07-24 01:32:53,2018-08-23 23:26:05,United States,-117.6897776,34.0775104,
dragons-tale-brewery,Dragon's Tale Brewery,micro,8920 Vernon Ave Ste 122,,,Montclair,California,,91763-1662,http://www.dragonstalebrewery.com,9095292688,2018-07-24 01:32:55,2018-08-23 23:27:34,United States,-117.686437,34.09189898,
angry-horse-brewing,Angry Horse Brewing,micro,603 W Whittier Blvd,,,Montebello,California,,90640-5235,http://angryhorsebrewing.com,3235300015,2018-07-24 01:32:52,2018-08-23 23:24:28,United States,-118.1003743,34.0084152,
alvarado-street-brewery-and-grill,Alvarado Street Brewery & Grill,brewpub,426 Alvarado St,,,Monterey,California,,93940-2711,,8316552337,2018-07-24 01:32:52,2018-08-23 23:24:19,United States,-121.8946096,36.59857755,
peter-bs-brewpub,Peter B's Brewpub,brewpub,2 Portola Plz Behind The Portola Hotel,,,Monterey,California,,93940-2419,http://www.peterbsbrewpub.com,8316492699,2018-07-24 01:32:59,2018-08-11 21:36:16,United States,,,
enegren-brewing-co,Enegren Brewing Co,micro,444 Zachary St Unit 120,,,Moorpark,California,,93021-2073,http://www.enegrenbrewing.com,8055520602,2018-07-24 01:32:55,2018-08-11 21:36:03,United States,,,
canyon-club-brewery,Canyon Club Brewery,planning,,,,Moraga,California,,94556,http://www.canyonclub.works,8087992005,2018-07-24 01:32:54,2018-08-23 23:26:27,United States,-122.12883,37.834897,
el-toro-brewing-company-brewpub,El Toro Brewing Company Brewpub,brewpub,17605 Monterey Rd,,,Morgan Hill,California,,95037-3620,,,2018-07-24 01:32:55,2018-08-23 23:27:58,United States,-121.7082244,37.1864644,
three-stacks-and-a-rock-brewing-co,Three Stacks and A Rock Brewing Co,brewpub,3118 Main St Ste D,,,Morro Bay,California,,93442-1346,http://threestacksandarockbrewing.com,8057719286,2018-07-24 01:33:02,2018-08-11 21:36:25,United States,,,
palo-alto-brewing-co,Palo Alto Brewing Co,contract,1080B La Avenida St,,,Mountain View,California,,94043-1422,http://www.paloaltobrewing.com,,2018-07-24 01:32:59,2018-08-24 00:00:43,United States,-122.0717657,37.41326789,
tied-house-cafe-and-brewery-mtn-view,Tied House Cafe and Brewery-Mtn View,brewpub,954 Villa St,,,Mountain View,California,,94041-1236,http://www.tiedhouse.com,6509652739,2018-07-24 01:33:02,2018-08-24 00:04:12,United States,-122.0806432,37.3946092,
gbc,GBC,micro,26015 Jefferson Ave Ste D,,,Murrieta,California,,92562-6985,,,2018-07-24 01:32:56,2018-08-11 21:36:05,United States,,,
electric-brewing-co,Electric Brewing Co,micro,41537 Cherry St,,,Murrieta,California,,92562-9193,http://www.electricbrewingcompany.com,9516962266,2018-07-24 01:32:55,2018-08-23 23:27:58,United States,-117.172438,33.5268827,
garage-brewing-company,Garage Brewing Company,micro,26015 Jefferson Ave. Ste D,,,Murrieta,California,,92562,http://www.garagebrewco.com,9516001945,2018-07-24 01:32:56,2018-08-11 21:36:05,United States,,,
inland-wharf-brewing-company,Inland Wharf Brewing Company,micro,26440 Jefferson Ave Ste A,,,Murrieta,California,,92562-6951,http://www.inlandwharfbrewing.com,9516967999,2018-07-24 01:32:57,2018-08-11 21:36:08,United States,,,
8-bit-brewing-company,8 Bit Brewing Company,brewpub,26755 Jefferson Ave Ste F,,,Murrieta,California,,92562-6941,http://www.8bitbrewerycompany.com,9516772322,2018-07-24 01:32:51,2018-08-11 21:35:53,United States,,,
downtown-joes-brewery-and-restaurant,Downtown Joes Brewery and Restaurant,brewpub,902 Main St,,,Napa,California,,94559-3045,http://www.downtownjoes.com,7072582337,2018-07-24 01:32:55,2018-08-23 23:27:32,United States,-122.2848936,38.29865653,
hop-creek-pub,Hop Creek Pub,brewpub,3253 Browns Valley Rd,,,Napa,California,,94558-5424,http://www.hopcreekpub.com,7072577708,2018-07-24 01:32:57,2018-08-23 23:29:31,United States,-122.328868,38.3041333,
napa-palisades-beer-company,Napa Palisades Beer Company,proprietor,1000 Main St,,,Napa,California,,94559-2645,http://www.napapalisadesbeer.com,7072961552,2018-07-24 01:32:59,2018-08-23 23:59:55,United States,-122.285449,38.299359,
silos,Silo's,brewpub,530 Main St,,,Napa,California,,94559-3378,http://www.silosnapa.com,7072515833,2018-07-24 01:33:01,2018-08-24 00:02:30,United States,-122.2828832,38.29617,
stone-brewing-napa,Stone Brewing Napa,brewpub,920-930 Third Street,,,Napa,California,,94559,,7602947899,2018-07-24 01:33:01,2018-08-11 21:36:23,United States,,,
tannery-bend-beerworks,Tannery Bend Beerworks,brewpub,101 South Coombs Street Suite X,,,Napa,California,,94559,http://www.tannerybendbeerworks.com,7076815774,2018-07-24 01:33:02,2018-08-11 21:36:24,United States,,,
st-clair-brown-winery-and-brewery,St Clair Brown Winery & Brewery,micro,816 Vallejo St,,,Napa,California,,94559,http://www.stclairbrownwinery.com,7072555591,2018-07-24 01:33:01,2018-08-24 00:02:58,United States,-122.286082,38.30487700000001,
tarla-mediterranean-bar-and-grill,Tarla Mediterranean Bar and Grill,brewpub,1480 1st St,,,Napa,California,,94559-2843,http://www.tarlagrill.com,7072555599,2018-07-24 01:33:02,2018-08-24 00:03:40,United States,-122.289765,38.29719738,
the-runway-by-patrick,The Runway By Patrick,brewpub,2044 Airport Rd,,,Napa,California,,94558-6208,http://www.therunwaybypatrick.com,7072586115,2018-07-24 01:33:02,2018-08-24 00:03:56,United States,-122.2730244,38.2171014,
trade-brewing,Trade Brewing,micro,731 1st St,,,Napa,California,,94559-2624,http://www.tradebrewing.com,7074928223,2018-07-24 01:33:03,2018-08-24 00:04:24,United States,-122.2821838,38.30073396,
ol-republic-brewery,Ol' Republic Brewery,micro,124 Argall Way,,,Nevada City,California,,95959-3002,http://www.olrepublicbrewery.com,5302647263,2018-07-24 01:32:59,2018-08-24 00:00:24,United States,-121.0244602,39.25272303,
three-forks-bakery-and-brewing-company,Three Forks Bakery & Brewing Company,brewpub,211 Commercial St,,,Nevada City,California,,95959-2506,http://threeforksnc.com,5304708333,2018-07-24 01:33:02,2018-08-24 00:04:06,United States,-121.017467,39.26299798,
brewery-draconum,Brewery Draconum,micro,24407 Main St # 09,,,Newhall,California,,91321-2801,,6619931846,2018-07-24 01:32:53,2018-08-23 23:26:00,United States,-118.5298732,34.38122051,
newport-beach-brewing-co,Newport Beach Brewing Co,brewpub,2920 Newport Blvd Frnt,,,Newport Beach,California,,92663-3758,http://www.nbbrewco.com,9496758449,2018-07-24 01:32:59,2018-08-11 21:36:14,United States,,,
sons-of-liberty-aleworks,Sons of Liberty Aleworks,micro,1780 Town and Country Dr Ste 101,,,Norco,California,,92860-3618,http://www.solaleworks.com,9514035122,2018-07-24 01:33:01,2018-08-24 00:02:49,United States,-117.5597542,33.92778920000001,
indian-valley-brewing,Indian Valley Brewing,micro,14 Commercial Blvd Ste 125,,,Novato,California,,94949-6110,http://www.indianvalleybrewing.com,4153014983,2018-07-24 01:32:57,2018-08-23 23:29:50,United States,-122.5350144,38.06828367,
adobe-creek-brewing-company,Adobe Creek Brewing Company,micro,67 Galli Dr Ste E,,,Novato,California,,94949-5718,http://www.adobecreekbrewing.com,4155064565,2018-07-24 01:32:51,2018-08-11 21:35:54,United States,,,
moylans-brewery-and-restaurant,Moylan's Brewery & Restaurant,brewpub,15 Rowland Way,,,Novato,California,,94945-5001,http://www.moylans.com,4158984677,2018-07-24 01:32:59,2018-08-23 23:59:51,United States,-122.5570548,38.09448604,
trail-dog-brewing-co,Trail Dog Brewing Co.,planning,,,,Novato,California,,94945-3318,http://traildogbrewing.com,4157580411,2018-07-24 01:33:03,2018-08-24 00:04:25,United States,-122.5681191,38.1061979,
last-call-brewing-company,Last Call Brewing Company,micro,944 Shepard Ct Ste C,,,Oakdale,California,,95361-7785,http://www.lastcallbrewing.com,8885125592,2018-07-24 01:32:58,2018-08-11 21:36:11,United States,,,
south-gate-brewing-co,South Gate Brewing Co,brewpub,40233 Enterprise Dr,,,Oakhurst,California,,93644-8839,http://www.southgatebrewco.com,8582321737,2018-07-24 01:33:01,2018-08-24 00:02:51,United States,-119.6618038,37.33172774,
woods-bar-and-brewery,Woods Bar & Brewery,brewpub,1701 Telegraph Ave,,,Oakland,California,,94612-2107,http://www.woodsbeer.com,4155091695,2018-07-24 01:33:03,2018-08-24 00:05:01,United States,-122.2704253,37.8069575,
ale-industries,Ale Industries,micro,3096 E 10th St,,,Oakland,California,,94601-2960,http://www.aleindustries.com,9254705280,2018-07-24 01:32:51,2018-08-23 23:24:08,United States,-122.22818970000002,37.7761111,
brewery-in-planning-oakland,Brewery in Planning - Oakland,planning,,,,Oakland,California,,94611-5570,,,2018-07-24 01:32:53,2018-08-23 23:26:06,United States,-122.2713563,37.80445570000001,
diving-dog-brewhouse,Diving Dog Brewhouse,micro,1802 Telegraph Ave,,,Oakland,California,,94612-2110,http://www.divingdogbrew.com,5103061914,2018-07-24 01:32:54,2018-08-23 23:27:26,United States,-122.2698881,37.807739,
federation-brewing,Federation Brewing,micro,420 3rd St Unit A,,,Oakland,California,,94607-3809,http://www.federationbrewing.com,,2018-07-24 01:32:55,2018-08-11 21:36:03,United States,,,
ghost-town-brewing,Ghost Town Brewing,micro,1960 Adeline St,,,Oakland,California,,94607-2300,http://www.ghosttownbrewing.com,5109266728,2018-07-24 01:32:56,2018-08-23 23:28:46,United States,-122.2844396,37.81391748,
independent-brewing-co,Independent Brewing Co,micro,444 Harrison St,,,Oakland,California,,94607-4118,,,2018-07-24 01:32:57,2018-08-23 23:29:48,United States,-122.27118529999998,37.7964297,
old-kan-beer-and-co,Old Kan Beer & Co,brewpub,95 Linden St,,,Oakland,California,,94607-2510,http://www.old-kan.com,5103383965,2018-07-24 01:32:59,2018-08-24 00:00:29,United States,-122.2879928,37.7995945,
original-pattern-brewing-company,Original Pattern Brewing Company,micro,292 4th St,,,Oakland,California,,94607-4332,http://www.originalpatternbeer.com,5108444833,2018-07-24 01:32:59,2018-08-24 00:00:34,United States,-122.2718245,37.796075,
roses-taproom,Roses' Taproom,micro,4930 Telegraph Ave,,,Oakland,California,,94609-2012,http://www.rosestaproom.com,5108583969,2018-07-24 01:33:00,2018-08-24 00:01:44,United States,-122.2683709,37.8143551,
tack-brewing,Tack Brewing,planning,,,,Oakland,California,,94618-1534,http://www.tackbrewing.com,8054044861,2018-07-24 01:33:02,2018-08-24 00:03:30,United States,-122.2713563,37.80445570000001,
temescal-brewing,Temescal Brewing,micro,4115 Telegraph Ave,,,Oakland,California,,94609-2405,http://www.temescalbrewing.com,5108995628,2018-07-24 01:33:02,2018-08-24 00:03:44,United States,-122.2645038,37.8303644,
woods-beer-company,Woods Beer Company,brewpub,1701 Telegraph Ave,,,Oakland,California,,94612-2107,http://woodsbeer.com,4158149212,2018-07-24 01:33:03,2018-08-24 00:05:02,United States,-122.2704253,37.8069575,
dark-sea-cinema-and-brewery,Dark Sea Cinema And Brewery,planning,,,,Oakland,California,,94609-1804,http://microcinemabrewery.com,,2018-07-24 01:32:54,2018-08-23 23:27:12,United States,-122.2713563,37.80445570000001,
oakland-united-beerworks,Oakland United Beerworks,micro,3775 Alameda Ave Ste G,,,Oakland,California,,94601-3920,http://www.oaklandunitedbeerworks.com,5102518898,2018-07-24 01:32:59,2018-08-11 21:36:15,United States,,,
novel-brewing-company,Novel Brewing Company,micro,6510 San Pablo Ave,,,Oakland,California,,94608-1236,http://novelbrewing.com,5109229974,2018-07-24 01:32:59,2018-08-24 00:00:10,United States,-122.282003,37.837819,
oceanside-brewing-company,Oceanside Brewing Company,micro,312 Via Del Norte,,,Oceanside,California,,92058-1232,http://www.oceansidebrewingco.com,7604537900,2018-07-24 01:32:59,2018-08-24 00:00:16,United States,-117.3529573,33.21369735,
bagby-beer-company,Bagby Beer Company,brewpub,601 S Coast Hwy,,,Oceanside,California,,92054-4120,http://www.bagbybeer.com,7602709075,2018-07-24 01:32:52,2018-08-23 23:24:47,United States,-117.373847,33.189591,
belching-beaver-brewery,Belching Beaver Brewery,regional,1334 Rocky Point Dr,,,Oceanside,California,,92056-5864,,7607321415,2018-07-24 01:32:52,2018-08-23 23:25:13,United States,-117.292416,33.213927500000004,
breakwater-brewing-co,Breakwater Brewing Co,brewpub,101 N Coast Hwy Ste C140,,,Oceanside,California,,92054-3015,http://www.breakwaterbrewing.com,7604336064,2018-07-24 01:32:53,2018-08-11 21:35:57,United States,,,
black-plague-brewing,Black Plague Brewing,micro,2550 Jason Ct,,,Oceanside,California,,92056-3592,http://www.blackplaguebrewing.com,7602072949,2018-07-24 01:32:53,2018-08-23 23:25:35,United States,-117.266825,33.215571000000004,
horus-aged-ales,Horus Aged Ales,micro,4040 Calle Platino Ste 120,,,Oceanside,California,,92056-5859,http://www.horusbeer.com,3103475685,2018-07-24 01:32:57,2018-08-11 21:36:07,United States,,,
legacy-brewing-company,Legacy Brewing Company,micro,363 Airport Rd,,,Oceanside,California,,92058-1203,http://www.legacybrewingco.com,7607053221,2018-07-24 01:32:58,2018-08-23 23:58:55,United States,-117.3501687,33.21546892,
mason-ale-works,Mason Ale Works,micro,2002 S Coast Hwy,,,Oceanside,California,,92054-6535,http://www.masonaleworks.com,8583958809,2018-07-24 01:32:58,2018-08-23 23:59:28,United States,-117.358767,33.171842,
oceanside-ale-works,Oceanside Ale Works,micro,1800 Ord Way,,,Oceanside,California,,92056-1502,http://www.oceansidealeworks.net,7607214253,2018-07-24 01:32:59,2018-08-11 21:36:15,United States,,,
northern-pine-brewing,Northern Pine Brewing,micro,326 N Horne St,,,Oceanside,California,,92054-2810,http://www.northernpinebrewing.com,7607541434,2018-07-24 01:32:59,2018-08-24 00:00:09,United States,-117.376798,33.199836,
midnight-jack-brewing-company,Midnight Jack Brewing Company,micro,3801 Oceanic Dr Ste 101,,,Oceanside,California,,92056-5850,http://www.midnightjackbrewing.com,7606379679,2018-07-24 01:32:58,2018-08-23 23:59:29,United States,-117.30473700000002,33.204836,
strum-brewing-company,Strum Brewing Company,micro,235 S Campus Ave,,,Ontario,California,,91761-1736,http://www.strumbrewing.com,9096786935,2018-07-24 01:33:02,2018-08-24 00:03:19,United States,-117.64125049999998,34.06156086,
chino-valley-brewery,Chino Valley Brewery,micro,"1609 E. Grove Ave, Unit 109",,,Ontario,California,,91761-5786,http://www.chinovalleybrewery.com,9512917117,2018-07-24 01:32:54,2018-08-11 21:35:59,United States,,,
berts-brewing-co,Berts Brewing Co.,planning,,,,Orange,California,,92867-6942,,2069139711,2018-07-24 01:32:52,2018-08-23 23:25:19,United States,-117.8704931,33.750037799999994,
black-cock-brewing-company,Black Cock Brewing Company,micro,1444 N Batavia St,,,Orange,California,,92867-3505,,7147448410,2018-07-24 01:32:53,2018-08-23 23:25:30,United States,-117.86200259999998,33.8274902,
chapman-crafted-beer,Chapman Crafted Beer,micro,123 N Cypress St,,,Orange,California,,92866-1309,http://www.chapmancrafted.beer,8448552337,2018-07-24 01:32:54,2018-08-23 23:26:39,United States,-117.856454,33.788493,
green-cheek-beer-company,Green Cheek Beer Company,micro,2294 N Batavia St Ste C,,,Orange,California,,92865-3108,,7149988172,2018-07-24 01:32:56,2018-08-11 21:36:05,United States,,,
naughty-oak-brewing-company,Naughty Oak Brewing Company,micro,165 S Broadway St Ste 102,,,Orcutt,California,,93455-4627,http://www.naughtyoak.com,8052879663,2018-07-24 01:32:59,2018-08-11 21:36:14,United States,,,
feather-falls-brewing-co,Feather Falls Brewing Co,brewpub,3 Alverda Dr,,,Oroville,California,,95966-9379,http://www.featherfallscasino.com,5305344059,2018-07-24 01:32:55,2018-08-23 23:28:15,United States,-121.521407,39.46576,
mineras-alley-brewing-company,Minerâs Alley Brewing Company,brewpub,2053 Montgomery St,,,Oroville,California,,95965-4947,http://www.minersalleybrewingco.com,5306934388,2018-07-24 01:32:58,2018-08-23 23:59:35,United States,-121.55497920000002,39.51414912,
casa-agria-specialty-ales,Casa Agria Specialty Ales,proprietor,701 del Norte Blvd Ste 310,,,Oxnard,California,,93030-7980,,8054851454,2018-07-24 01:32:54,2018-08-11 21:35:59,United States,,,
red-tandem-brewery,Red Tandem Brewery,micro,1009 Harbor Blvd,,,Oxnard,California,,93035-1131,http://www.redtandembrewery.com,8058324023,2018-07-24 01:33:00,2018-08-24 00:01:19,United States,-119.2474328,34.2068743,
transmission-brewing-company,Transmission Brewing Company,planning,,,,Oxnard,California,,93030-8231,http://jonkercarey@gmail.com,8054076133,2018-07-24 01:33:03,2018-08-24 00:04:26,United States,-119.1803818,34.1976308,
craft-artisan-ales,Craft Artisan Ales,contract,,,,Pacific Grove,California,,93950-7093,,8317177543,2018-07-24 01:32:54,2018-08-23 23:27:05,United States,-121.9155906,36.6174432,
pedro-point-brewing,Pedro Point Brewing,micro,55A Bill Drake Way,,,Pacifica,California,,94044,http://www.pedropointbrewing.com,6502889149,2018-07-24 01:32:59,2018-08-24 00:00:48,United States,-122.4910217,37.65116158,
la-quinta-brewing-co,La Quinta Brewing Co,micro,77917 Wildcat Dr,,,Palm Desert,California,,92211-1159,http://www.laquintabrewing.com,7602002597,2018-07-24 01:32:57,2018-08-11 21:36:11,United States,,,
lucky-luke-brewing-company,Lucky Luke Brewing Company,micro,610 W Avenue O Ste 104,,,Palmdale,California,,93551-3610,http://www.luckylukebrewing.com,6612705588,2018-07-24 01:32:58,2018-08-11 21:36:13,United States,,,
transplants-brewing-company,Transplants Brewing Company,micro,40242 La Quinta Ln Ste 101,,,Palmdale,California,,93551-3630,http://www.transplantsbrewing.com,6612667911,2018-07-24 01:33:03,2018-08-11 21:36:26,United States,,,
craftsman-brewing-co,Craftsman Brewing Co,micro,1260 Lincoln Ave Ste 100,,,Pasadena,California,,91103-2465,http://www.craftsmanbrewing.com,6262962537,2018-07-24 01:32:54,2018-08-23 23:27:07,United States,-118.1595567,34.1674435,
cerveceria-del-pueblo,Cerveceria Del Pueblo,planning,,,,Pasadena,California,,91105-1822,,,2018-07-24 01:32:54,2018-08-23 23:26:37,United States,-118.1444779,34.14764520000001,
dr-jekylls-craft-beer,Dr Jekyll's Craft Beer,contract,825 Cambridge Ct,,,Pasadena,California,,91107-1977,http://www.drjekylls.com,3102738339,2018-07-24 01:32:55,2018-08-23 23:27:33,United States,-118.0798642,34.16059077,
first-water-brewing-company,First Water Brewing Company,planning,,,,Pasadena,California,,91106-1420,http://firstwaterbrewing.com,,2018-07-24 01:32:56,2018-08-23 23:28:29,United States,-118.1444779,34.14764520000001,
barrelhouse-brewing,Barrelhouse Brewing,micro,3055 Limestone Way,,,Paso Robles,California,,93446-5988,http://www.barrelhousebrewing.com,8052961128,2018-07-24 01:32:52,2018-08-11 21:35:56,United States,,,
converge-brewing-company,Converge Brewing Company,planning,,,,Paso Robles,California,,93446-8360,,3076908538,2018-07-24 01:32:54,2018-08-23 23:26:57,United States,-120.6912456,35.6267654,
firestone-walker-brewing-co,Firestone Walker Brewing Co,regional,1400 Ramada Dr,,,Paso Robles,California,,93446-3993,http://www.firestonebeer.com,8052255911,2018-07-24 01:32:56,2018-08-11 21:36:04,United States,,,
silva-brewing,Silva Brewing,micro,525 Pine St Ste B,,,Paso Robles,California,,93446-3185,http://www.silvabrewing.com,8053692337,2018-07-24 01:33:01,2018-08-11 21:36:21,United States,,,
toro-creek-brewing-co,Toro Creek Brewing Co,micro,"1111 Riverside Ave, Ste 103",,,Paso Robles,California,,93446,http://www.torocreekbrewingcompany.com,8055507007,2018-07-24 01:33:02,2018-08-24 00:04:18,United States,-120.6872603,35.6262455,
earth-and-fire-brewing-company,Earth And Fire Brewing Company,micro,825 Riverside Ave Ste 1,,,Paso Robles,California,,93446-2660,http://Www.earthandfirebrewing.com,8052702959,2018-07-24 01:32:55,2018-08-11 21:36:02,United States,,,
highway-1-brewing-company,Highway 1 Brewing Company,brewpub,5720 Cabrillo Hwy,,,Pescadero,California,,94060-9725,http://www.highway1brewing.com,6508799243,2018-07-24 01:32:56,2018-08-23 23:29:25,United States,-122.411815,37.229747,
101-north-brewing-company,101 North Brewing Company,micro,1304 Scott St Ste D,,,Petaluma,California,,94954-7100,http://www.101northbeer.com,7077534934,2018-07-24 01:32:51,2018-08-11 21:35:53,United States,,,
dempseys-restaurant-and-brewery,Dempsey's Restaurant And Brewery,brewpub,50 E Washington St,,,Petaluma,California,,94952-3115,http://www.dempseys.com,7077659694,2018-07-24 01:32:54,2018-08-23 23:27:18,United States,-122.6391907,38.2348199,
henhouse-brewing-company-palace-of-barrels,Henhouse Brewing Company Palace of Barrels,micro,1333 N McDowell Blvd Ste A,,,Petaluma,California,,94954,,,2018-07-24 01:32:56,2018-08-11 21:36:06,United States,,,
lagunitas-brewing-co,Lagunitas Brewing Co,large,1280 N McDowell Blvd,,,Petaluma,California,,94954-1113,http://www.lagunitas.com,7077694495,2018-07-24 01:32:58,2018-08-23 23:58:45,United States,-122.6619198,38.27264795,
pismo-brewing-co,Pismo Brewing Co,micro,500 Cypress St,,,Pismo Beach,California,,93449-2624,http://www.pismobrew.com,8052956200,2018-07-24 01:32:59,2018-08-24 00:00:55,United States,-120.6409192,35.13908295,
ej-phair-brewing-co,E.J. Phair Brewing Co.,micro,300 Cumberland St,,,Pittsburg,California,,94565-2234,http://www.ejphair.com,9252529895,2018-07-24 01:32:55,2018-08-23 23:27:47,United States,-121.8824742,38.0330804,
offshoot-beer-co,Offshoot Beer Co.,micro,737 Dunn Way,,,Placentia,California,,92870,http://www.offshootbeer.com,7149966258,2018-07-24 01:32:59,2018-08-24 00:00:19,United States,-117.880182,33.86112597,
stereo-brewing-co,Stereo Brewing Co,micro,950 S Via Rodeo,,,Placentia,California,,92870-6775,http://www.stereobrewing.com,7149933390,2018-07-24 01:33:01,2018-08-24 00:03:12,United States,-117.82008020000002,33.86330957,
bruery-the,"Bruery, The",micro,717 Dunn Way,,,Placentia,California,,92870-6806,http://www.thebruery.com,7149966258,2018-07-24 01:32:53,2018-08-23 23:26:19,United States,-117.8791616,33.8623093,
old-hangtown-beer-works,Old Hangtown Beer Works,micro,,,,Placerville,California,,95667,,5309195166,2018-07-24 01:32:59,2018-08-24 00:00:28,United States,-120.798546,38.7296252,
outbreak-brewing-co,Outbreak Brewing Co.,micro,640 Main St,,,Placerville,California,,95667-5704,http://www.outbreakbrewing.com,5307483258,2018-07-24 01:32:59,2018-08-24 00:00:36,United States,-120.79421200000002,38.7293661,
gold-hill-brewery,Gold Hill Brewery,micro,5660 Vineyard Ln,,,Placerville,California,,95667-9330,http://www.goldhillvineyard.com,5306266522,2018-07-24 01:32:56,2018-08-11 21:36:05,United States,,,
placerville-brewing-co,Placerville Brewing Co,brewpub,155 Placerville Dr,,,Placerville,California,,95667-3909,http://www.placervillebrewing.com,5302959166,2018-07-24 01:33:00,2018-08-24 00:01:01,United States,-120.8370686,38.7276787,
pleasanton-main-st-brewery,Pleasanton Main St Brewery,brewpub,830 Main St Frnt,,,Pleasanton,California,,94566-6652,http://www.mainstbrewery.com,9254628218,2018-07-24 01:33:00,2018-08-11 21:36:17,United States,,,
amador-brewing-company,Amador Brewing Company,micro,9659 Main St,,,Plymouth,California,,95669-9570,http://www.amadorbrewing.com,2095071900,2018-07-24 01:32:52,2018-08-23 23:24:20,United States,-120.849271,38.4808723,
the-feinics-company-inc,"The Feinics Company, Inc.",planning,,,,Pollock Pines,California,,95726-9751,,9163003049,2018-07-24 01:33:02,2018-08-24 00:03:53,United States,-120.5776645,38.7497125,
old-stump-brewery,Old Stump Brewery,micro,2896 Metropolitan Pl,,,Pomona,California,,91767-1854,http://www.oldstumpbrewery.com,9098609052,2018-07-24 01:32:59,2018-08-24 00:00:32,United States,-117.7541465,34.09763808,
homage-brewing,Homage Brewing,micro,281 S Thomas St Ste 101,,,Pomona,California,,91766-1750,http://www.homagebrewing.com/,6263770930,2018-07-24 01:32:57,2018-08-11 21:36:07,United States,,,
innovation-brew-works,Innovation Brew Works,micro,3650 W Temple Ave Bldg 220A,,,Pomona,California,,91768-2582,http://www.ibrewworks.com/,9098692788,2018-07-24 01:32:57,2018-08-11 21:36:08,United States,,,
