id,name,brewery_type,address_1,address_2,address_3,city,state_province,postal_code,country,phone,website_url,longitude,latitude
f1855903-dd7f-428d-86bd-14fa054e4771,Bryggerifabriken i Karlskrona AB,micro,Alamedan 10,c/o Karlskrona Hotel o Fastigheter AB,,Karlskrona,Blekinge,371 31,Sweden,,http://bryggerifabriken.se/,15.59114,56.15906
fdbb4b87-70d0-4362-834f-502fd5b05feb,Brygghus19,micro,Västra Kajen 8F,,,Karlshamn,Blekinge,374 31,Sweden,+46709191950,http://www.brygghus19.se/,14.86054,56.16757
f603839f-51db-44f5-ad0e-b8f8184bc945,Carlskrona Bryggeri AB,micro,Trantorps Gård 1,c/o Trantorps Gård,,Karlskrona,Blekinge,371 91,Sweden,070-822 11 29,,15.582,56.21074
e21d9ff5-33e3-4e15-af90-2d8171ff6e7f,Imperial Brygghus,micro,Ronnebygatan 38,,,Karlskrona,Blekinge,371 33,Sweden,+46 708-30 02 18,https://imperialbrygghus.se/,15.5876751,56.1621939
5873d756-fd71-4516-9e2d-e9a8c9eabc7d,Karlskrona Mikrobryggeri,micro,Alamedan 10,,,Karlskrona,Blekinge,371 31,Sweden,+46 455 300 250,https://www.karlskronamikrobryggeri.se/,15.5913556,56.1590806
b6244f79-714c-43b6-bcd1-58cee49a6939,Nättraby Kvartersbryggeri,micro,Åvägen 9,,,Nättraby,Blekinge,373 30,Sweden,,https://kvartersbryggeri.se/,15.63878,56.20148