id,name,brewery_type,street,address_2,address_3,city,county_province,postal_code,website_url,phone,created_at,updated_at,country,longitude,latitude,tags
fyne-ales,Fyne Ales,micro,Achadunan,,,Cairndow,Argyll,PA26 8BJ,https://www.fyneales.com/,01499600120,,,Scotland,56.2761719,-4.9139856,
islay-ales,Islay Ales,micro,Islay House Square,Bridgend,,Isle of Islay,Argyll,PA44 7NZ,https://www.islayales.com/,01496810014,,,Scotland,55.7845598,-6.2511858,
colonsay-ales,Colonsay Ales,micro,Colonsay Brewery,Dunoran,Scalasaig,Isle of Colonsay,Argyll,PA61 7YZ,https://colonsaybrewery.co.uk/,01951200190,,,Scotland,56.0703454,-6.2600129,
oban-bay,Oban Bay,micro,60 George Street,,,Oban,Argyll,PA34 5SD,http://obanbaybrewery.co.uk/,01631564492,,,Scotland,56.4146637,-5.4725942,
bute-brew-co,Bute Brew Co,closed,15-17 Columshill Street,Rothesay,,Isle of Bute,Bute,PA20 0DN,http://butebrewco.co.uk/,01700504206,,,Scotland,55.835396,-5.058482,