id,name,brewery_type,street,address_2,address_3,city,state,county_province,postal_code,website_url,phone,created_at,updated_at,country,longitude,latitude,tags
scorched-earth-brewing-co,Scorched Earth Brewing Co.,micro,203 Berg St,,,Algonquin,Illinois,,60102-3537,http://scorchedearthbrewing.com,2242098472,2018-07-24 01:33:21,2018-08-24 00:32:04,United States,-88.30396970000002,42.17091094,
village-vintner-winery-and-brewery,Village Vintner Winery & Brewery,brewpub,2380 Esplanade Dr Ste 100,,,Algonquin,Illinois,,60102-5450,http://www.thevillagevintner.com,8476584900,2018-07-24 01:33:21,2018-08-24 00:32:19,United States,-88.33838098,42.14408948,
von-jakob-winery,Von Jakob Winery,brewpub,230 Illinois Hwy 127,,,Alto Pass,Illinois,,62905,http://www.vonjakob.com,6188934600,2018-07-24 01:33:21,2018-08-11 21:37:17,United States,,,
the-old-bakery-beer-company,The Old Bakery Beer Company,brewpub,400 Landmarks Blvd,,,Alton,Illinois,,62002-2405,,6184631470,2018-07-24 01:33:21,2018-08-11 21:37:16,United States,,,
1905-brewing-company,1905 Brewing Company,micro,1301 S Chestnut St,,,Assumption,Illinois,,62510-8504,http://1905BrewingCompany.com,2172549374,2018-07-24 01:33:18,2018-08-24 00:30:22,United States,-89.0503635,39.5172564,
wonky-brew-factory,Wonky Brew Factory,planning,,,,Aurora,Illinois,,60506-5749,,,2018-07-24 01:33:21,2018-08-11 21:37:17,United States,,,
hopvine-brewing-company,Hopvine Brewing Company,brewpub,4030 Fox Valley Center Dr,,,Aurora,Illinois,,60504-4109,http://www.hopvinebrewingcompany.com,6302296030,2018-07-24 01:33:19,2018-08-24 00:31:16,United States,-88.21364002,41.76082292,
scratch-brewing-company,Scratch Brewing Company,brewpub,264 Thompson Rd,,,Ava,Illinois,,62907-2658,http://www.scratchbeer.com,6184261415,2018-07-24 01:33:21,2018-08-11 21:37:15,United States,,,
flesk-brewing,Flesk Brewing,micro,200 Applebee St Ste E,,,Barrington,Illinois,,60010-3063,http://www.fleskbrewing.com,2246557291,2018-07-24 01:33:19,2018-08-11 21:37:11,United States,,,
4204-main-street-brewing-co,4204 Main Street Brewing Co,brewpub,4204 W Main St,,,Belleville,Illinois,,62226,,6184167261,2018-07-24 01:33:18,2018-08-24 00:30:23,United States,-90.02053343,38.53796122,
hofbrauhaus-st-louis-belleville,Hofbrauhaus St. Louis-Belleville,brewpub,123 Saint Eugene Dr,,,Belleville,Illinois,,62223-1154,http://www.hofbrauhausstlouis.com,6188002337,2018-07-24 01:33:19,2018-08-11 21:37:12,United States,,,
mainstreet-brewing-company,Mainstreet Brewing Company,micro,4204 W Main St,,,Belleville,Illinois,,62226,http://www.mainstreetbrewingco.com,6184167261,2018-07-24 01:33:20,2018-08-24 00:31:31,United States,-90.02053343,38.53796122,
flapjack-brewery,Flapjack Brewery,brewpub,6833 Stanley Ave,,,Berwyn,Illinois,,60402-5289,http://www.flapjackbrewery.com,,2018-07-24 01:33:19,2018-08-24 00:30:58,United States,-87.79436281,41.83342484,
keg-grove-brewing-company,Keg Grove Brewing Company,micro,712 E Empire St Ste 2,,,Bloomington,Illinois,,61701-3252,http://keggrovebrewing.com,,2018-07-24 01:33:19,2018-08-11 21:37:13,United States,,,
lil-beaver-brewery,Lil Beaver Brewery,micro,16 Currency Dr Unit B,,,Bloomington,Illinois,,61704-9632,http://www.lilbeaverbrewery.com,3098082590,2018-07-24 01:33:20,2018-08-11 21:37:13,United States,,,
blue-island-beer-co,Blue Island Beer Co,micro,13357 Olde Western Ave,,,Blue Island,Illinois,,60406-2969,http://www.blueislandbeerco.com,7089548085,2018-07-24 01:33:18,2018-08-11 21:37:08,United States,,,
gordon-biersch-brewery-restaurant-bolingbrook,Gordon Biersch Brewery Restaurant - Bolingbrook,brewpub,639 E Boughton Rd Ste 100,,,Bolingbrook,Illinois,,60440-3126,http://www.craftworksrestaurants.com,6307396036,2018-07-24 01:33:19,2018-08-24 00:31:05,United States,-88.04235600000001,41.721179,
brickstone-brewery,BrickStone Brewery,micro,572 Brewery Ln,,,Bourbonnais,Illinois,,60914-2196,,8159369277,2018-07-24 01:33:18,2018-08-11 21:37:09,United States,,,
brickstone-brewery-brewpub,BrickStone Brewery Brewpub,brewpub,557 William Latham Dr,,,Bourbonnais,Illinois,,60914-2319,http://www.brickstonebrewery.com,8159369277,2018-07-24 01:33:18,2018-08-24 00:30:39,United States,-87.881654,41.162675,
excel-brewing-co,Excel Brewing Co,micro,488 S Broadway,,,Breese,Illinois,,62230-1805,http://www.excelbottling.com,6185267159,2018-07-24 01:33:19,2018-08-24 00:30:57,United States,-89.53007673,38.60665933,
prairie-krafts-brewing-company,Prairie Krafts Brewing Company,micro,1310 Busch Pkwy,,,Buffalo Grove,Illinois,,60089-4505,http://www.prairiekrafts.com,2244342189,2018-07-24 01:33:20,2018-08-11 21:37:15,United States,,,
hairy-cow-brewing-co-llc,"Hairy Cow Brewing Co, LLC",planning,,,,Byron,Illinois,,61010,http://www.hairycowbrewing.com,8152432866,2018-07-24 01:33:19,2018-08-11 21:37:12,United States,,,
rolling-meadows-farm-brewery,Rolling Meadows Farm Brewery,micro,3954 Central Point Rd,,,Cantrall,Illinois,,62625-8803,http://www.rollingmeadowsbrewery.com,2177252492,2018-07-24 01:33:21,2018-08-11 21:37:15,United States,,,
brewery-in-planning-carbondale,Brewery in Planning - Carbondale,planning,,,,Carbondale,Illinois,,62901,http://www.fermentation.siu.edu,6184537508,2018-07-24 01:33:18,2018-08-11 21:37:08,United States,,,
cary-ale-house,Cary Ale House,brewpub,208 W Main St Lowr 1,,,Cary,Illinois,,60013-2786,http://caryalehousebrewing.com,8476397244,2018-07-24 01:33:19,2018-08-11 21:37:09,United States,,,
destihl-champaign,DESTIHL - Champaign,brewpub,301 N Neil St,,,Champaign,Illinois,,61820-3163,http://www.destihl.com,2173560301,2018-07-24 01:33:19,2018-08-24 00:30:47,United States,-88.24377829999997,40.1184918,
blind-pig-brewery,Blind Pig Brewery,brewpub,120 N Neil St,,,Champaign,Illinois,,61820-4023,http://www.blindpigbrewery.com,2173985133,2018-07-24 01:33:18,2018-08-24 00:30:36,United States,-88.24341082,40.11714609,
river-hawk-brewing,River Hawk Brewing,micro,24735 W Eames St,,,Channahon,Illinois,,60410-8705,http://www.riverhawkbrewing.com,8152552202,2018-07-24 01:33:20,2018-08-24 00:32:00,United States,-88.21732025,41.43542539,
one-allegiance-brewing,One Allegiance Brewing,planning,,,,Chicago Ridge,Illinois,,60415-1347,http://www.OneAllegiance.com,,2018-07-24 01:33:20,2018-08-11 21:37:14,United States,,,
horse-thief-hollow-brewery,Horse Thief Hollow Brewery,brewpub,10426 S Western Ave,,,Chicago,Illinois,,60643-2508,http://www.horsethiefbrewing.com,7737792739,2018-07-24 01:33:19,2018-08-24 00:31:17,United States,-87.68195116,41.70388555,
off-color-brewing,Off Color Brewing,micro,3925 W Dickens Ave,,,Chicago,Illinois,,60647-3453,http://www.offcolorbrewing.com,,2018-07-24 01:33:20,2018-08-24 00:31:42,United States,-87.72538437,41.91892697,
alarmist-brewing-co,Alarmist Brewing Co,micro,4055 W Peterson Ave Ste REAR,,,Chicago,Illinois,,60646-6072,http://alarmistbrewing.com,7739882536,2018-07-24 01:33:18,2018-08-11 21:37:08,United States,,,
ballast-point-brewing-company,Ballast Point Brewing Company,planning,,,,Chicago,Illinois,,60607,,,2018-07-24 01:33:18,2018-08-11 21:37:08,United States,,,
5-rabbit-cerveceria-inc,5 Rabbit Cerveceria Inc,micro,6398 W 74th St,,,Chicago,Illinois,,60638-6129,http://www.5rabbitbrewery.com,3128959591,2018-07-24 01:33:18,2018-08-24 00:30:24,United States,-87.6572069,41.75955020000001,
aleman-brewing,Aleman Brewing,micro,3304 N Knox Ave,,,Chicago,Illinois,,60641-4434,http://www.alemanchicago.com,8123404198,2018-07-24 01:33:18,2018-08-24 00:30:27,United States,-87.74301213,41.94087994,
all-rise-brewing-co,All Rise Brewing Co,brewpub,235 N Ashland Ave,,,Chicago,Illinois,,60607-1401,http://www.allrisebrewing.com,3122266300,2018-07-24 01:33:18,2018-08-24 00:30:28,United States,-87.66673279999998,41.8864021,
argus-brewery,Argus Brewery,micro,11314 S Front Ave,,,Chicago,Illinois,,60628-5007,http://www.argusbrewery.com,7739414050,2018-07-24 01:33:18,2018-08-24 00:30:29,United States,-87.61206845,41.68854885,
begyle-brewing,Begyle Brewing,micro,1800 W Cuyler Ave Ste 1E,,,Chicago,Illinois,,60613-3892,http://www.begylebrewing.com,7736616963,2018-07-24 01:33:18,2018-08-11 21:37:08,United States,,,
brewery-in-planning-chicago,Brewery In Planning - Chicago,planning,,,,Chicago,Illinois,,60640-4006,,,2018-07-24 01:33:18,2018-08-11 21:37:08,United States,,,
buchanan-craft-llc,Buchanan Craft LLC,planning,,,,Chicago,Illinois,,60647-9735,,6307722199,2018-07-24 01:33:18,2018-08-11 21:37:09,United States,,,
dryhop-brewers,Dryhop Brewers,micro,3155 N Broadway St,,,Chicago,Illinois,,60657-4508,http://www.dryhopchicago.com,7738573155,2018-07-24 01:33:19,2018-08-11 21:37:10,United States,,,
birreria-eataly,Birreria @ Eataly,brewpub,43 E Ohio St,,,Chicago,Illinois,,60611-2701,http://www.eataly.com,,2018-07-24 01:33:18,2018-08-24 00:30:35,United States,-87.6262332,41.89209845,
burnt-city-brewing,Burnt City Brewing,micro,2747 N Lincoln Ave,,,Chicago,Illinois,,60614-1320,http://www.burntcitybrewing.com,7732951270,2018-07-24 01:33:18,2018-08-24 00:30:41,United States,-87.65722732,41.93185255,
chicago-beer-company,Chicago Beer Company,contract,1140 W Randolph St,,,Chicago,Illinois,,60607-1619,http://www.chicagobeerco.com,7732448696,2018-07-24 01:33:19,2018-08-24 00:30:43,United States,-87.65589165,41.88434,
corridor-brewery-and-provisions,Corridor Brewery & Provisions,brewpub,3446 N Southport Ave,,,Chicago,Illinois,,60657-1420,,7732704272,2018-07-24 01:33:19,2018-08-24 00:30:44,United States,-87.66435240000001,41.9447594,
cruz-blanca-brewery,Cruz Blanca Brewery,brewpub,904 W Randolph St,,,Chicago,Illinois,,60607-2208,http://www.cruzblanca.com,3127331975,2018-07-24 01:33:19,2018-08-24 00:30:45,United States,-87.65014029999998,41.8846013,
dovetail-brewery,Dovetail Brewery,micro,1800 W Belle Plaine Ave,,,Chicago,Illinois,,60613-1827,http://www.dovetailbrewery.com,,2018-07-24 01:33:19,2018-08-24 00:30:49,United States,-87.6743858,41.9561589,
ginos-brewing-company,Gino's Brewing Company,brewpub,500 N La Salle Dr,,,Chicago,Illinois,,60654-7109,,3129884200,2018-07-24 01:33:19,2018-08-11 21:37:11,United States,,,
goose-island-brewpub,Goose Island Brewpub,large,1800 N Clybourn Ave Ste B,,,Chicago,Illinois,,60614-4895,http://www.gooseisland.com,3129150071,2018-07-24 01:33:19,2018-08-11 21:37:11,United States,,,
empirical-brewery,Empirical Brewery,micro,1801 W Foster Ave,,,Chicago,Illinois,,60640-1023,http://www.empiricalbrewery.com,,2018-07-24 01:33:19,2018-08-24 00:30:54,United States,-87.67493950000002,41.9762555,
eris-brewery-and-cider-house,Eris Brewery And Cider House,brewpub,4240 W Irving Park Rd,,,Chicago,Illinois,,60641,,5623086582,2018-07-24 01:33:19,2018-08-24 00:30:56,United States,-87.7342346,41.95388195,
finch-beer-company,Finch Beer Company,micro,1800 W Walnut St,,,Chicago,Illinois,,60612-2526,http://www.finchbeer.com,3129294773,2018-07-24 01:33:19,2018-08-24 00:30:58,United States,-87.6721651,41.8861899,
forbidden-root-restaurant-and-brewery,Forbidden Root Restaurant & Brewery,micro,1746 W Chicago Ave,,,Chicago,Illinois,,60622-5012,http://www.forbiddenroot.com,3129292202,2018-07-24 01:33:19,2018-08-24 00:31:00,United States,-87.67153929999998,41.8961658,
goose-island-beer-co-/-fulton-st,Goose Island Beer Co / Fulton St,large,1800 W Fulton St,,,Chicago,Illinois,,60612-2512,http://www.gooseisland.com,3122261119,2018-07-24 01:33:19,2018-08-24 00:31:04,United States,-87.6722122,41.8870058,
great-central-brewing-company,Great Central Brewing Company,micro,221 N Wood St,,,Chicago,Illinois,,60612-2614,http://www.greatcentralbrewing.com,8554644222,2018-07-24 01:33:19,2018-08-24 00:31:09,United States,-87.6712098,41.8858315,
greenstar-brewing-at-uncommon-ground,Greenstar Brewing At Uncommon Ground,brewpub,3810 N Clark St,,,Chicago,Illinois,,60613-2812,http://www.uncommonground.com,8472198834,2018-07-24 01:33:19,2018-08-24 00:31:09,United States,-87.66001045,41.95128495,
half-acre-beer-co,Half Acre Beer Co,regional,4257 N Lincoln Ave,,,Chicago,Illinois,,60618-2953,http://www.halfacrebeer.com,7737548488,2018-07-24 01:33:19,2018-08-24 00:31:11,United States,-87.68202009999997,41.9591945,
hamburger-marys/andersonville-brewing-company,Hamburger Mary's/Andersonville Brewing Company,brewpub,5402 N Clark St,,,Chicago,Illinois,,60640-1210,http://www.hamburgermaryschicago.com,7737846969,2018-07-24 01:33:19,2018-08-24 00:31:12,United States,-87.66855092,41.97997865,
haymarket-pub-and-brewery,Haymarket Pub and Brewery,brewpub,737 W Randolph St,,,Chicago,Illinois,,60661-2103,http://www.haymarketbrewing.com,3126380707,2018-07-24 01:33:19,2018-08-24 00:31:13,United States,-87.64729559999998,41.88418950000001,
hopewell-brewing-co,Hopewell Brewing Co,micro,2760 N Milwaukee Ave,,,Chicago,Illinois,,60647-1337,http://www.hopewellbrewing.com,7736986178,2018-07-24 01:33:19,2018-08-24 00:31:15,United States,-87.7878762,41.9973481,
local-option,Local Option,contract,1102 W Webster Ave Ste 1,,,Chicago,Illinois,,60614-7089,http://www.localoptionbier.com,7733482008,2018-07-24 01:33:20,2018-08-11 21:37:13,United States,,,
mad-mouse-brewery,Mad Mouse Brewery,contract,,,,Chicago,Illinois,,60607-5017,http://www.moxeerestaurant.com,,2018-07-24 01:33:20,2018-08-11 21:37:14,United States,,,
maverick-ales-and-lager,Maverick Ales & Lager,planning,,,,Chicago,Illinois,,60612,http://www.maverickbrews.com,4086051508,2018-07-24 01:33:20,2018-08-11 21:37:14,United States,,,
illuminated-brew-works,Illuminated Brew Works,micro,415 N Sangamon St,,,Chicago,Illinois,,60642-6546,http://www.ibw-chicago.com,7737262874,2018-07-24 01:33:19,2018-08-24 00:31:17,United States,-87.65074933,41.88958325,
lagunitas-brewing-co,Lagunitas Brewing Co,large,2607 W 17th St,,,Chicago,Illinois,,60608-1823,http://www.lagunitas.com,7735222503,2018-07-24 01:33:20,2018-08-24 00:31:23,United States,-87.6932373,41.8583603,
lake-effect-brewing-company,Lake Effect Brewing Company,micro,4727 W Montrose Ave,,,Chicago,Illinois,,60641-1504,http://www.lakeeffectbrewing.com,3129194473,2018-07-24 01:33:20,2018-08-24 00:31:25,United States,-87.7459687,41.9604369,
lo-rez-brewing,Lo Rez Brewing,micro,2101 S Carpenter St,,,Chicago,Illinois,,60608-4529,http://lorezbrewing.com,3128043283,2018-07-24 01:33:20,2018-08-24 00:31:29,United States,-87.6524429,41.8533096,
maplewood-brewing-company,Maplewood Brewing Company,micro,2717 N Maplewood Ave,,,Chicago,Illinois,,60647-1930,http://www.maplewoodbrew.com,7732701061,2018-07-24 01:33:20,2018-08-24 00:31:31,United States,-87.69106414,41.93075205,
marz-community-brewing,Marz Community Brewing,proprietor,3630 S Iron St,,,Chicago,Illinois,,60609,http://www.marzbrewing.com,,2018-07-24 01:33:20,2018-08-24 00:31:32,United States,-87.6595253,41.827819,
metropolitan-brewing,Metropolitan Brewing,micro,3057 N Rockwell St,,,Chicago,Illinois,,60618-7917,http://www.metrobrewing.com,7734746489,2018-07-24 01:33:20,2018-08-24 00:31:33,United States,-87.69123909999998,41.9376382,
middle-brow-beer-company,Middle Brow Beer Company,micro,2840 W Armitage Ave,,,Chicago,Illinois,,60647,http://www.middlebrowbeer.com,7088465511,2018-07-24 01:33:20,2018-08-24 00:31:34,United States,-87.6988905,41.9177811,
moody-tongue-brewing-company,Moody Tongue Brewing Company,micro,2136 S Peoria St,,,Chicago,Illinois,,60608-4526,http://www.moodytongue.com,3126005111,2018-07-24 01:33:20,2018-08-24 00:31:36,United States,-87.6483419,41.8532798,
motor-row-brewing,Motor Row Brewing,micro,2337 S Michigan Ave,,,Chicago,Illinois,,60616-2104,http://www.motorrowbrewing.com,,2018-07-24 01:33:20,2018-08-24 00:31:38,United States,-87.6233063,41.8499832,
old-town-abbey-ales,Old Town Abbey Ales,proprietor,125 S Jefferson St Unit 2709,,,Chicago,Illinois,,60661-3731,http://www.oldtownabbey.com,3126226544,2018-07-24 01:33:20,2018-08-11 21:37:14,United States,,,
pipeworks-brewing-co,Pipeworks Brewing Co,micro,3912 W McLean Ave Ste B,,,Chicago,Illinois,,60647-5973,http://pipeworksbrewing.com,8479109493,2018-07-24 01:33:20,2018-08-11 21:37:15,United States,,,
pipeworks-brewing-co,Pipeworks Brewing Co,micro,,,,Chicago,Illinois,,60647-5972,,8479109493,2018-07-24 01:33:20,2018-08-11 21:37:15,United States,,,
ritt-brewing-company,Ritt Brewing Company,planning,,,,Chicago,Illinois,,60634-2319,,8475618203,2018-07-24 01:33:20,2018-08-11 21:37:15,United States,,,
on-tour-brewing-co,On Tour Brewing Co.,micro,1725 W Hubbard St,,,Chicago,Illinois,,60622-6213,http://www.ontourbrewing.com,3127963119,2018-07-24 01:33:20,2018-08-24 00:31:45,United States,-87.670578,41.8896255,
open-outcry,Open Outcry,brewpub,10934 S Western Ave,,,Chicago,Illinois,,60643-3228,http://www.openoutcrybrewing.com,7736296055,2018-07-24 01:33:20,2018-08-24 00:31:47,United States,-87.6814747,41.6943819,
piece-brewery,Piece Brewery,brewpub,1927 W North Ave,,,Chicago,Illinois,,60622-1316,http://www.piecechicago.com,7737724422,2018-07-24 01:33:20,2018-08-24 00:31:50,United States,-87.6760621,41.9102937,
revolution-brewing,Revolution Brewing,regional,3340 N Kedzie Ave,,,Chicago,Illinois,,60618-5722,http://www.revbrew.com,7735882267,2018-07-24 01:33:20,2018-08-24 00:31:59,United States,-87.707534,41.9289777,
revolution-brewing-brewpub,Revolution Brewing - Brewpub,brewpub,2323 N Milwaukee Ave,,,Chicago,Illinois,,60647-2924,http://www.revbrew.com,7732272739,2018-07-24 01:33:20,2018-08-24 00:31:59,United States,-87.6981447,41.923586,
rock-bottom-brewery-chicago,Rock Bottom Brewery - Chicago,brewpub,1 W Grand Ave,,,Chicago,Illinois,,60654-4806,http://www.rockbottom.com,3127559339,2018-07-24 01:33:20,2018-08-24 00:32:01,United States,-87.62839238,41.89139829999999,
the-berghoff-brewery-inc,The Berghoff Brewery Inc.,contract,1730 W Superior St Apt 3W,,,Chicago,Illinois,,60622-5639,http://www.berghoffbeer.com,6083584992,2018-07-24 01:33:21,2018-08-11 21:37:16,United States,,,
the-berghoff-restaurant,The Berghoff Restaurant,planning,,,,Chicago,Illinois,,60603-5502,http://www.berghoff.com,3126176283,2018-07-24 01:33:21,2018-08-11 21:37:16,United States,,,
urban-renewal-brewery,Urban Renewal Brewery,planning,,,,Chicago,Illinois,,60640,http://www.urbanrenewbrew.com,7744874619,2018-07-24 01:33:21,2018-08-11 21:37:17,United States,,,
veteran-beer-co-/-veteran-beverage-company,Veteran Beer Co / Veteran Beverage Company,proprietor,320 W Ohio St Ste 501,,,Chicago,Illinois,,60654-7816,http://www.veteranbeercompany.com,6192498081,2018-07-24 01:33:21,2018-08-11 21:37:17,United States,,,
vice-district-tap-room,Vice District Tap Room,micro,1454 S Michigan Ave Ste 1,,,Chicago,Illinois,,60605-2811,http://www.vicedistrictbrewing.com,3122919022,2018-07-24 01:33:21,2018-08-11 21:37:17,United States,,,
spiteful-brewing,Spiteful Brewing,micro,2024 W Balmoral Ave,,,Chicago,Illinois,,60625-1002,http://www.spitefulbrewing.com,7732936600,2018-07-24 01:33:21,2018-08-24 00:32:09,United States,-87.6806429,41.979914,
twisted-hippo,Twisted Hippo,contract,2925 W Montrose Ave,,,Chicago,Illinois,,60618-1403,http://Www.twistedhippo.com,7088447768,2018-07-24 01:33:21,2018-08-24 00:32:17,United States,-87.7019463,41.961125,
whiner-beer-company,Whiner Beer Company,micro,1400 W 46th St,,,Chicago,Illinois,,60609-3225,http://whiner beer.com,3128102271,2018-07-24 01:33:21,2018-08-24 00:32:22,United States,-87.6606688,41.810614,
tocayo-brewing-company,Tocayo Brewing Company,contract,1 S Dearborn St Ste 1700,,,Chicago,Illinois,,60603-2308,,3122592189,2018-07-24 01:33:21,2018-08-11 21:37:17,United States,,,
band-of-bohemia,Band Of Bohemia,brewpub,4710 N Ravenswood Ave,,,Chicago,Illinois,,60640-4408,http://bandofbohemia.com,7732714710,2018-07-24 01:33:18,2018-08-24 00:30:31,United States,-87.6750827,41.96759539999999,
old-irving-brewing-co,Old Irving Brewing Co.,brewpub,4419 W Montrose Ave,,,Chicago,Illinois,,60641-2021,http://www.oldirvingbrewing.com,7739166421,2018-07-24 01:33:20,2018-08-24 00:31:44,United States,-87.7394333,41.9605751,
the-hop-brewery,The Hop Brewery,brewpub,203 W Market St,,,Christopher,Illinois,,62822,http://www.thehopbrewery.com,8667244677,2018-07-24 01:33:21,2018-08-24 00:32:14,United States,-89.05481692,37.97270012,
brewery-in-planning-cobden,Brewery In Planning - Cobden,planning,,,,Cobden,Illinois,,62920-3397,,,2018-07-24 01:33:18,2018-08-11 21:37:09,United States,,,
ardent-spirits-inc,"Ardent Spirits, Inc",planning,,,,Collinsville,Illinois,,62234,http://Ardentspirits.com,13143235530,2018-07-24 01:33:18,2018-08-11 21:37:08,United States,,,
evil-horse-brewing-company-llc,"Evil Horse Brewing Company, LLC",micro,1338 Main St,,,Crete,Illinois,,60417-2131,http://evilhorsebrewing.com,7083042907,2018-07-24 01:33:19,2018-08-24 00:30:56,United States,-87.63143199999998,41.44499003,
crystal-lake-brewing-co,Crystal Lake Brewing Co.,micro,150 N Main St,,,Crystal Lake,Illinois,,60014-4433,,,2018-07-24 01:33:19,2018-08-24 00:30:45,United States,-88.316204,42.2413125,
hop-butcher-for-the-world,Hop Butcher For the World,micro,1000 N Frontage Rd Ste C,,,Darien,Illinois,,60561-6448,http://www.hopbutcher.com,,2018-07-24 01:33:19,2018-08-11 21:37:12,United States,,,
miskatonic-brewing-company,Miskatonic Brewing Company,micro,1000 N Frontage Rd Ste C,,,Darien,Illinois,,60561-6448,http://www.miskatonicbrewing.com,6305419414,2018-07-24 01:33:20,2018-08-11 21:37:14,United States,,,
decatur-brew-works,Decatur Brew Works,micro,101 N Main St,,,Decatur,Illinois,,62523-1206,http://www.decaturbrewworks.com,2173308683,2018-07-24 01:33:19,2018-08-24 00:30:46,United States,-88.95573973,39.84128742,
door-4-brewing-co,Door 4 Brewing Co,micro,1214 W Cerro Gordo St,,,Decatur,Illinois,,62522-2008,http://www.door4brewing.com,2173302008,2018-07-24 01:33:19,2018-08-24 00:30:48,United States,-88.97523814,39.84662586,
byers-brewing-company,Byers Brewing Company,planning,,,,DeKalb,Illinois,,60115-4661,,8159705318,2018-07-24 01:33:18,2018-08-11 21:37:09,United States,,,
emmetts-brewing-co-downers-grove,Emmett's Brewing Co - Downers Grove,brewpub,5200 Main St,,,Downers Grove,Illinois,,60515-4688,http://www.emmettsbrewingco.com,6304348500,2018-07-24 01:33:19,2018-08-24 00:30:52,United States,-88.01051205,41.7925884,
alter-brewing-company,Alter Brewing Company,micro,2300 Wisconsin Ave Ste 213,,,Downers Grove,Illinois,,60515-2234,http://www.alterbrewing.com,6305419558,2018-07-24 01:33:18,2018-08-11 21:37:08,United States,,,
brewery-in-planning-downers-grove,Brewery in Planning - Downers Grove,planning,,,,Downers Grove,Illinois,,60515-2920,,5127366565,2018-07-24 01:33:18,2018-08-11 21:37:09,United States,,,
st-nicholas-brewing-co,St Nicholas Brewing Co,brewpub,12 S Oak St,,,Du Quoin,Illinois,,62832-1515,,6187909212,2018-07-24 01:33:21,2018-08-24 00:32:10,United States,-89.23946916,38.01026114,
granite-city-food-and-brewery-#21,Granite City Food & Brewery (#21),brewpub,230 Conference Center Dr,,,East Peoria,Illinois,,61611-9501,http://www.gcfb.com,3096698080,2018-07-24 01:33:19,2018-08-24 00:31:07,United States,-89.58983590000003,40.6830595,
recess-brewing,Recess Brewing,micro,307 N Main St,,,Edwardsville,Illinois,,62025-1615,http://www.recessbrewing.com,6186925101,2018-07-24 01:33:20,2018-08-24 00:31:57,United States,-89.9590501,38.81422443,
obscurity,Obscurity,planning,,,,Elburn,Illinois,,60119-7012,http://www.drinkobscurity.com,,2018-07-24 01:33:20,2018-08-11 21:37:14,United States,,,
mikerphone-brewing,Mikerphone Brewing,micro,121 Garlisch Dr,,,Elk Grove Village,Illinois,,60007-1322,http://www.mikerphonebrewing.com,8472648904,2018-07-24 01:33:20,2018-08-24 00:31:35,United States,-87.96704535,42.02909208,
elmhurst-brewing-company,Elmhurst Brewing Company,brewpub,171 N Addison Ave,,,Elmhurst,Illinois,,60126-2720,http://www.elmhurstbrewing.com,6308342739,2018-07-24 01:33:19,2018-08-24 00:30:51,United States,-87.94146327,41.90285936,
smylie-brothers-brewing-co,Smylie Brothers Brewing Co,brewpub,1615 Oak Ave,,,Evanston,Illinois,,60201-3611,http://www.smyliebros.com,2249997320,2018-07-24 01:33:21,2018-08-24 00:32:08,United States,-87.6864692,42.0476547,
peckish-pig,Peckish Pig,brewpub,623 Howard St,,,Evanston,Illinois,,60202-3941,http://www.thepeckishpig@gmail.com,8474916778,2018-07-24 01:33:20,2018-08-11 21:37:15,United States,,,
sketchbook-brewing-company,Sketchbook Brewing Company,micro,821 Chicago Ave,,,Evanston,Illinois,,60202-2307,,,2018-07-24 01:33:21,2018-08-24 00:32:07,United States,-87.67897940000002,42.032929,
temperance-beer-company-llc,"Temperance Beer Company, LLC",micro,2000 Dempster St,,,Evanston,Illinois,,60202-1017,http://temperance.beer,8478641000,2018-07-24 01:33:21,2018-08-24 00:32:12,United States,-87.70131740000002,42.040962,
flossmoor-station-brewing-co,Flossmoor Station Brewing Co,brewpub,1035 Sterling Ave,,,Flossmoor,Illinois,,60422-1252,http://www.flossmoorstation.com,7089572739,2018-07-24 01:33:19,2018-08-24 00:30:59,United States,-87.67869465,41.54338855,
exit-strategy-brewing-company,Exit Strategy Brewing Company,brewpub,7700 Madison St,,,Forest Park,Illinois,,60130-1404,http://www.exitstrategybrewing.com,7086898771,2018-07-24 01:33:19,2018-08-24 00:30:57,United States,-87.8108065,41.87952620000001,
generations-brewing-company,Generations Brewing Company,micro,1400 S Adams Ave,,,Freeport,Illinois,,61032-9717,http://www.generationsbrewing.com,8156165941,2018-07-24 01:33:19,2018-08-24 00:31:01,United States,-89.615349,42.2962963,
ill-stylez-brewing,ILL STYLEZ BREWING,planning,,,,Freeport,Illinois,,61032-4761,,,2018-07-24 01:33:19,2018-08-11 21:37:13,United States,,,
galena-brewing-co,Galena Brewing Co,brewpub,227 N Main St Ste 101,,,Galena,Illinois,,61036-2217,http://www.galenabrewery.com,8152759469,2018-07-24 01:33:19,2018-08-11 21:37:11,United States,,,
iron-spike-brewing-company,Iron Spike Brewing Company,brewpub,150 E Simmons St Ste 1,,,Galesburg,Illinois,,61401-4641,http://www.ironspikebrewpub.com,3092974718,2018-07-24 01:33:19,2018-08-11 21:37:13,United States,,,
knox-county-brewing-co,Knox County Brewing Co.,planning,,,,Galesburg,Illinois,,61401,http://www.knoxcobrewco.com,5126528793,2018-07-24 01:33:20,2018-08-11 21:37:13,United States,,,
geneseo-brewing-company,Geneseo Brewing Company,brewpub,102 S State St,,,Geneseo,Illinois,,61254-1348,http://www.geneseobrewingcompany.com,3099451422,2018-07-24 01:33:19,2018-08-24 00:31:02,United States,-90.15561,41.45203206,
lionstone-brewing,Lionstone Brewing,brewpub,1225 S Oakwood Ave,,,Geneseo,Illinois,,61254-1990,http://www.lionstonebrewing.com,3092696220,2018-07-24 01:33:20,2018-08-24 00:31:28,United States,-90.15752718,41.43550343,
penrose-brewing-company,Penrose Brewing Company,micro,509 Stevens St,,,Geneva,Illinois,,60134-1363,http://www.penrosebrewing.com,6302322115,2018-07-24 01:33:20,2018-08-24 00:31:49,United States,-88.30984886,41.89253112,
stockholms-vardshus,Stockholms Vardshus,brewpub,306 W State St,,,Geneva,Illinois,,60134-2103,http://www.stockholmsbrewpub.com,6302081400,2018-07-24 01:33:21,2018-08-24 00:32:10,United States,-88.30735303,41.88776869,
big-thorn-farm-and-brewery,Big Thorn Farm and Brewery,micro,14274 E 600 North Rd,,,Georgetown,Illinois,,61846-7594,http://www.bigthornfarm.com,2175970156,2018-07-24 01:33:18,2018-08-11 21:37:08,United States,,,
ten-ninety-brewing-co,Ten Ninety Brewing Co,micro,1025 Waukegan Rd,,,Glenview,Illinois,,60025,http://www.ten-ninety.com,,2018-07-24 01:33:21,2018-08-24 00:32:13,United States,-87.79962540000002,42.0589281,
grafton-winery-and-brewhaus,Grafton Winery & Brewhaus,micro,300 W Main St,,,Grafton,Illinois,,62037-1124,http://www.thegraftonwinery.com,6187863001,2018-07-24 01:33:19,2018-08-24 00:31:06,United States,-90.439045,38.969851,
light-the-lamp-brewery,Light the Lamp Brewery,micro,10 N Lake St Ste 107,,,Grayslake,Illinois,,60030-3636,http://www.lightthelampbrewery.com,8477528489,2018-07-24 01:33:20,2018-08-11 21:37:13,United States,,,
only-child-brewing-company,Only Child Brewing Company,micro,1350 Tri State Pkwy Ste 124,,,Gurnee,Illinois,,60031-9135,http://www.onlychildbrewing.com,2246565241,2018-07-24 01:33:20,2018-08-24 00:31:46,United States,-87.95581290000001,42.3826426,
topsy-turvy,Topsy Turvy,planning,,,,Hampshire,Illinois,,60140-9449,,8477787070,2018-07-24 01:33:21,2018-08-11 21:37:17,United States,,,
sacred-lake-brewing,Sacred Lake Brewing,planning,,,,Herrin,Illinois,,62948-6349,,,2018-07-24 01:33:21,2018-08-11 21:37:15,United States,,,
ravinia-brewing-company,Ravinia Brewing Company,proprietor,957 Judson Ave,,,Highland Park,Illinois,,60035-4728,http://www.raviniabrewing.com,8472178403,2018-07-24 01:33:20,2018-08-24 00:31:56,United States,-87.784735,42.169955,
kings-and-convicts-brewing,Kings & Convicts Brewing,micro,523 Bank Ln,,,Highwood,Illinois,,60040-1303,http://www.kingsandconvicts.com,2246198102,2018-07-24 01:33:19,2018-08-11 21:37:13,United States,,,
blue-nose-brewery,Blue Nose Brewery,micro,6119 East Ave,,,Hodgkins,Illinois,,60525-4126,http://www.bluenosebrewery.com,7089055198,2018-07-24 01:33:18,2018-08-24 00:30:37,United States,-87.85833464,41.77904908,
rabid-brewing-llc,"Rabid Brewing, LLC",micro,17559 Bretz Dr,,,Homewood,Illinois,,60430,http://www.rabidbrewing.com,7089603193,2018-07-24 01:33:20,2018-08-24 00:31:54,United States,-87.6330234,41.5647232,
sew-hopd-brewery-llc,Sew Hop'd Brewery LLC,planning,,,,Huntley,Illinois,,60142,http://www.sewhopd.com,8476694501,2018-07-24 01:33:21,2018-08-11 21:37:16,United States,,,
golden-fox-brewing-llc,"Golden Fox Brewing, LLC",micro,523 W Matilda St,,,Illiopolis,Illinois,,62539-3607,http://www.GoldenFoxBrew.com,,2018-07-24 01:33:19,2018-08-24 00:31:03,United States,-89.25359479,39.850216,
brewery-in-planning-itasca,Brewery In Planning - Itasca,micro,PO Box 825,,,Itasca,Illinois,,60143-0825,http://guncraftbeer.com/,7085146999,2018-07-24 01:33:18,2018-08-11 21:37:09,United States,,,
church-street-brewing-company,Church Street Brewing Company,micro,1480 Industrial Dr Ste C,,,Itasca,Illinois,,60143-1857,http://www.churchstreetbrew.com,6307098851,2018-07-24 01:33:19,2018-08-11 21:37:09,United States,,,
itasca-brewing-company-inc,Itasca Brewing Company Inc,micro,400 E Orchard St Ste B,,,Itasca,Illinois,,60143-1773,http://www.itascabrewingcompany.com,7738994998,2018-07-24 01:33:19,2018-08-11 21:37:13,United States,,,
karetas-brewing,Karetas Brewing,contract,1480 Industrial Dr Ste C,,,Itasca,Illinois,,60143-1857,http://www.karetasbeer.com,3128788720,2018-07-24 01:33:19,2018-08-11 21:37:13,United States,,,
elder-brewing-co,Elder Brewing Co.,micro,218 E Cass St,,,Joliet,Illinois,,60432-2813,http://www.elderbrewingco.com,,2018-07-24 01:33:19,2018-08-24 00:30:51,United States,-88.076785,41.52783400000001,
mygrain-brewing-company,MyGrain Brewing Company,brewpub,50 E Jefferson St Ste 106,,,Joliet,Illinois,,60432-4299,http://www.mygrainbrewing.com,8153453339,2018-07-24 01:33:20,2018-08-11 21:37:14,United States,,,
wild-onion-brewing-co,Wild Onion Brewing Co.,micro,22221 N Pepper Rd,,,Lake Barrington,Illinois,,60010-2473,http://www.onionpub.com,8473817308,2018-07-24 01:33:21,2018-08-11 21:37:17,United States,,,
lake-bluff-brewing-company,Lake Bluff Brewing Company,micro,16 E Scranton Ave,,,Lake Bluff,Illinois,,60044-2543,http://www.lbbrew.com,2245445179,2018-07-24 01:33:20,2018-08-24 00:31:24,United States,-87.8453204,42.2798322,
roaring-table-brewing,Roaring Table Brewing,micro,739 W IL 22,,,Lake Zurich,Illinois,,60047,http://www.roaringtable.com,2246624562,2018-07-24 01:33:20,2018-08-11 21:37:15,United States,,,
one-trick-pony-brewery,One Trick Pony Brewery,micro,17845 Chappel Ave # 17851,,,Lansing,Illinois,,60438-4525,http://www.onetrickponybrewery.com,7088896683,2018-07-24 01:33:20,2018-08-11 21:37:14,United States,,,
pollyanna-brewing-company,Pollyanna Brewing Company,micro,431 Talcott Ave,,,Lemont,Illinois,,60439-3744,http://www.pollyannabrewing.com,6309145834,2018-07-24 01:33:20,2018-08-24 00:31:53,United States,-87.9978837,41.6759774,
lena-brewing-company,Lena Brewing Company,micro,9416 W Wagner Rd,,,Lena,Illinois,,61048-9664,,,2018-07-24 01:33:20,2018-08-11 21:37:13,United States,,,
wishful-acres-farm-and-brewery,Wishful Acres Farm and Brewery,micro,4679 N Flansburg Rd,,,Lena,Illinois,,61048,http://www.wishfulacresfarm.com,8159902380,2018-07-24 01:33:21,2018-08-11 21:37:17,United States,,,
mickey-finns-brewery,Mickey Finns Brewery,brewpub,345 N Milwaukee Ave,,,Libertyville,Illinois,,60048-2237,http://www.mickeyfinnsbrewery.com,8473626688,2018-07-24 01:33:20,2018-08-24 00:31:34,United States,-87.9542955,42.2863321,
half-day-brewing-company,Half Day Brewing Company,brewpub,200 Village Grn,,,Lincolnshire,Illinois,,60069-3028,http://www.halfdaybrewing.com,8478216933,2018-07-24 01:33:19,2018-08-24 00:31:11,United States,-87.9330365,42.2031177,
afterthought-brewing-company,Afterthought Brewing Company,micro,844 N Ridge Ave,,,Lombard,Illinois,,60148-1215,http://afterthoughtbrewing.com,6303011615,2018-07-24 01:33:18,2018-08-24 00:30:26,United States,-88.02234574,41.90549742,
noon-whistle-brewing-company,Noon Whistle Brewing Company,micro,800 E Roosevelt Rd Ste 3,,,Lombard,Illinois,,60148-4765,http://www.noonwhistlebrewing.com,7089063625,2018-07-24 01:33:20,2018-08-11 21:37:14,United States,,,
rock-bottom-brewery-yorktown,Rock Bottom Brewery - Yorktown,brewpub,94 Yorktown Ctr,,,Lombard,Illinois,,60148-5529,http://www.rockbottom.com,6304241550,2018-07-24 01:33:21,2018-08-11 21:37:15,United States,,,
buffalo-creek-brewing,Buffalo Creek Brewing,micro,360 Historical Ln,,,Long Grove,Illinois,,60047-9613,http://www.facebook.com/buffalocreekbrewing,8478216140,2018-07-24 01:33:18,2018-08-24 00:30:40,United States,-87.99776222,42.17719457,
buckledown-brewing,BuckleDown Brewing,micro,8700 47th St,,,Lyons,Illinois,,60534-1626,http://buckledownbrewing.com,7087771842,2018-07-24 01:33:18,2018-08-24 00:30:40,United States,-87.8034082,41.8083636,
pig-minds-brewing-co,Pig Minds Brewing Co,brewpub,4080 Steele Dr,,,Machesney Park,Illinois,,61115-8358,http://www.pigmindsbrewing.com,8159687447,2018-07-24 01:33:20,2018-08-24 00:31:51,United States,-89.0232046,42.36924570000001,
jt-walkers/champaign-county-brewing-co,JT Walker's/Champaign County Brewing Co,brewpub,402 E Main St,,,Mahomet,Illinois,,61853-7444,http://www.jtwalkers.com,2175861100,2018-07-24 01:33:19,2018-08-24 00:31:21,United States,-88.40289612,40.19498357,
mchenry-brewing-company,McHenry Brewing Company,planning,,,,McHenry,Illinois,,60050,,8154032212,2018-07-24 01:33:20,2018-08-11 21:37:14,United States,,,
718brewcafe-llp,"718BrewCafe, LLP",brewpub,718 Market St,,,Metropolis,Illinois,,62960-1634,http://www.718BrewCafe.com,6185247180,2018-07-24 01:33:18,2018-08-24 00:30:25,United States,-88.73129158,37.15373334,
tribes-beer-company,Tribes Beer Company,brewpub,11220 Lincoln Hwy,,,Mokena,Illinois,,60448-8208,http://www.tribesalehouse.com,8154640248,2018-07-24 01:33:21,2018-08-24 00:32:16,United States,-87.8886903,41.5033149,
bent-river-brewing-co,Bent River Brewing Co,brewpub,1413 5th Ave,,,Moline,Illinois,,61265-1335,http://www.bentriverbrewing.com,3097972722,2018-07-24 01:33:18,2018-08-24 00:30:32,United States,-90.51736337,41.50590516,
border-town-pub,Border Town Pub,brewpub,22 N Dixie Hwy # 28,,,Momence,Illinois,,60954-1504,http://www.BorderTownPub.com,8154724340,2018-07-24 01:33:18,2018-08-24 00:30:38,United States,-87.66261835,41.16238275,
denovo-beverage-of-monmouth,DeNovo Beverage of Monmouth,micro,105 S A St,,,Monmouth,Illinois,,61462-1706,http://www.denovobrewing.co,,2018-07-24 01:33:19,2018-08-24 00:30:46,United States,-90.64964464,40.9112055,
tighthead-brewing-co,Tighthead Brewing Co,micro,161 N Archer Ave,,,Mundelein,Illinois,,60060-2301,,,2018-07-24 01:33:21,2018-08-24 00:32:14,United States,-88.00117584,42.26626399,
big-muddy-brewing-co,Big Muddy Brewing Co,micro,1430 N 7th St,,,Murphysboro,Illinois,,62966-3938,http://www.bigmuddybrewing.com,6186848833,2018-07-24 01:33:18,2018-08-24 00:30:34,United States,-89.33204055,37.78182292,
granite-city-food-and-brewery-#30,Granite City Food & Brewery (#30),brewpub,1828 Abriter Ct,,,Naperville,Illinois,,60563-9368,http://www.gcfb.net,6305443700,2018-07-24 01:33:19,2018-08-24 00:31:08,United States,-88.12944727,41.80283897,
lake-brothers-beer-company,Lake Brothers Beer Company,contract,25W275 Woodstock Ct,,,Naperville,Illinois,,60540-3427,http://www.lakebrothersbeer.com,6302583938,2018-07-24 01:33:20,2018-08-11 21:37:13,United States,,,
solemn-oath-brewery,Solemn Oath Brewery,micro,1661 Quincy Ave Ste 179,,,Naperville,Illinois,,60540-3969,http://www.solemnoathbrewery.com,6309953062,2018-07-24 01:33:21,2018-08-11 21:37:16,United States,,,
arrowhead-ales-brewing-company,Arrowhead Ales Brewing Company,brewpub,2101 Calistoga Dr,,,New Lenox,Illinois,,60451-4826,http://www.arrowheadales.com,8157176068,2018-07-24 01:33:18,2018-08-24 00:30:30,United States,-87.95726941,41.48205844,
hickory-creek-brewing-company-llc,Hickory Creek Brewing Company LLC,micro,1005 W Laraway Rd Unit 260,,,New Lenox,Illinois,,60451,http://www.hickorycreekbrewingil.com,8152456042,2018-07-24 01:33:19,2018-08-11 21:37:12,United States,,,
une-annee-brewery,Une Annee Brewery,micro,9082 W Golf Rd,,,Niles,Illinois,,60714-5805,http://uneannee.com,8476350655,2018-07-24 01:33:21,2018-08-11 21:37:17,United States,,,
destihl-normal,DESTIHL - Normal,brewpub,318 S Towanda Ave,,,Normal,Illinois,,61761-2212,http://www.destihl.com,3098622337,2018-07-24 01:33:19,2018-08-24 00:30:47,United States,-88.960562,40.509706,
destihl-brewery,DESTIHL Brewery,micro,1200 Greenbriar Dr,,,Normal,Illinois,,61761-6459,http://www.destihl.com,3092209901,2018-07-24 01:33:19,2018-08-24 00:30:48,United States,-88.94598211,40.52905465,
white-oak-brewing,White Oak Brewing,micro,1801 Industrial Park Dr,,,Normal,Illinois,,61761-4378,http://www.WhiteOak.beer,3098284077,2018-07-24 01:33:21,2018-08-24 00:32:22,United States,-89.02323299999998,40.4987,
bbgb-brewery-and-hop-farm,BBGB Brewery And Hop Farm,brewpub,2000 Orchard Rd,,,North Aurora,Illinois,,60542-1674,http://www.eathardware.com/,8479093072,2018-07-24 01:33:18,2018-08-11 21:37:08,United States,,,
granite-city-food-and-brewery,Granite City Food & Brewery,brewpub,992 Willow Rd,,,Northbrook,Illinois,,60062-6806,,8475040277,2018-07-24 01:33:19,2018-08-24 00:31:06,United States,-87.85706479999997,42.1056946,
peel-brewing-co,Peel Brewing Co.,brewpub,104 S Cherry St,,,O Fallon,Illinois,,62269-2046,http://www.peelpizza.com,6187262244,2018-07-24 01:33:20,2018-08-11 21:37:15,United States,,,
kinslahger-brewing-company,Kinslahger Brewing Company,micro,6806 Roosevelt Rd,,,Oak Park,Illinois,,60304-1905,http://kinslahger.com,8445524437,2018-07-24 01:33:19,2018-08-11 21:37:13,United States,,,
lake-st-brewing,Lake St Brewing,planning,,,,Oak Park,Illinois,,60302-1355,,7732512125,2018-07-24 01:33:20,2018-08-11 21:37:13,United States,,,
oak-park-brewing-company,Oak Park Brewing Company,brewpub,155 S Oak Park Ave,,,Oak Park,Illinois,,60302-2901,http://www.oakparkbeer.com,8475425523,2018-07-24 01:33:20,2018-08-24 00:31:40,United States,-87.79456064,41.886465,
around-the-bend-beer-co,Around the Bend Beer Co.,contract,811 N Oak Park Ave,,,Oak Park,Illinois,,60302-1538,http://www.atbbeerco.com,3129522339,2018-07-24 01:33:18,2018-08-24 00:30:29,United States,-87.79493034,41.90015593,
granite-city-food-and-brewery-#22,Granite City Food & Brewery (#22),brewpub,14035 S La Grange Rd,,,Orland Park,Illinois,,60462-1321,http://www.gcfb.com,7083641212,2018-07-24 01:33:19,2018-08-24 00:31:08,United States,-87.85389056,41.63748251,
rock-bottom-brewery-orland-park,Rock Bottom Brewery - Orland Park,brewpub,16156 S La Grange Rd,,,Orland Park,Illinois,,60467-5614,http://www.rockbottom.com,7082260021,2018-07-24 01:33:20,2018-08-24 00:32:02,United States,-87.85275979,41.59402293,
oswego-brewing-company,Oswego Brewing Company,micro,61 Main St,,,Oswego,Illinois,,60543-8592,http://www.oswegoBrewing.com,3319991991,2018-07-24 01:33:20,2018-08-11 21:37:15,United States,,,
radium-city-brewing,Radium City Brewing,micro,,,,Ottawa,Illinois,,61350,http://www.radiumcitybrewing.com,,2018-07-24 01:33:20,2018-08-11 21:37:15,United States,,,
tangled-roots-brewing-company,Tangled Roots Brewing Company,brewpub,130 E Madison St,,,Ottawa,Illinois,,61350-5098,http://www.tangledrootsbrewingco.com,8153249549,2018-07-24 01:33:21,2018-08-24 00:32:12,United States,-88.84091316,41.34692308,
emmetts-brewing-co-palatine,Emmett's Brewing Co - Palatine,brewpub,110 N Brockway St,,,Palatine,Illinois,,60067-5063,http://www.emmettsbrewingco.com,8473591533,2018-07-24 01:33:19,2018-08-24 00:30:53,United States,-88.046297,42.11332289,
lot-50-brewing,Lot 50 Brewing,micro,112 E Court St,,,Paris,Illinois,,61944-2210,http://www.lot50brewing.com,2172511493,2018-07-24 01:33:20,2018-08-24 00:31:30,United States,-87.70732557,39.61104231,
bearded-owl-brewing,Bearded Owl Brewing,brewpub,112 State St Ste 1A,,,Peoria,Illinois,,61602-5121,,3093601980,2018-07-24 01:33:18,2018-08-11 21:37:08,United States,,,
industry-brewing,Industry Brewing,brewpub,8012 N Hale Ave,,,Peoria,Illinois,,61615-2050,http://www.spicehospgroup.com,3098392930,2018-07-24 01:33:19,2018-08-24 00:31:19,United States,-89.60764563,40.78613406,
john-s-rhodell-brewery,John S. Rhodell Brewery,micro,100 Walnut St Ste 111,,,Peoria,Illinois,,61602-1544,http://www.rhodellbrewery.com,3099661047,2018-07-24 01:33:19,2018-08-11 21:37:13,United States,,,
obed-and-isaacs-microbrewery-and-eatery-peoria,Obed & Isaac's Microbrewery and Eatery - Peoria,brewpub,321 NE Madison Ave,,,Peoria,Illinois,,61603,,3093060190,2018-07-24 01:33:20,2018-08-24 00:31:42,United States,-89.58865914,40.69577241,
hand-of-fate-brewing-co,Hand of Fate Brewing Co,micro,107 E Douglas Ave,,,Petersburg,Illinois,,62675-1558,http://www.handoffatebrewing.beer,2176911098,2018-07-24 01:33:19,2018-08-24 00:31:12,United States,-89.92105943,38.59194278,
midnight-pig-beer,Midnight Pig Beer,brewpub,12337 S Route 59 Unit 155,,,Plainfield,Illinois,,60585-4614,http://www.nevinsdraftco.com,8154363900,2018-07-24 01:33:20,2018-08-11 21:37:14,United States,,,
werk-force-brewing-co,Werk Force Brewing Co,micro,14903 S Center St # 107,,,Plainfield,Illinois,,60544-2177,http://www.werkforcebrewing.com,8155315557,2018-07-24 01:33:21,2018-08-11 21:37:17,United States,,,
ogriffs-grill-and-brewhouse,O'Griffs Grill & Brewhouse,brewpub,415 Hampshire St,,,Quincy,Illinois,,62301-2931,,2172242002,2018-07-24 01:33:20,2018-08-24 00:31:44,United States,-91.40876529,39.93330414,
lieferbrau-brewery-llc,Lieferbrau Brewery LLC,micro,118 East Market Street,,,Red Bud,Illinois,,62278,,6185348477,2018-07-24 01:33:20,2018-08-24 00:31:26,United States,-89.99352327,38.21165627,
brewery-in-planning-riverside,Brewery in Planning - RIVERSIDE,planning,,,,Riverside,Illinois,,60546-2336,,,2018-07-24 01:33:18,2018-08-11 21:37:09,United States,,,
bent-river-brewing-co-production-and-tasting-room,Bent River Brewing Co Production & Tasting Room,micro,512 24th St,,,Rock Island,Illinois,,61201-8928,http://www.bentriverbrewery.com,3092834811,2018-07-24 01:33:18,2018-08-24 00:30:33,United States,-90.5669283,41.5076339,
blue-cat-brew-pub,Blue Cat Brew Pub,brewpub,113 18th St,,,Rock Island,Illinois,,61201-8708,http://www.bluecatbrewpub.com,3097888247,2018-07-24 01:33:18,2018-08-24 00:30:36,United States,-90.5145797,41.51094347,
radicle-effect-brewerks,Radicle Effect Brewerks,micro,1340 31st St,,,Rock Island,Illinois,,61201-2949,http://www.rebrewerks.com,3092837605,2018-07-24 01:33:20,2018-08-24 00:31:55,United States,-90.55595294,41.49803483,
wake-brewing,Wake Brewing,micro,2529 5th Ave,,,Rock Island,Illinois,,61201,http://www.wakebrewing.com,3095580878,2018-07-24 01:33:21,2018-08-24 00:32:21,United States,-90.50132856,41.51035669,
carlyle-brewing-co,Carlyle Brewing Co,brewpub,215 E State St,,,Rockford,Illinois,,61104-1010,http://www.carlylebrewing.com,8159632739,2018-07-24 01:33:19,2018-08-24 00:30:42,United States,-89.09053,42.2689989,
granite-city-food-and-brewery-#19,Granite City Food & Brewery (#19),brewpub,7144 Harrison Ave Ste 108,,,Rockford,Illinois,,61112-,,8153327070,2018-07-24 01:33:19,2018-08-24 00:31:07,United States,-89.0966204,42.2377268,
prairie-street-brewing-co,Prairie Street Brewing Co.,brewpub,200 Prairie St Ste 203,,,Rockford,Illinois,,61107-3967,http://www.psbrewingco.com,,2018-07-24 01:33:20,2018-08-24 00:31:54,United States,-89.08765799999998,42.273033,
metal-monkey-brewing-llc,Metal Monkey Brewing LLC,micro,515 Anderson Dr Ste 900,,,Romeoville,Illinois,,60446-1494,http://www.metalmonkeybrewing.com,8155243139,2018-07-24 01:33:20,2018-08-24 00:31:33,United States,-88.07788064,41.6450575,
ryan-brewing-company,Ryan Brewing Company,micro,5312 Williams Dr,,,Roscoe,Illinois,,61073,http://www.ryanbrewingcompany.com,8152701223,2018-07-24 01:33:21,2018-08-24 00:32:04,United States,-89.01015782,42.4211214,
hofbrauhaus-chicago,Hofbrauhaus Chicago,brewpub,5500 Park Pl,,,Rosemont,Illinois,,60018-3730,http://www.hofbrauhauschicago.com,8476712739,2018-07-24 01:33:19,2018-08-11 21:37:12,United States,,,
strikhedonia-brewing-company-llc,Strikhedonia Brewing Company LLC,planning,,,,Saint Charles,Illinois,,60174-4591,,,2018-07-24 01:33:21,2018-08-11 21:37:16,United States,,,
pizza-beer-company,Pizza Beer Company,contract,5N404 Harvest Ln,,,Saint Charles,Illinois,,60175-8242,http://www.pizzabeer.net,6303776888,2018-07-24 01:33:20,2018-08-11 21:37:15,United States,,,
triptych-brewing,Triptych Brewing,micro,1703 Woodfield Dr,,,Savoy,Illinois,,61874-9504,http://www.triptychbrewing.com,2176071176,2018-07-24 01:33:21,2018-08-24 00:32:17,United States,-88.24927593,40.0768564,
granite-city-food-and-brewery-#31,Granite City Food & Brewery (#31),brewpub,801 N Plaza Dr,,,Schaumburg,Illinois,,60173-4919,http://www.gcfb.net,6305235700,2018-07-24 01:33:19,2018-08-11 21:37:12,United States,,,
ram-restaurant-and-brewery-schaumburg,RAM Restaurant and Brewery - Schaumburg,brewpub,1901 McConnor Pkwy,,,Schaumburg,Illinois,,60173-4389,http://www.theram.com,8475178791,2018-07-24 01:33:20,2018-08-11 21:37:15,United States,,,
short-fuse-brewing-company,Short Fuse Brewing Company,brewpub,5000 River Rd,,,Schiller Park,Illinois,,60176-1021,http://www.shortfusebrewing.com,8472605044,2018-07-24 01:33:21,2018-08-11 21:37:16,United States,,,
will-county-brewing-company,Will County Brewing Company,micro,1142 W Jefferson St,,,Shorewood,Illinois,,60404-0703,http://www.willcountybrew.com,8155824157,2018-07-24 01:33:21,2018-08-24 00:32:23,United States,-88.20870656,41.521524,
lucky-monk-burger-pizza-and-beer-co,"Lucky Monk Burger, Pizza & Beer Co",brewpub,105 Hollywood Blvd,,,South Barrington,Illinois,,60010-7121,http://www.theluckymonk.com,8478980500,2018-07-24 01:33:20,2018-08-11 21:37:13,United States,,,
off-kilter-brewing,Off-Kilter Brewing,micro,15810 Carbrey Ave,,,South Beloit,Illinois,,61080,http://www.OffKilterBrewing.com,,2018-07-24 01:33:20,2018-08-24 00:31:43,United States,-89.06082453,42.48966938,
9th-hour-brewing-company-llc,9th Hour Brewing Company LLC,planning,,,,Spring Grove,Illinois,,60081-9459,,,2018-07-24 01:33:18,2018-08-11 21:37:08,United States,,,
engrained-brewing-co,Engrained Brewing Co,brewpub,1120 W Lincolnshire Blvd,,,Springfield,Illinois,,62711-6445,http://www.engrainedbrewing.com,2175463054,2018-07-24 01:33:19,2018-08-24 00:30:55,United States,-89.6914854,39.74819520000001,
obed-and-isaacs,Obed & Isaac's,micro,500 S 6th St,,,Springfield,Illinois,,62701-1810,http://www.connhospitalitygroup.com,2176700627,2018-07-24 01:33:20,2018-08-24 00:31:41,United States,-89.647885,39.797079,
buzz-bomb-brewing-co,Buzz Bomb Brewing Co,micro,406 E Adams St,,,Springfield,Illinois,,62701,http://www.buzzbombbrewingco.com,2176794157,2018-07-24 01:33:18,2018-08-24 00:30:41,United States,-89.65050394,39.8005279,
timotheus-brothers-brewery,Timotheus Brothers Brewery,micro,2708 N Peoria Rd,,,Springfield,Illinois,,62702-1248,,2179710027,2018-07-24 01:33:21,2018-08-24 00:32:15,United States,-89.63092440000001,39.846853,
forge-brewhouse,Forge Brewhouse,brewpub,1330 E State St,,,Sycamore,Illinois,,60178-9580,,,2018-07-24 01:33:19,2018-08-24 00:31:00,United States,-88.66048,41.98478400000001,
5770-brewery,5770 Brewery,micro,303A W Main St,,,Teutopolis,Illinois,,62467-1355,http://www.5770brewery.com,6183397841,2018-07-24 01:33:18,2018-08-24 00:30:25,United States,-88.47806652,39.13142194,
350-brewing-co,350 Brewing Co,brewpub,7144 183rd St,,,Tinley Park,Illinois,,60477-3933,http://www.350brewing.com,7088257339,2018-07-24 01:33:18,2018-08-24 00:30:22,United States,-87.79160288,41.55864726,
hailstorm-brewing-company,HailStorm Brewing Company,micro,8060 186th St,,,Tinley Park,Illinois,,60487-9215,http://www.hailstormbrewing.com,6306317173,2018-07-24 01:33:19,2018-08-24 00:31:10,United States,-87.81356158,41.55317823,
soundgrowler-brewing-co,Soundgrowler Brewing Co.,brewpub,8201 183rd St Ste P,,,Tinley Park,Illinois,,60487-9377,http://www.soundgrowler.com,7082630083,2018-07-24 01:33:21,2018-08-11 21:37:16,United States,,,
riggs-beer-company,Riggs Beer Company,micro,1901 S High Cross Rd,,,Urbana,Illinois,,61802-7843,http://www.riggsbeer.com,2177185345,2018-07-24 01:33:20,2018-08-24 00:32:00,United States,-88.16245188,40.09367288,
lunar-brewing-co,Lunar Brewing Co,proprietor,54 E Saint Charles Rd,,,Villa Park,Illinois,,60181-2434,http://www.mypsace.com/LunaRbrewingco,6305302077,2018-07-24 01:33:20,2018-08-24 00:31:30,United States,-87.97720306,41.88987006,
more-brewing-co,More Brewing Co,brewpub,126 S Villa Ave,,,Villa Park,Illinois,,60181-2653,http://Www.morebrewing.com,7735517506,2018-07-24 01:33:20,2018-08-24 00:31:37,United States,-87.969272,41.891984,
rock-bottom-brewery-warrenville,Rock Bottom Brewery - Warrenville,brewpub,28256 Diehl Rd,,,Warrenville,Illinois,,60555-3835,http://www.rockbottom.com,6308361380,2018-07-24 01:33:21,2018-08-11 21:37:15,United States,,,
two-brothers-brewing-co,Two Brothers Brewing Co,regional,30W315 Calumet Ave W,,,Warrenville,Illinois,,60555-1565,http://www.TwoBrothersBrewing.com,6303934800,2018-07-24 01:33:21,2018-08-11 21:37:17,United States,,,
hopskeller-brewing-company,Hopskeller Brewing Company,brewpub,116 E 3rd St,,,Waterloo,Illinois,,62298-1608,http://www.hopskeller.com,6189392337,2018-07-24 01:33:19,2018-08-24 00:31:16,United States,-90.14850267,38.33521743,
stubborn-german-brewing-co,Stubborn German Brewing Co,micro,119 S Main St,,,Waterloo,Illinois,,62298-1323,http://www.stubborngermanbrewing.com,6185042444,2018-07-24 01:33:21,2018-08-24 00:32:11,United States,-90.15032876,38.33531994,
side-lot-brewery,Side Lot Brewery,micro,110 Slocum Lake Rd,,,Wauconda,Illinois,,60084-1883,http://www.sidelotbrewing.com,8478650281,2018-07-24 01:33:21,2018-08-24 00:32:06,United States,-88.14526776,42.26078912,
small-town-brewery,Small Town Brewery,large,1000 N Rand Rd Ste 204,,,Wauconda,Illinois,,60084-1182,,3142768277,2018-07-24 01:33:21,2018-08-11 21:37:16,United States,,,
zum-bier,Zum Bier,micro,3232 E Monroe St,,,Waukegan,Illinois,,60085,http://www.zumbier.com,8474207313,2018-07-24 01:33:21,2018-08-11 21:37:17,United States,,,
emmetts-brewing-co-west-dundee,Emmett's Brewing Co - West Dundee,brewpub,128 W Main St,,,West Dundee,Illinois,,60118-2017,http://www.emmettsbrewingco.com,8474284500,2018-07-24 01:33:19,2018-08-24 00:30:53,United States,-88.2784177,42.0984146,
belly-up-beer-company,Belly Up Beer Company,micro,,,,Western Springs,Illinois,,60558,http://www.bellyupbeer.com,7088379762,2018-07-24 01:33:18,2018-08-11 21:37:08,United States,,,
myths-and-legends-brewing-company,Myths and Legends Brewing Company,micro,1115 Zygmunt Cir,,,Westmont,Illinois,,60559-2684,http://www.mythsandlegendsbeer.com,6304427864,2018-07-24 01:33:20,2018-08-24 00:31:39,United States,-87.9817647,41.7763011,
51st-ward-beer-company,51st Ward Beer Company,contract,323 N Washington St,,,Westmont,Illinois,,60559-1512,,7732205899,2018-07-24 01:33:18,2018-08-24 00:30:24,United States,-87.981157,41.804494,
emmetts-brewing-co-wheaton,Emmett's Brewing Co - Wheaton,brewpub,121 W Front St,,,Wheaton,Illinois,,60187-5108,http://www.emmettsbrewingco.com,6303832020,2018-07-24 01:33:19,2018-08-24 00:30:54,United States,-88.10705232,41.86494217,
dry-city-brew-works,Dry City Brew Works,micro,120B N Main St,,,Wheaton,Illinois,,60187-,http://www.drycitybrewworks.com,6304564787,2018-07-24 01:33:19,2018-08-24 00:30:50,United States,-88.10695940000002,41.86544335,
ram-restaurant-and-brewery-wheeling,RAM Restaurant and Brewery - Wheeling,brewpub,700 N Milwaukee Ave,,,Wheeling,Illinois,,60090-3026,http://www.theram.com,8475201222,2018-07-24 01:33:20,2018-08-24 00:31:56,United States,-87.9155543,42.1541156,
imperial-oak-brewing-co,Imperial Oak Brewing Co,micro,501 Willow Blvd Ste 108,,,Willow Springs,Illinois,,60480-1710,http://www.imperialoakbrewing.com,7083305096,2018-07-24 01:33:19,2018-08-24 00:31:18,United States,-87.879257,41.73187,
black-horizon-brewing-company,Black Horizon Brewing Company,micro,7560 S Quincy St,,,Willowbrook,Illinois,,60527-5545,http://www.blackhorizonbrewing.com,6304134964,2018-07-24 01:33:18,2018-08-11 21:37:08,United States,,,
burning-bush-brewery,Burning Bush Brewery,planning,,,,Wilmette,Illinois,,60091-2703,,,2018-07-24 01:33:18,2018-08-11 21:37:09,United States,,,
skeleton-key-brewery,Skeleton Key Brewery,micro,8102 Lemont Rd Ste 300,,,Woodridge,Illinois,,60517-7764,http://www.skeletonkeybrewery.com,6303959033,2018-07-24 01:33:21,2018-08-11 21:37:16,United States,,,
shadowview-brewing,ShadowView Brewing,planning,,,,Woodstock,Illinois,,60098-6911,http://www.shadowviewbrewing.com,8477779323,2018-07-24 01:33:21,2018-08-11 21:37:16,United States,,,