id,name,brewery_type,street,address_2,address_3,city,state,county_province,postal_code,website_url,phone,created_at,updated_at,country,longitude,latitude,tags
railhouse-brewery,Railhouse Brewery,micro,105 E South St Unit C,,,Aberdeen,North Carolina,,28315-,http://www.railhousebrewery.com,9107835280,2018-07-24 01:33:58,2018-08-11 21:38:52,United States,,,
quick-trigger-brewing-company,Quick Trigger Brewing Company,brewpub,118 Main St W,,,Ahoskie,North Carolina,,27910-3302,http://www.quicktriggerbrewing.com,2523326844,2018-07-24 01:33:58,2018-08-24 15:42:31,United States,-76.9863065,36.2857593,
hoppy-trout-brewing-company,Hoppy Trout Brewing Company,brewpub,911 Main St,,,Andrews,North Carolina,,28901-7087,http://www.hoppytroutbrewing.com,8288352111,2018-07-24 01:33:57,2018-08-24 15:41:58,United States,-83.8165709,35.2016188,
andrews-brewing-co-at-calaboose-cellars,Andrews Brewing Co At Calaboose Cellars,micro,575 Aquone Rd,,,Andrews,North Carolina,,28901-7004,http://www.calaboosecellars.com,8283212006,2018-07-24 01:33:55,2018-08-24 15:40:59,United States,-83.81487799,35.19958164,
franklin-brewing-company-llc,"Franklin Brewing Company, LLC",planning,,,,Angier,North Carolina,,27501-6094,http://www.franklin-brewing.com,,2018-07-24 01:33:56,2018-08-11 21:38:48,United States,,,
vicious-fishes-brewery,Vicious Fishes Brewery,micro,219 Fish Dr,,,Angier,North Carolina,,27501-6077,http://www.viciousfishes.com,9196393369,2018-07-24 01:33:59,2018-08-24 15:43:01,United States,-78.749408,35.507541,
southern-peak-brewery,Southern Peak Brewery,micro,950 Windy Rd Ste 100,,,Apex,North Carolina,,27502-2410,http://www.southernpeakbrewery.com,9192084515,2018-07-24 01:33:58,2018-08-24 15:42:42,United States,-78.8439995,35.7461806,
brueprint-brewing-company-llc,Brueprint Brewing Company LLC,micro,1229 Perry Rd Ste 101,,,Apex,North Carolina,,27502-6898,http://www.brueprint.com,9199718846,2018-07-24 01:33:56,2018-08-24 15:41:22,United States,-78.85014375,35.70884819,
wicked-weed-funkatorium,Wicked Weed Funkatorium,large,95 Old Shoals Rd,,,Arden,North Carolina,,28704-9401,http://www.wickedweedbrewing.com,8285759599,2018-07-24 01:33:59,2018-08-24 15:43:07,United States,-82.52495553,35.4674064,
mills-river-brewery,Mills River Brewery,brewpub,330 Rockwood Rd Ste 103,,,Arden,North Carolina,,28704-8216,http://www.millsriverbrewery.net,8285852396,2018-07-24 01:33:57,2018-08-11 21:38:50,United States,,,
wicked-weed-funk-house,Wicked Weed Funk House,large,95 Old Shoals Rd,,,Arden,North Carolina,,28704-9401,http://www.wickedweedbrewing.com,,2018-07-24 01:33:59,2018-08-24 15:43:07,United States,-82.52495553,35.4674064,
four-saints-brewing,Four Saints Brewing,micro,218 S Fayetteville St,,,Asheboro,North Carolina,,27203-5725,http://www.foursaintsbrewing.com,3366103722,2018-07-24 01:33:56,2018-08-24 15:41:43,United States,-79.81447771,35.70368557,
archetype-brewing,Archetype Brewing,micro,265 Haywood Rd,,,Asheville,North Carolina,,28806-4545,http://www.archetypebrewing.com,8285054177,2018-07-24 01:33:55,2018-08-11 21:38:45,United States,,,
biltmore-brewing-company,Biltmore Brewing Company,proprietor,1 N Pack Sq C/O Biltmore Winery Estates,,,Asheville,North Carolina,,28801-3462,http://www.biltmore.com,8004113812,2018-07-24 01:33:55,2018-08-11 21:38:45,United States,,,
asheville-brewing-co,Asheville Brewing Co,brewpub,77 Coxe Ave,,,Asheville,North Carolina,,28801-3621,http://www.ashevillepizza.com,8282554077,2018-07-24 01:33:55,2018-08-24 15:41:00,United States,-82.55530545,35.5917763,
bens-tune-up-/-bens-beer,Ben's Tune-Up / Ben's Beer,brewpub,195 Hilliard Ave,,,Asheville,North Carolina,,28801-3616,http://www.benstuneup.com,8284247580,2018-07-24 01:33:55,2018-08-24 15:41:05,United States,-82.5557931,35.5912756,
bhramari-brewhouse,Bhramari Brewhouse,micro,101 S Lexington Ave,,,Asheville,North Carolina,,28801-3309,http://www.bhramaribrewing.com,8282147981,2018-07-24 01:33:55,2018-08-24 15:41:06,United States,-82.55191879,35.59166763,
burial-beer-co-forestry-camp,Burial Beer Co Forestry Camp,micro,,,,Asheville,North Carolina,,28803-2719,,,2018-07-24 01:33:56,2018-08-11 21:38:47,United States,,,
catawba-brewing-co-asheville,Catawba Brewing Co - Asheville,micro,63 Brook St Ste 1,,,Asheville,North Carolina,,28803-2685,http://www.catawbavalleybrewingcompany.com,8284247290,2018-07-24 01:33:56,2018-08-11 21:38:47,United States,,,
burial-beer-co,Burial Beer Co,micro,40 Collier Ave,,,Asheville,North Carolina,,28801-4024,http://www.burialbeer.com,,2018-07-24 01:33:56,2018-08-24 15:41:23,United States,-82.55379062,35.5879562,
green-man-brewing-co,Green Man Brewing Co,micro,27 Buxton Ave,,,Asheville,North Carolina,,28801-4019,http://www.greenmanbrewery.com,8282525502,2018-07-24 01:33:56,2018-08-24 15:41:50,United States,-82.55367153,35.5886249,
habitat-brewing-co,Habitat Brewing Co,micro,174 Broadway St,,,Asheville,North Carolina,,28801-2305,http://www.habitatbrewing.com,7047018141,2018-07-24 01:33:56,2018-08-24 15:41:51,United States,-82.5533973,35.5986648,
hillman-beer,Hillman Beer,brewpub,25 Sweeten Creek Rd,,,Asheville,North Carolina,,28803-2318,http://www.hillmanbeer.com,8285051312,2018-07-24 01:33:57,2018-08-24 15:41:55,United States,-82.52063100000002,35.51391029999999,
hi-wire-brewing-big-top-production-facility,Hi-Wire Brewing Big Top Production Facility,micro,2 Huntsman Pl,,,Asheville,North Carolina,,28803-2600,http://www.hiwirebrewing.com,,2018-07-24 01:33:57,2018-08-24 15:41:55,United States,-82.54566311,35.57020551,
hi-wire-brewing-south-slope-specialty-brewery,Hi-Wire Brewing South Slope Specialty Brewery,micro,197 Hilliard Ave,,,Asheville,North Carolina,,28801-3616,http://www.hiwirebrewing.com,8285759675,2018-07-24 01:33:57,2018-08-24 15:41:56,United States,-82.55603747,35.5912315,
lexington-avenue-brewery-the-lab,Lexington Avenue Brewery - The LAB,brewpub,39 N Lexington Ave,,,Asheville,North Carolina,,28801-2827,http://www.lexavebrew.com,8282520212,2018-07-24 01:33:57,2018-08-24 15:42:06,United States,-82.5532489,35.5961485,
one-world-brewing,One World Brewing,micro,10 Patton Ave Ste 002,,,Asheville,North Carolina,,28801-3302,http://www.oneworldbrewing.com,8287855580,2018-07-24 01:33:58,2018-08-11 21:38:51,United States,,,
new-belgium-brewing-co,New Belgium Brewing Co,regional,21 Craven St,,,Asheville,North Carolina,,28806-,http://www.newbelgium.com,8885989552,2018-07-24 01:33:57,2018-08-24 15:42:19,United States,-82.57194293,35.5879302,
sweeten-creek-brewing,Sweeten Creek Brewing,brewpub,1127 Sweeten Creek Rd,,,Asheville,North Carolina,,28803-1728,http://www.sweetencreekbrewing.com,8285752785,2018-07-24 01:33:58,2018-08-24 15:42:47,United States,-82.52063100000002,35.51391029999999,
upcountry-brewing,UpCountry Brewing,brewpub,1042 Haywood Rd,,,Asheville,North Carolina,,28806-2639,http://upcountrybrewing.com/,8285752400,2018-07-24 01:33:59,2018-08-11 21:38:54,United States,,,
twin-leaf-brewery,Twin Leaf Brewery,micro,144 Coxe Ave,,,Asheville,North Carolina,,28801-4026,http://www.twinleafbrewery.com,8283332221,2018-07-24 01:33:59,2018-08-24 15:42:58,United States,-82.55454185,35.58942485,
wedge-brewing-co,Wedge Brewing Co,micro,37 Paynes Way Ste 100,,,Asheville,North Carolina,,28801-2626,http://www.wedgebrewing.com,8285052792,2018-07-24 01:33:59,2018-08-24 15:43:02,United States,-82.56659201,35.5865571,
white-labs-kitchen-and-tap,White Labs Kitchen and Tap,brewpub,172 S Charlotte St,,,Asheville,North Carolina,,28801,,8289743868,2018-07-24 01:33:59,2018-08-24 15:43:05,United States,-82.5490695,35.5911334,
brouwerij-cursus-keme,Brouwerij Cursus Keme,brewpub,155 Thompson St,,,Asheville,North Carolina,,28803-1443,,,2018-07-24 01:33:56,2018-08-24 15:41:21,United States,-82.52572837,35.57438843,
french-broad-river-brewing-co,French Broad River Brewing Co,micro,101 Fairview Rd Ste D,,,Asheville,North Carolina,,28803-4301,http://www.frenchbroadbrewery.com,8282770222,2018-07-24 01:33:56,2018-08-11 21:38:48,United States,,,
highland-brewing-co,Highland Brewing Co,regional,12 Old Charlotte Hwy Ste H,,,Asheville,North Carolina,,28803-9419,http://www.highlandbrewing.com,8282993816,2018-07-24 01:33:57,2018-08-11 21:38:49,United States,,,
oyster-house-brewing-co,Oyster House Brewing Co.,brewpub,625 Haywood Rd,,,Asheville,North Carolina,,28806-3255,http://www.oysterhousebeers.com,8285759370,2018-07-24 01:33:58,2018-08-11 21:38:51,United States,,,
thirsty-monk-brewery,Thirsty Monk Brewery,brewpub,92 Patton Ave,,,Asheville,North Carolina,,28801-3315,http://www.monkpub.com,8282545470,2018-07-24 01:33:58,2018-08-24 15:42:51,United States,-82.55531475,35.59410425,
wicked-weed-brewing,Wicked Weed Brewing,large,91 Biltmore Ave,,,Asheville,North Carolina,,28801-3626,http://www.wickedweedbrewing.com,8285759599,2018-07-24 01:33:59,2018-08-24 15:43:06,United States,-82.55106832,35.59167120000001,
flat-top-mountain-brewery,Flat Top Mountain Brewery,micro,567 Main St E,,,Banner Elk,North Carolina,,28604-8974,http://www.flattopbrew.com,8288988677,2018-07-24 01:33:56,2018-08-24 15:41:40,United States,-81.86657602,36.16510256,
bear-creek-brews,Bear Creek Brews,micro,10538 Nc 902 Hwy,,,Bear Creek,North Carolina,,27207-9269,http://www.bearcreekbrews.com,9192003930,2018-07-24 01:33:55,2018-08-11 21:38:45,United States,,,
mill-whistle-brewing,Mill Whistle Brewing,micro,1354 Lennoxville Rd,,,Beaufort,North Carolina,,28616,,,2018-07-24 01:33:57,2018-08-24 15:42:13,United States,-76.65042934,34.71738799,
beech-mountain-brewing-company,Beech Mountain Brewing Company,micro,1007 Beech Mountain Pkwy,,,Beech Mountain,North Carolina,,28604-8018,http://www.beechmountainresort.com,8283872011,2018-07-24 01:33:55,2018-08-24 15:41:05,United States,-81.873356,36.16819584,
brewery-in-planning-belmont,Brewery in Planning - Belmont,planning,,,,Belmont,North Carolina,,28012-8868,,7048272299,2018-07-24 01:33:55,2018-08-11 21:38:46,United States,,,
rivermen-brewing-co,Rivermen Brewing Co,brewpub,1500 River Dr,,,Belmont,North Carolina,,28012-3586,http://www.rivermenbrewingcompany.com,7043634698,2018-07-24 01:33:58,2018-08-24 15:42:34,United States,-81.015546,35.240249,
york-chester-brewing-company,York Chester Brewing Company,micro,1500 River Dr Ste 250,,,Belmont,North Carolina,,28012-3587,http://www.yorkchesterbrew.com,7047555104,2018-07-24 01:33:59,2018-08-11 21:38:54,United States,,,
pisgah-brewing-co,Pisgah Brewing Co,micro,150 Eastside Dr,,,Black Mountain,North Carolina,,28711-8208,http://www.pisgahbrewing.com,8286690190,2018-07-24 01:33:58,2018-08-24 15:42:29,United States,-82.35826,35.6079376,
lookout-brewing-company,Lookout Brewing Company,micro,103 S Ridgeway Ave,,,Black Mountain,North Carolina,,28711-3550,http://www.lookoutbrewing.com,8283575169,2018-07-24 01:33:57,2018-08-24 15:42:08,United States,-82.31794593,35.619217,
blowing-rock-brewing-company,Blowing Rock Brewing Company,brewpub,152 Sunset Dr,,,Blowing Rock,North Carolina,,28605-7205,http://www.blowingrockbrewing.com,8284149600,2018-07-24 01:33:55,2018-08-24 15:41:11,United States,-81.677229,36.1327196,
appalachian-mountain-brewery-boone,Appalachian Mountain Brewery - Boone,micro,163 Boone Creek Dr,,,Boone,North Carolina,,28607-7911,http://www.appalachianmountainbrewery.com,8282631111,2018-07-24 01:33:55,2018-08-24 15:41:00,United States,-81.668461,36.2033414,
booneshine-brewing-company,Booneshine Brewing Company,micro,465 Industrial Park Dr.,,,Boone,North Carolina,,28607,http://www.booneshine.beer,8282634305,2018-07-24 01:33:55,2018-08-24 15:41:15,United States,-81.645208,36.222104,
ivory-tower-brewery,Ivory Tower Brewery,planning,,,,Boone,North Carolina,,28608-0001,http://ivorytowerscience.com,8282627847,2018-07-24 01:33:57,2018-08-11 21:38:49,United States,,,
lost-province-brewing-company-llc,"Lost Province Brewing Company, LLC",brewpub,130 N. Depot Street PO Box 614,,,Boone,North Carolina,,28607-3603,http://www.lostprovince.com,8282653506,2018-07-24 01:33:57,2018-08-11 21:38:50,United States,,,
oskar-blues-brewery-brevard,Oskar Blues Brewery - Brevard,regional,342 Mountain Industrial Dr,,,Brevard,North Carolina,,28712-5122,http://www.oskarblues.com,3037760724,2018-07-24 01:33:58,2018-08-24 15:42:26,United States,-82.7069595,35.2536956,
brevard-brewing-co,Brevard Brewing Co,micro,63 E Main St,,,Brevard,North Carolina,,28712-3746,http://www.brevard-brewing.com,,2018-07-24 01:33:55,2018-08-24 15:41:17,United States,-82.7303593,35.2319789,
peaks-and-creeks-brewing-company,Peaks and Creeks Brewing Company,micro,212 King St Ste B,,,Brevard,North Carolina,,28712,http://www.brevardlumberyard.com,8285504765,2018-07-24 01:33:58,2018-08-11 21:38:51,United States,,,
mountain-layers-brewing-company,Mountain Layers Brewing Company,micro,90 Everett Street,,,Bryson City,North Carolina,,28713,http://www.mtnlayersbeer.com,8285380115,2018-07-24 01:33:57,2018-08-24 15:42:15,United States,-83.44602900000002,35.428795,
nantahala-brewing-co,Nantahala Brewing Co,micro,61 Depot Street,,,Bryson City,North Carolina,,28713-0483,http://www.nantahalabrewing.com,8287886185,2018-07-24 01:33:57,2018-08-24 15:42:16,United States,-83.446278,35.4311525,
homeplace-beer-co,Homeplace Beer Co,micro,6 South Main Street Area C,,,Burnsville,North Carolina,,28714,http://www.homeplacebeer.com,8285365147,2018-07-24 01:33:57,2018-08-11 21:38:49,United States,,,
wicked-weed-brewing,Wicked Weed Brewing,large,145 Jacob Holme Way,,,Candler,North Carolina,,28715-0209,http://www.wickedweedbrewing.com,4846789424,2018-07-24 01:33:59,2018-08-11 21:38:54,United States,,,
bearwaters-brewing-co,BearWaters Brewing Co,brewpub,101 Park St,,,Canton,North Carolina,,28716-4319,http://www.bwbrewing.com,8282734200,2018-07-24 01:33:55,2018-08-24 15:41:05,United States,-82.843001,35.53137,
good-hops-brewing-llc,Good Hops Brewing LLC,micro,811 Harper Ave,,,Carolina Beach,North Carolina,,28428-4202,http://www.goodhopsbrewing.com,7067131594,2018-07-24 01:33:56,2018-08-24 15:41:49,United States,-77.9038204,34.04080721,
dingo-dog-brewing-co,Dingo Dog Brewing Co,micro,,,,Carrboro,North Carolina,,27510,http://www.dingodogbrewing.com,9198859793,2018-07-24 01:33:56,2018-08-11 21:38:47,United States,,,
vecino-brewing,Vecino Brewing,brewpub,300 E Main St,,,Carrboro,North Carolina,,27510-2359,http://www.vecinobrewing.com,9196495101,2018-07-24 01:33:59,2018-08-24 15:43:00,United States,-79.0689722,35.9100127,
steel-string-craft-brewery,Steel String Craft Brewery,brewpub,106 S Greensboro St Ste A,,,Carrboro,North Carolina,,27510-2266,http://www.steelstringbrewery.com,9192407215,2018-07-24 01:33:58,2018-08-11 21:38:53,United States,,,
bond-brothers-beer-company,Bond Brothers Beer Company,micro,202 E Cedar St,,,Cary,North Carolina,,27511-3440,http://www.bondbrothersbeer.com,9194592670,2018-07-24 01:33:55,2018-08-24 15:41:13,United States,-78.77797444,35.78798475,
fortnight-brewing-company,Fortnight Brewing Company,micro,211 Powers Ferry Rd,,,Cary,North Carolina,,27519-1510,http://www.fortnightbrewing.com,9194340742,2018-07-24 01:33:56,2018-08-24 15:41:43,United States,-78.91133714,35.80576231,
jordan-lake-brewing-co,Jordan Lake Brewing Co,micro,320 E Durham Rd,,,Cary,North Carolina,,27513-4043,http://jordanlakebrewing.com,9196945096,2018-07-24 01:33:57,2018-08-24 15:42:01,United States,-78.77537897,35.79022306,
carolina-brewery-chapel-hill,Carolina Brewery - Chapel Hill,brewpub,460 W Franklin St,,,Chapel Hill,North Carolina,,27516,http://www.carolinabrewery.com,9199421800,2018-07-24 01:33:56,2018-08-24 15:41:24,United States,-79.0627304,35.9106269,
starpoint-brewing-llc,"Starpoint Brewing, LLC",micro,901 Clarence Dr,,,Chapel Hill,North Carolina,,27516-3145,http://starpointbrewing.com,9195232302,2018-07-24 01:33:58,2018-08-11 21:38:53,United States,,,
starpoint-brewing-llc-/-beer-study,"Starpoint Brewing, LLC / Beer Study",micro,2501 University Dr Ste 4,,,Chapel Hill,North Carolina,,22707,http://www.drinkdurham.com,9842197538,2018-07-24 01:33:58,2018-08-11 21:38:53,United States,,,
top-of-the-hill-restaurant-and-brewery,Top Of The Hill Restaurant and Brewery,brewpub,100 E Franklin St Ste F,,,Chapel Hill,North Carolina,,27514-3629,http://www.thetopofthehill.com,9199298676,2018-07-24 01:33:59,2018-08-11 21:38:53,United States,,,
sugar-creek-brewing-co,Sugar Creek Brewing Co.,micro,215 Southside Dr,,,Charlotte,North Carolina,,28217-1727,http://www.sugarcreekbrewing.com,7044082021,2018-07-24 01:33:58,2018-08-24 15:42:46,United States,-80.88045065,35.18571693,
brewers,Brewers,planning,,,,Charlotte,North Carolina,,28217,,,2018-07-24 01:33:55,2018-08-11 21:38:46,United States,,,
birdsong-brewing-co,Birdsong Brewing Co.,micro,1016 N Davidson St,,,Charlotte,North Carolina,,28206-3371,http://www.birdsongbrewing.com,7043321810,2018-07-24 01:33:55,2018-08-24 15:41:09,United States,-80.82704272,35.23060753,
catawba-brewing-co-charlotte,Catawba Brewing Co - Charlotte,micro,933 Louise Ave Ste 105,,,Charlotte,North Carolina,,28204-2299,,9804986145,2018-07-24 01:33:56,2018-08-11 21:38:47,United States,,,
blue-blaze-brewing,Blue Blaze Brewing,micro,528 S Turner Ave,,,Charlotte,North Carolina,,28208-4259,http://www.blueblazebrewing.com,9808592586,2018-07-24 01:33:55,2018-08-24 15:41:11,United States,-80.86710843,35.24138809,
bold-missy-brewery,Bold Missy Brewery,brewpub,610 Anderson St,,,Charlotte,North Carolina,,28205-1208,http://www.boldmissybrewery.com,9802994184,2018-07-24 01:33:55,2018-08-24 15:41:13,United States,-80.796429,35.24960852,
divine-barrel-brewing,Divine Barrel Brewing,micro,3701 N Davidson St Ste 203,,,Charlotte,North Carolina,,28205-1303,http://www.divinebarrel.com,9802371803,2018-07-24 01:33:56,2018-08-11 21:38:47,United States,,,
free-range-brewing,Free Range Brewing,micro,2320 N Davidson St Unit D,,,Charlotte,North Carolina,,28205-1832,http://www.freerangebrewing.com,9802019096,2018-07-24 01:33:56,2018-08-11 21:38:48,United States,,,
heist-brewery,Heist Brewery,brewpub,2909 N Davidson St,,,Charlotte,North Carolina,,28205-1190,http://www.heistbrewery.com,7043758260,2018-07-24 01:33:57,2018-08-24 15:41:52,United States,-80.80904551,35.2451928,
hyde-brewing,Hyde Brewing,brewpub,2911 Griffith St,,,Charlotte,North Carolina,,28203-5429,http://hydebrewing.com/,7046095363,2018-07-24 01:33:57,2018-08-24 15:41:59,United States,-80.86910602,35.20083417,
legion-brewing-company,Legion Brewing Company,brewpub,1906 Commonwealth Ave,,,Charlotte,North Carolina,,28205-5020,http://www.legionbrewing.com,8444675683,2018-07-24 01:33:57,2018-08-24 15:42:05,United States,-80.81322316,35.21870073,
lenny-boy-brewing-co,Lenny Boy Brewing Co,micro,3000 S Tryon St,,,Charlotte,North Carolina,,28217-1342,http://www.discoverlennyboy.com,9805851728,2018-07-24 01:33:57,2018-08-24 15:42:05,United States,-80.87362412,35.20146285,
new-realm-brewing,New Realm Brewing,planning,,,,Charlotte,North Carolina,,28203,,,2018-07-24 01:33:57,2018-08-11 21:38:51,United States,,,
pilot-brewing,Pilot Brewing,planning,,,,Charlotte,North Carolina,,28205,,,2018-07-24 01:33:58,2018-08-11 21:38:52,United States,,,
noda-brewing-co-ne,NoDa Brewing Co - NE,regional,2921 N Tryon St,,,Charlotte,North Carolina,,28206-2762,http://www.nodabrewing.com,7044511394,2018-07-24 01:33:58,2018-08-24 15:42:23,United States,-80.7190968,35.3342735,
noda-brewing-co-og,NoDa Brewing Co - OG,micro,2229 N Davidson St,,,Charlotte,North Carolina,,28205-1829,,7044511394,2018-07-24 01:33:58,2018-08-24 15:42:23,United States,-80.81513271,35.23971743,
rock-bottom-brewery-charlotte,Rock Bottom Brewery- Charlotte,brewpub,401 N Tryon St Ste 100,,,Charlotte,North Carolina,,28202-2108,,7043342739,2018-07-24 01:33:58,2018-08-11 21:38:52,United States,,,
salud-cerveceria,Salud Cerveceria,brewpub,3306-B N Davidson St,,,Charlotte,North Carolina,,28205-1036,http://www.saludbeershop.com,7045782941,2018-07-24 01:33:58,2018-08-11 21:38:52,United States,,,
seven-jars-products,Seven Jars Products,micro,6148-B Brookshire Blvd,,,Charlotte,North Carolina,,28216,http://sevenjars.com/brewery,7049190278,2018-07-24 01:33:58,2018-08-11 21:38:52,United States,,,
sycamore-brewing,Sycamore Brewing,brewpub,2161 Hawkins St Ste A,,,Charlotte,North Carolina,,28203-5396,http://www.sycamorebrew.com,7049103821,2018-07-24 01:33:58,2018-08-11 21:38:53,United States,,,
resident-culture-brewing-company-llc,Resident Culture Brewing Company LLC,micro,2101 Central Ave,,,Charlotte,North Carolina,,28205-5203,http://www.residentculturebrewing.com,7043331862,2018-07-24 01:33:58,2018-08-24 15:42:34,United States,-80.80542365,35.21995586,
the-olde-mecklenburg-brewery,The Olde Mecklenburg Brewery,regional,4150 Yancey Rd,,,Charlotte,North Carolina,,28217-1738,http://www.oldemeckbrew.com,7045255644,2018-07-24 01:33:58,2018-08-24 15:42:50,United States,-80.88195345,35.18741705,
the-sycamore-brewing-cannery,The Sycamore Brewing Cannery,micro,401 W 24th St,,,Charlotte,North Carolina,,28206-2664,,7049103821,2018-07-24 01:33:58,2018-08-24 15:42:51,United States,-80.825601,35.246262,
thirsty-nomad-brewing,Thirsty Nomad Brewing,micro,4402 Stuart Andrew Blvd Ste A,,,Charlotte,North Carolina,,28217-1520,http://www.thirstynomadbrewing.com,7049400947,2018-07-24 01:33:58,2018-08-11 21:38:53,United States,,,
traust-brewing-co,Traust Brewing Co.,planning,,,,Charlotte,North Carolina,,28205,http://www.traustbrewing.com,9805053111,2018-07-24 01:33:59,2018-08-11 21:38:53,United States,,,
wooden-robot,Wooden Robot,micro,1440 S Tryon St Ste 110,,,Charlotte,North Carolina,,28203-4263,http://www.woodenrobotbrewery.com,7723594993,2018-07-24 01:33:59,2018-08-11 21:38:54,United States,,,
wooden-robot,Wooden Robot,planning,,,,Charlotte,North Carolina,,28203-4263,,7723594993,2018-07-24 01:33:59,2018-08-11 21:38:54,United States,,,
three-spirits-brewery,Three Spirits Brewery,micro,5046 Old Pineville Rd Ste 200,,,Charlotte,North Carolina,,28217-3033,http://www.threespiritsbrewery.com,9802074881,2018-07-24 01:33:58,2018-08-24 15:42:53,United States,-80.87842302,35.1718311,
triple-c-brewing,Triple C Brewing,micro,2900 Griffith St,,,Charlotte,North Carolina,,28203-5430,http://www.triplecbrewing.com,7043723212,2018-07-24 01:33:59,2018-08-24 15:42:55,United States,-80.86956579999998,35.20109925,
unknown-brewing-company,Unknown Brewing Company,micro,1327 S Mint St,,,Charlotte,North Carolina,,28203-4121,http://www.unknownbrewing.com,9802372628,2018-07-24 01:33:59,2018-08-24 15:42:58,United States,-80.85754190000002,35.2205129,
kind-beer-distributing,Kind Beer Distributing,contract,6014 McDaniel Ln Ste C,,,Charlotte,North Carolina,,28213-7351,http://www.kindbeers.com,9105154140,2018-07-24 01:33:57,2018-08-11 21:38:50,United States,,,
deep-river-brewing-company,Deep River Brewing Company,micro,700 W Main St Ste 102,,,Clayton,North Carolina,,27520-1657,http://www.deepriverbrewing.com,9193683243,2018-07-24 01:33:56,2018-08-11 21:38:47,United States,,,
other-side-of-the-moon-brewery-/-full-moon-oyster-bar,Other Side of the Moon Brewery / Full Moon Oyster Bar,brewpub,1477 River Ridge Dr,,,Clemmons,North Carolina,,27012,http://www.fullmoonoysterbar.com,3367128200,2018-07-24 01:33:58,2018-08-24 15:42:27,United States,-80.3912598,36.0738908,
twenty-six-acres-brewing-company,Twenty-Six Acres Brewing Company,micro,7285 Westwinds Blvd NW,,,Concord,North Carolina,,28027-3310,http://www.26acres.com,9802772337,2018-07-24 01:33:59,2018-08-24 15:42:57,United States,-80.72192703,35.38617748,
commoners-brewing-company,Commoners Brewing Company,micro,1048 Copperfield Blvd Ste 101,,,Concord,North Carolina,,28025,http://www.commonersbrewingcompany.com,7048866002,2018-07-24 01:33:56,2018-08-11 21:38:47,United States,,,
cabarrus-brewing-company,Cabarrus Brewing Company,micro,329 McGill Ave NW,,,Concord,North Carolina,,28027-6149,http://www.cabarrusbrewing.com,7044904487,2018-07-24 01:33:56,2018-08-24 15:41:24,United States,-80.60600028,35.41573578,
high-branch-brewing-co,High Branch Brewing Co,micro,325 McGill Ave NW Ste 148,,,Concord,North Carolina,,28027-0011,,,2018-07-24 01:33:57,2018-08-11 21:38:49,United States,,,
red-hill-brewing-co,Red Hill Brewing Co,micro,21 Union St S,,,Concord,North Carolina,,28025-5009,http://www.redhillbrewing.com,7047842337,2018-07-24 01:33:58,2018-08-24 15:42:33,United States,-80.58066579999998,35.41030435,
eleven-lakes-brewing-company,Eleven Lakes Brewing Company,micro,10228 Bailey Rd Ste 201,,,Cornelius,North Carolina,,28031-9420,http://www.elevenlakesbrewing.com,7044000927,2018-07-24 01:33:56,2018-08-24 15:41:38,United States,-80.86054928,35.45400686,
ass-clown-brewing-co,Ass Clown Brewing Co,micro,10620 Bailey Rd Ste E,,,Cornelius,North Carolina,,28031-9364,http://www.assclownbrewery.com,9805050399,2018-07-24 01:33:55,2018-08-11 21:38:45,United States,,,
d9-brewing-company,D9 Brewing Company,micro,11138 Treynorth Dr Ste C,,,Cornelius,North Carolina,,28031-8186,http://www.d9brewing.com,7044579368,2018-07-24 01:33:56,2018-08-11 21:38:47,United States,,,
northern-outer-banks-brewing-company,Northern Outer Banks Brewing Company,micro,520 Old Stoney Rd,,,Corolla,North Carolina,,27927,http://www.northernobxbrewing.com,2522071890,2018-07-24 01:33:58,2018-08-11 21:38:51,United States,,,
ole-dallas-brewery,Ole Dallas Brewery,micro,,,,Dallas,North Carolina,,28034-9793,http://www.oledallasbrewery.com,7042661472,2018-07-24 01:33:58,2018-08-11 21:38:51,United States,,,
off-main-brewing,Off Main Brewing,planning,,,,Davidson,North Carolina,,28036-6945,http://OffMainBrewing.com,5124153075,2018-07-24 01:33:58,2018-08-11 21:38:51,United States,,,
bull-durham-beer-co,Bull Durham Beer Co,micro,409 Blackwell St,,,Durham,North Carolina,,27701-3972,http://www.bulldurhambeer.com,9197443568,2018-07-24 01:33:56,2018-08-24 15:41:23,United States,-78.90481568,35.9915653,
ponysaurus-brewing-company,Ponysaurus Brewing Company,brewpub,219 Hood St,,,Durham,North Carolina,,27701-3715,http://www.ponysaurusbrewing.com,9784827701,2018-07-24 01:33:58,2018-08-24 15:42:30,United States,-78.89399922,35.99008624,
barrel-culture-brewing-and-blending,Barrel Culture Brewing And Blending,proprietor,4913 S Alston Ave,,,Durham,North Carolina,,27713-4424,,,2018-07-24 01:33:55,2018-08-24 15:41:03,United States,-78.88891655,35.89445737,
durty-bull-brewing-co,Durty Bull Brewing Co.,micro,206 Broadway St Ste 104,,,Durham,North Carolina,,27701-2404,http://www.durtybull.com,9196882337,2018-07-24 01:33:56,2018-08-11 21:38:48,United States,,,
fullsteam-brewery,Fullsteam Brewery,micro,726 Rigsbee Ave,,,Durham,North Carolina,,27701-2139,http://www.fullsteam.ag,9196822337,2018-07-24 01:33:56,2018-08-24 15:41:46,United States,-78.89959435,36.00310675,
hi-wire-brewing-taproom,Hi-Wire Brewing Taproom,planning,,,,Durham,North Carolina,,27701,,,2018-07-24 01:33:57,2018-08-11 21:38:49,United States,,,
modern-romance-brewery,Modern Romance Brewery,planning,,,,Durham,North Carolina,,27703-5133,http://www.drinkmodern.com,9192594469,2018-07-24 01:33:57,2018-08-11 21:38:50,United States,,,
the-glass-jug,The Glass Jug,micro,5410 Nc Highway 55 Ste V,,,Durham,North Carolina,,27713-7802,http://www.glass-jug.com,9198186907,2018-07-24 01:33:58,2018-08-11 21:38:53,United States,,,
bull-city-burger-and-brewery,Bull City Burger And Brewery,brewpub,107 E Parrish St Ste 105,,,Durham,North Carolina,,27701-3318,http://www.bullcityburgerandbrewery.com,9196802333,2018-07-24 01:33:56,2018-08-11 21:38:47,United States,,,
ghost-harbor-brewing-company,Ghost Harbor Brewing Company,micro,606 B E Colonial Ave,,,Elizabeth City,North Carolina,,27909,http://www.ghostharborbrewing.com,2525991030,2018-07-24 01:33:56,2018-08-24 15:41:47,United States,-76.21879622,36.30042229,
angry-troll-brewing-/-222-public-house,Angry Troll Brewing / 222 Public House,brewpub,222 E Main St Ste U2,,,Elkin,North Carolina,,28621-3493,http://www.angrytrollbrewing.com,3362582251,2018-07-24 01:33:55,2018-08-11 21:38:45,United States,,,
skull-camp-brewing,Skull Camp Brewing,micro,1980 N Bridge St,,,Elkin,North Carolina,,28621-2106,http://www.skullcampbrewing.com,3363525595,2018-07-24 01:33:58,2018-08-24 15:42:40,United States,-80.8524566,36.28339789,
turgua-brewing-co,Turgua Brewing Co,micro,27 Firefly Hollow Dr,,,Fairview,North Carolina,,28730-1648,http://www.turguabrewing.com,8282220984,2018-07-24 01:33:59,2018-08-11 21:38:53,United States,,,
whistle-hop-brewing-company,Whistle Hop Brewing Company,micro,1288 Charlotte Hwy,,,Fairview,North Carolina,,28730-8797,http://www.whistlehop.com,8283389447,2018-07-24 01:33:59,2018-08-24 15:43:04,United States,-82.41693073,35.52314413,
duck-rabbit-craft-brewery,Duck Rabbit Craft Brewery,micro,4519 West Pine St,,,Farmville,North Carolina,,27828-8526,http://duckrabbitbrewery.com,2527537745,2018-07-24 01:33:56,2018-08-24 15:41:35,United States,-77.591863,35.5980644,
lake-gaston-brewing-company,Lake Gaston Brewing Company,brewpub,124 Hay St,,,Fayetteville,North Carolina,,28301-5650,http://www.lakegastonbrew.com,9107790444,2018-07-24 01:33:57,2018-08-24 15:42:04,United States,-78.87881455,35.0528321,
mash-house-restaurant-and-brewery,Mash House Restaurant & Brewery,brewpub,4150 Sycamore Dairy Rd,,,Fayetteville,North Carolina,,28303-3459,http://www.themashhouse.com,9108679223,2018-07-24 01:33:57,2018-08-24 15:42:12,United States,-78.95654831,35.07468171,
brewery-in-planning-fayetteville,Brewery In Planning - Fayetteville,planning,,,,Fayetteville,North Carolina,,28303-4660,,,2018-07-24 01:33:55,2018-08-11 21:38:46,United States,,,
bright-light-brewing-company,Bright Light Brewing Company,micro,444 W Russel St Ste 102,,,Fayetteville,North Carolina,,28301,,9103390464,2018-07-24 01:33:56,2018-08-11 21:38:46,United States,,,
huske-hardware-house-brewing-co,Huske Hardware House Brewing Co,brewpub,405 Hay St,,,Fayetteville,North Carolina,,28301-5537,http://www.huskehardware.com,9104265650,2018-07-24 01:33:57,2018-08-24 15:41:59,United States,-78.88249131,35.05393051,
blue-ridge-community-college,Blue Ridge Community College,planning,,,,Flat Rock,North Carolina,,28731-4774,http://www.blueridge.edu,8286941674,2018-07-24 01:33:55,2018-08-11 21:38:46,United States,,,
blue-ghost-brewing-company,Blue Ghost Brewing Company,brewpub,125 Underwood Rd,,,Fletcher,North Carolina,,28732-,http://www.blueghostbrewing.com,8283760159,2018-07-24 01:33:55,2018-08-24 15:41:11,United States,-82.5305803,35.4368388,
currahee-brewing-company,Currahee Brewing Company,micro,100 Lakeside Dr,,,Franklin,North Carolina,,28734-9706,http://www.curraheebrew.com,8286340078,2018-07-24 01:33:56,2018-08-24 15:41:32,United States,-83.37194784,35.18754718,
lazy-hiker-brewing-co,Lazy Hiker Brewing Co.,micro,188 W Main St,,,Franklin,North Carolina,,28734-2949,http://www.lazyhikerbrewing.com,8283492337,2018-07-24 01:33:57,2018-08-24 15:42:04,United States,-83.3828255,35.18133363,
3rd-degree-brewhouse,3rd Degree Brewhouse,micro,1625 N Main St,,,Fuquay Varina,North Carolina,,27526,http://www.facebook.com/3rddegreebrewhouse/,9192015457,2018-07-24 01:33:55,2018-08-24 15:40:58,United States,-78.794223,35.5914556,
aviator-brewing-company,Aviator Brewing Company,regional,209 Technology Park Ln,,,Fuquay Varina,North Carolina,,27526-9311,http://www.aviatorbrew.com,9195672337,2018-07-24 01:33:55,2018-08-24 15:41:01,United States,-78.8073896,35.61695983,
fainting-goat-brewing-company,Fainting Goat Brewing Company,micro,330 S Main St,,,Fuquay Varina,North Carolina,,27526-2225,http://www.faintinggoatbeer.com,9193950642,2018-07-24 01:33:56,2018-08-24 15:41:39,United States,-78.80001933,35.5812855,
oaklyn-springs-brewery,Oaklyn Springs Brewery,planning,,,,Fuquay Varina,North Carolina,,27526-5499,http://www.oaklynspringsbrewery.com,9192800046,2018-07-24 01:33:58,2018-08-11 21:38:51,United States,,,
mason-jar-lager-co,Mason Jar Lager Co.,micro,341 Broad St # 151,,,Fuquay Varina,North Carolina,,27526-1703,http://www.masonjarlagerco.com,9195575303,2018-07-24 01:33:57,2018-08-24 15:42:13,United States,-78.8026696,35.6015909,
cavendish-brewing-company,Cavendish Brewing Company,micro,207 N Chester St,,,Gastonia,North Carolina,,28052-2234,http://www.cavendishbrewing.com,7048300435,2018-07-24 01:33:56,2018-08-24 15:41:28,United States,-81.18741223,35.26577507,
morgan-ridge-vineyards-and-brewhouse,Morgan Ridge Vineyards & Brewhouse,brewpub,486 John Morgan Rd,,,Gold Hill,North Carolina,,28071-9758,http://www.morganridgevineyard.com,7046390911,2018-07-24 01:33:57,2018-08-11 21:38:50,United States,,,
forgotten-road-ales,Forgotten Road Ales,planning,,,,Graham,North Carolina,,27253,,4342031993,2018-07-24 01:33:56,2018-08-11 21:38:48,United States,,,
weeping-radish-farm-brewery,Weeping Radish Farm Brewery,micro,6810 Caratoke Hwy,,,Grandy,North Carolina,,27939-9635,http://www.weepingradish.com,2524915205,2018-07-24 01:33:59,2018-08-24 15:43:03,United States,-75.891944,36.253775,
granite-falls-brewing-co,Granite Falls Brewing Co.,brewpub,47 Duke St,,,Granite Falls,North Carolina,,28630-1807,http://www.GraniteFallsBrewing.com,8282121399,2018-07-24 01:33:56,2018-08-24 15:41:50,United States,-81.4285158,35.7894173,
bark-brewing-company,Bark Brewing Company,brewpub,3021 Spring Garden St,,,Greensboro,North Carolina,,27403-1968,http://barkbrewingcompany.com,3368561406,2018-07-24 01:33:55,2018-08-24 15:41:02,United States,-79.84360434,36.06201036,
joymongers-brewing-co,Joymongers Brewing Co.,micro,576 N Eugene St,,,Greensboro,North Carolina,,27401,http://www.joymongers.com,3367635255,2018-07-24 01:33:57,2018-08-24 15:42:02,United States,-79.79380945,36.07871896,
g-mansfield-inc,"G. Mansfield, Inc",planning,,,,Greensboro,North Carolina,,27403-2744,,3363370757,2018-07-24 01:33:56,2018-08-11 21:38:48,United States,,,
gibbs-hundred-brewing-company,Gibb's Hundred Brewing Company,micro,504 State St,,,Greensboro,North Carolina,,27405,http://www.gibbshundred.com,3367637087,2018-07-24 01:33:56,2018-08-24 15:41:48,United States,-79.78321700000002,36.101006,
little-brother-brewing,Little Brother Brewing,micro,348 S Elm St,,,Greensboro,North Carolina,,27401-2606,http://Www.littlebrotherbrew.com,7049990577,2018-07-24 01:33:57,2018-08-24 15:42:06,United States,-79.79077029999998,36.0686165,
natty-greenes-brewing-co,Natty Greene's Brewing Co,regional,1918 W Gate City Blvd,,,Greensboro,North Carolina,,27403-2615,http://www.nattygreenes.com,3362741373,2018-07-24 01:33:57,2018-08-24 15:42:17,United States,-79.7923996,36.0646259,
pig-pounder-brewery,Pig Pounder Brewery,micro,1107 Grecade St,,,Greensboro,North Carolina,,27408-8709,http://www.pigpounder.com,3365531290,2018-07-24 01:33:58,2018-08-24 15:42:28,United States,-79.80419599999998,36.084466,
preyer-brewing-company,Preyer Brewing Company,micro,600 A-B Battleground Ave,,,Greensboro,North Carolina,,27401-2015,http://www.preyerbrewing.com,3362569450,2018-07-24 01:33:58,2018-08-11 21:38:52,United States,,,
natty-greenes-pub-and-brewing-co,Natty Greene's Pub & Brewing Co,brewpub,345 S Elm St,,,Greensboro,North Carolina,,27401-2603,http://www.nattygreenes.com,3368566111,2018-07-24 01:33:57,2018-08-24 15:42:17,United States,-79.7903852,36.0686458,
pitt-street-brewing-company,Pitt Street Brewing Company,micro,630 S Pitt St,,,Greenville,North Carolina,,27834-3159,http://www.pittstreetbrewing.com,2522274151,2018-07-24 01:33:58,2018-08-24 15:42:29,United States,-77.37694822,35.6095883,
uptown-brewing-co,Uptown Brewing Co,micro,418 Evans St,,,Greenville,North Carolina,,27858-1834,http://www.uptownbrewingcompany.com,2526712633,2018-07-24 01:33:59,2018-08-11 21:38:54,United States,,,
trollingwood-taproom-and-brewery,Trollingwood Taproom & Brewery,micro,707 Dickinson Ave,,,Greenville,North Carolina,,27834-3147,http://www.trollingwoodbrewery.com,2522106295,2018-07-24 01:33:59,2018-08-24 15:42:56,United States,-77.37544525,35.60994375,
hayesville-brewing-co,Hayesville Brewing Co,brewpub,1568 Highway 64 W,,,Hayesville,North Carolina,,28904-4651,http://www.facebook.com/leisa5678/,8288356010,2018-07-24 01:33:57,2018-08-11 21:38:49,United States,,,
southern-appalachian-brewery,Southern Appalachian Brewery,micro,822 Locust St Ste 100,,,Hendersonville,North Carolina,,28792-3758,,8286841235,2018-07-24 01:33:58,2018-08-11 21:38:52,United States,,,
sanctuary-brewing-company,Sanctuary Brewing Company,micro,147 1st Ave E,,,Hendersonville,North Carolina,,28792-5191,http://www.sanctuarybrewco.com,8285959956,2018-07-24 01:33:58,2018-08-24 15:42:37,United States,-82.45881412,35.31453259,
triskelion-brewing-company,Triskelion Brewing Company,micro,340 7th Avenue East,,,Hendersonville,North Carolina,,28792,http://www.triskelionbrewing.com,8283887051,2018-07-24 01:33:59,2018-08-24 15:42:55,United States,-82.45789699,35.32060017,
hickory-brewery-/-american-honor-ale-house-and-brewery,Hickory Brewery / American Honor Ale House and Brewery,micro,883 Highland Ave SE,,,Hickory,North Carolina,,28602-1106,,8284149600,2018-07-24 01:33:57,2018-08-24 15:41:53,United States,-81.32549762,35.73533517,
olde-hickory-brewery-and-amos-howards,Olde Hickory Brewery & Amos Howards,brewpub,2828 US Highway 70 SW,,,Hickory,North Carolina,,28602-4645,http://www.amoshowards.com,8283238753,2018-07-24 01:33:58,2018-08-11 21:38:51,United States,,,
olde-hickory-brewery-production,Olde Hickory Brewery - Production,micro,2 3rd St SW,,,Hickory,North Carolina,,28602-2941,,,2018-07-24 01:33:58,2018-08-24 15:42:25,United States,-81.34229502,35.7313114,
jigsaw-brewing-llc,"Jigsaw Brewing, LLC",planning,,,,High Point,North Carolina,,27260-5056,http://www.jigsawbrewing.com,,2018-07-24 01:33:57,2018-08-11 21:38:49,United States,,,
liberty-brewery-and-grill,Liberty Brewery & Grill,brewpub,914 Mall Loop Rd,,,High Point,North Carolina,,27262-7654,http://www.hp.libertybreweryandgrill.com,3368824677,2018-07-24 01:33:57,2018-08-11 21:38:50,United States,,,
brown-truck-brewery,Brown Truck Brewery,micro,1234 N Main St,,,High Point,North Carolina,,27262-3118,http://www.browntruckbrewery.com,3368861234,2018-07-24 01:33:56,2018-08-24 15:41:21,United States,-80.01586879999998,35.9709266,
satulah-mountain-brewing-co,Satulah Mountain Brewing Co,micro,454 Carolina Way,,,Highlands,North Carolina,,28741,http://www.satulahmountainbrewing.com,8284829794,2018-07-24 01:33:58,2018-08-24 15:42:38,United States,-83.19553951,35.05400622,
mystery-brewing-co,Mystery Brewing Co,brewpub,437 Dimmocks Mill Rd Ste 41,,,Hillsborough,North Carolina,,27278-2379,http://www.mysterybrewing.com,9196978379,2018-07-24 01:33:57,2018-08-24 15:42:16,United States,-79.1135558,36.06956470000001,
bombshell-beer-company,Bombshell Beer Company,micro,120 Quantum Dr,,,Holly Springs,North Carolina,,27540-8861,http://www.bombshellbeer.com,9198231933,2018-07-24 01:33:55,2018-08-24 15:41:13,United States,-78.83588932,35.65841825,
carolina-brewing-co,Carolina Brewing Co,micro,140 Thomas Mill Rd,,,Holly Springs,North Carolina,,27540-9372,http://www.carolinabrew.com,9195572337,2018-07-24 01:33:56,2018-08-24 15:41:26,United States,-78.85444105,35.65610510000001,
dirtbag-ales-brewery-and-taproom,Dirtbag Ales Brewery and Taproom,micro,3623 Legion Rd,,,Hope Mills,North Carolina,,28348-8413,http://www.dirtbagales.com,9104262537,2018-07-24 01:33:56,2018-08-24 15:41:33,United States,-78.92209697,34.99397526,
brewery-in-planning-huntersville,Brewery In Planning - Huntersville,planning,,,,Huntersville,North Carolina,,28078-2344,,,2018-07-24 01:33:55,2018-08-11 21:38:46,United States,,,
primal-brewery,Primal Brewery,micro,16432 Old Statesville Rd,,,Huntersville,North Carolina,,28078-7245,http://www.primalbrewery.com,7049472920,2018-07-24 01:33:58,2018-08-24 15:42:31,United States,-80.84384068,35.43603236,
sweet-union-brewing,Sweet Union Brewing,micro,13717 E Independence Blvd,,,Indian Trail,North Carolina,,28079-7600,http://www.sweetunionbrewing.com,7046285211,2018-07-24 01:33:58,2018-08-11 21:38:53,United States,,,
brewery-in-planning-jamestown,Brewery in Planning - Jamestown,planning,,,,Jamestown,North Carolina,,27282,,,2018-07-24 01:33:55,2018-08-11 21:38:46,United States,,,
the-other-side-of-the-moon-jamestown,The Other Side of the Moon - Jamestown,brewpub,103 W Main St,,,Jamestown,North Carolina,,27282,,3633072887,2018-07-24 01:33:58,2018-08-24 15:42:50,United States,-79.93765165,35.99284597,
kernersville-brewing-company,Kernersville Brewing Company,micro,210 N Main St,,,Kernersville,North Carolina,,27284-4004,,3368167283,2018-07-24 01:33:57,2018-08-24 15:42:02,United States,-80.07181578,36.12191605,
outer-banks-brewing-station,Outer Banks Brewing Station,brewpub,600 S Croatan Hwy,,,Kill Devil Hills,North Carolina,,27948,http://www.obbrewing.com,2524492739,2018-07-24 01:33:58,2018-08-24 15:42:27,United States,-75.65925231,36.00947755,
mother-earth-brewing,Mother Earth Brewing,regional,311 N Herritage St,,,Kinston,North Carolina,,28501-4823,http://www.motherearthbrewing.com,2522082437,2018-07-24 01:33:57,2018-08-11 21:38:50,United States,,,
hickory-nut-gorge-brewery,Hickory Nut Gorge Brewery,micro,615 Bottemless Pools Rd,,,Lake Lure,North Carolina,,28746-5525,,,2018-07-24 01:33:57,2018-08-11 21:38:49,United States,,,
new-river-brewing,New River Brewing,micro,9211 NC Hwy 194 N Unit A,,,Lansing,North Carolina,,28643,http://www.newriverbrewing.beer,9194528367,2018-07-24 01:33:57,2018-08-11 21:38:51,United States,,,
loes-brewing-company,Loe's Brewing Company,brewpub,1048 Harper Ave NW,,,Lenoir,North Carolina,,28645-5085,http://www.loesbrewing.com,8287543652,2018-07-24 01:33:57,2018-08-24 15:42:07,United States,-81.54235348,35.91276115,
westbend-winery-and-brewery,Westbend Winery and Brewery,micro,5394 Williams Rd,,,Lewisville,North Carolina,,27023-8278,http://www.westbendwineryandbrewery.com,3369459999,2018-07-24 01:33:59,2018-08-24 15:43:03,United States,-80.50459165,36.08868228,
goose-and-the-monkey-brew-house-llc,"Goose And The Monkey Brew House, LLC",planning,,,,Lexington,North Carolina,,27292,http://www.gooseandthemonkeybrewhouse.com,3362405310,2018-07-24 01:33:56,2018-08-11 21:38:48,United States,,,
the-laboratory-mill-brewery,The Laboratory Mill Brewery,micro,848 Southfork Rd,,,Lincolnton,North Carolina,,28092,,,2018-07-24 01:33:58,2018-08-11 21:38:53,United States,,,
untapped-territory-llc,"Untapped Territory, LLC",contract,326 E Main St Ste 1735,,,Lincolnton,North Carolina,,28092-3335,,7042586466,2018-07-24 01:33:59,2018-08-11 21:38:54,United States,,,
brewery-in-planning-maggie-valley-nc,"Brewery in Planning - Maggie Valley, NC",planning,,,,Maggie Valley,North Carolina,,28751-9500,http://meadowlarkmotel.com,8289261717,2018-07-24 01:33:56,2018-08-11 21:38:46,United States,,,
lost-colony-brewery-and-cafe,Lost Colony Brewery and Cafe,brewpub,208 Queen Elizabeth Ave,,,Manteo,North Carolina,,27954-,http://www.lostcolonybrewery.com,2524736666,2018-07-24 01:33:57,2018-08-24 15:42:09,United States,-75.66954474,35.90949405,
mica-town-brewing,Mica Town Brewing,micro,25 Brown Dr,,,Marion,North Carolina,,28752-4294,http://www.micatownbrewing.com,8285598300,2018-07-24 01:33:57,2018-08-11 21:38:50,United States,,,
mad-county-brewing,Mad County Brewing,brewpub,45 N Main St,,,Marshall,North Carolina,,28753-0040,http://www.madisoncountybrewing.com,8286498600,2018-07-24 01:33:57,2018-08-24 15:42:11,United States,-82.68585484,35.79772897,
brewery-in-planning-matthews-nc,"Brewery in Planning - Matthews, NC",planning,,,,Matthews,North Carolina,,28105-5316,http://www.matthewsbrew.com,7042886120,2018-07-24 01:33:56,2018-08-11 21:38:46,United States,,,
bright-penny-brewing-company,Bright Penny Brewing Company,contract,309 W Graham St,,,Mebane,North Carolina,,27302-2311,http://www.brightpennybrewing.com,,2018-07-24 01:33:56,2018-08-24 15:41:20,United States,-79.27030152,36.09926877,
sierra-nevada-brewing-co,Sierra Nevada Brewing Co,regional,100 Sierra Nevada Way,,,Mills River,North Carolina,,28732-8608,http://www.sierranevada.com,,2018-07-24 01:33:58,2018-08-11 21:38:52,United States,,,
barking-duck-brewing-company,Barking Duck Brewing Company,micro,4400 Morris Park Dr Ste R,,,Mint Hill,North Carolina,,28227-9269,http://www.barkingduckbrew.com,9809386300,2018-07-24 01:33:55,2018-08-11 21:38:45,United States,,,
southern-range-brewing,Southern Range Brewing,brewpub,151 S Stewart St,,,Monroe,North Carolina,,28112,http://www.southernrangebrewing.com,7042894049,2018-07-24 01:33:58,2018-08-24 15:42:43,United States,-80.55091346,34.98073637,
ghostface-brewing-company,Ghostface Brewing Company,brewpub,427 E Statesville Ave Ste 100,,,Mooresville,North Carolina,,28115-2595,http://www.ghostfacebrewing.com,7047997433,2018-07-24 01:33:56,2018-08-11 21:38:48,United States,,,
jolly-roger-brew,Jolly Roger Brew,micro,236 Raceway Dr Ste 12,,,Mooresville,North Carolina,,28117-6518,http://www.jollyrogerbrew.com,9194128132,2018-07-24 01:33:57,2018-08-11 21:38:49,United States,,,
king-canary-brewing-company,King Canary Brewing Company,micro,562 Williamson Rd,,,Mooresville,North Carolina,,28117-9186,http://www.kingcanarybrewing.com,,2018-07-24 01:33:57,2018-08-24 15:42:03,United States,-80.8683812,35.5706022,
crystal-coast-brewing-company-llc,Crystal Coast Brewing Company LLC,micro,702 Arendell St,,,Morehead City,North Carolina,,28557-4234,http://www.CrystalCoastBrewingCompany.com,7044513618,2018-07-24 01:33:56,2018-08-24 15:41:31,United States,-76.71137408,34.72105219,
tight-lines-pub,Tight Lines Pub,brewpub,709 Arendell St,,,Morehead City,North Carolina,,28557-4214,http://www.tightlinesbrewing.com,2527730641,2018-07-24 01:33:58,2018-08-24 15:42:53,United States,-76.71168962,34.72107454,
catawba-brewing-co,Catawba Brewing Co,regional,212 S Green St,,,Morganton,North Carolina,,28655-3525,http://www.CatawbaBrewing.com,8284306883,2018-07-24 01:33:56,2018-08-24 15:41:26,United States,-81.68543695,35.74471934,
fonta-flora-brewery,Fonta Flora Brewery,micro,317 N Green St,,,Morganton,North Carolina,,28655-3324,http://www.fontaflora.com,8284750153,2018-07-24 01:33:56,2018-08-24 15:41:41,United States,-81.69093777,35.74762039999999,
thirsty-souls-community-brewing,Thirsty Souls Community Brewing,micro,238 Market St,,,Mount Airy,North Carolina,,27030-3514,http://www.thirstysoulscommunitybrewing.com,,2018-07-24 01:33:58,2018-08-24 15:42:52,United States,-80.60876209999998,36.5008814,
skull-camp-brewing,Skull Camp Brewing,micro,765 Round Peak Church Rd,,,Mount Airy,North Carolina,,27030-8421,http://www.skullcampbrewing.com,3363525595,2018-07-24 01:33:58,2018-08-11 21:38:52,United States,,,
white-elephant-beer-company,White Elephant Beer Company,micro,225 Market St,,,Mount Airy,North Carolina,,27030-3513,http://www.whiteelephantbeer.com,3366488277,2018-07-24 01:33:59,2018-08-24 15:43:04,United States,-80.6090865,36.5006581,
valley-river-brewery-and-eatery,Valley River Brewery & Eatery,brewpub,71 Tennessee St,,,Murphy,North Carolina,,28906-2938,http://www.valleyriverbrewery.com,8288372337,2018-07-24 01:33:59,2018-08-24 15:43:00,United States,-84.03520817,35.08890404,
fonta-flora-brewery-at-whipoorwill-farm,Fonta Flora Brewery At Whipoorwill Farm,micro,6751 NC HWY 126,,,Nebo,North Carolina,,28761,,8284750153,2018-07-24 01:33:56,2018-08-11 21:38:48,United States,,,
beer-army,Beer Army,brewpub,,,,New Bern,North Carolina,,28564-3051,,2522885814,2018-07-24 01:33:55,2018-08-11 21:38:45,United States,,,
brewery-99,Brewery 99,micro,417 Broad St Ste F,,,New Bern,North Carolina,,28560-4900,http://www.brewery99.com,2522596393,2018-07-24 01:33:55,2018-08-11 21:38:46,United States,,,
shortway-brewing-company,Shortway Brewing Company,micro,230 Chatham Street,,,Newport,North Carolina,,28570,http://www.shortwaybrewing.com,2527773065,2018-07-24 01:33:58,2018-08-24 15:42:39,United States,-76.85945669,34.78998841,
makai-brewing-company,Makai Brewing Company,micro,5850 Ocean Hwy W,,,Ocean Isle Beach,North Carolina,,28469-3510,http://www.MakaiBrewingCompany.com,9105792739,2018-07-24 01:33:57,2018-08-11 21:38:50,United States,,,
1718-ocracoke-brewing,1718 Ocracoke Brewing,brewpub,1129 Irvin Garrish Hwy,,,Ocracoke,North Carolina,,27960,http://www.ocracokebrewing.com,2529282337,2018-07-24 01:33:55,2018-08-24 15:40:56,United States,-75.97176063,35.10715368,
new-village-brewery-and-taproom,New Village Brewery and Taproom,micro,702 Broad St,,,Oriental,North Carolina,,28571-9778,http://www.newvillagebrewery.com,2522496132,2018-07-24 01:33:57,2018-08-24 15:42:21,United States,-76.69472257,35.02921067,
tobacco-wood-brewing-company,Tobacco Wood Brewing Company,planning,,,,Oxford,North Carolina,,27565,,9199391909,2018-07-24 01:33:59,2018-08-11 21:38:53,United States,,,
pinehurst-resort,Pinehurst Resort,planning,,,,Pinehurst,North Carolina,,28374,,9102358703,2018-07-24 01:33:58,2018-08-11 21:38:52,United States,,,
pinehurst-brewery,Pinehurst Brewery,planning,,,,Pinehurst,North Carolina,,28374,,,2018-07-24 01:33:58,2018-08-11 21:38:52,United States,,,
middle-james-brewing-company,Middle James Brewing Company,planning,,,,Pineville,North Carolina,,28134,,,2018-07-24 01:33:57,2018-08-11 21:38:50,United States,,,
ecusta-brewing-co,Ecusta Brewing Co,micro,49 Pisgah Hwy Ste 3,,,Pisgah Forest,North Carolina,,28768,http://www.ecustabrewing.com,8289662337,2018-07-24 01:33:56,2018-08-11 21:38:48,United States,,,
ecusta-brewing-co-drift-taproom,Ecusta Brewing Co - Drift Taproom,micro,49 Pisgah Hwy,,,Pisgah Forest,North Carolina,,28768-8817,,8289662337,2018-07-24 01:33:56,2018-08-11 21:38:48,United States,,,
carolina-brewery-pittsboro,Carolina Brewery - Pittsboro,micro,120 Lowes Dr Ste 100,,,Pittsboro,North Carolina,,27312-8872,http://www.carolinabrewery.com,9195452337,2018-07-24 01:33:56,2018-08-24 15:41:25,United States,-79.1652429,35.7438093,
nazzd-brew-works-and-pub,NAZZ'D Brew Works and Pub,planning,,,,Pittsboro,North Carolina,,27312,http://www.nazzdbrew.com,9196042081,2018-07-24 01:33:57,2018-08-11 21:38:51,United States,,,
blind-squirrel-brewery,Blind Squirrel Brewery,micro,4716 South US Highway 19 E Suite B,,,Plumtree,North Carolina,,28664-0173,http://www.blindsquirrelbrewery.com,8287652739,2018-07-24 01:33:55,2018-08-11 21:38:45,United States,,,
lynnwood-brewing-concern,Lynnwood Brewing Concern,brewpub,4821 Grove Barton Rd,,,Raleigh,North Carolina,,27613-1900,http://www.lynnwoodbrewing.beer,9197850043,2018-07-24 01:33:57,2018-08-24 15:42:10,United States,-78.71623989,35.87060368,
1323-r-and-d,1323 R & D,micro,1323 Capital Blvd 1323 R and D,,,Raleigh,North Carolina,,27603-1117,http://www.1323rnd.com,9199775654,2018-07-24 01:33:55,2018-08-11 21:38:44,United States,,,
big-boss-brewing-co,Big Boss Brewing Co,micro,1249 Wicker Dr Ste A,,,Raleigh,North Carolina,,27604-1683,http://www.bigbossbrewing.com,9198340045,2018-07-24 01:33:55,2018-08-11 21:38:45,United States,,,
clouds-brewing,Clouds Brewing,micro,1233 Front St Ste E,,,Raleigh,North Carolina,,27609-7534,http://www.cloudsbrewing.com,9197474863,2018-07-24 01:33:56,2018-08-11 21:38:47,United States,,,
collection-brewing-company,Collection Brewing Company,planning,,,,Raleigh,North Carolina,,27614-8519,,,2018-07-24 01:33:56,2018-08-11 21:38:47,United States,,,
boylan-bridge-brewpub,Boylan Bridge Brewpub,brewpub,201 S BOYLAN AVE,,,Raleigh,North Carolina,,27603-1803,http://www.boylanbridge.com,9198038927,2018-07-24 01:33:55,2018-08-24 15:41:16,United States,-78.649139,35.77846500000001,
brewery-bhavana,Brewery Bhavana,micro,218 S Blount St,,,Raleigh,North Carolina,,27601,http://brewerybhavana.com,4154701370,2018-07-24 01:33:55,2018-08-24 15:41:18,United States,-78.6366938,35.77786298,
compass-rose,Compass Rose,micro,"3201 Northside Dr, Ste. 101",,,Raleigh,North Carolina,,27615-4126,http://www.compassrosebrewery.com,9198755683,2018-07-24 01:33:56,2018-08-24 15:41:30,United States,-78.582171,35.88341099999999,
crank-arm-brewing-co,Crank Arm Brewing Co,micro,319 W Davie St,,,Raleigh,North Carolina,,27601-1718,http://www.crankarmbrewing.com,,2018-07-24 01:33:56,2018-08-24 15:41:31,United States,-78.64405,35.7756043,
funguys-brewery,Funguys Brewery,micro,2408 Paula St,,,Raleigh,North Carolina,,27608-1706,http://www.funguysbrewing.com,,2018-07-24 01:33:56,2018-08-24 15:41:47,United States,-78.62513369,35.81309826,
gizmo-brew-works,Gizmo Brew Works,micro,5907 Triangle Dr,,,Raleigh,North Carolina,,27617-4742,http://www.gizmobrewworks.com,9197822099,2018-07-24 01:33:56,2018-08-24 15:41:49,United States,-78.74513578,35.89611719,
lonerider-brewing-co,Lonerider Brewing Co,regional,8816 Gulf Ct Ste 100,,,Raleigh,North Carolina,,27617-4628,http://www.loneriderbeer.com,9194428004,2018-07-24 01:33:57,2018-08-24 15:42:08,United States,-78.76254395,35.90357415,
lynnwood-brewing-concern,Lynnwood Brewing Concern,micro,1053 E Whitaker Mill Rd Ste 101,,,Raleigh,North Carolina,,27604-5305,,5207779456,2018-07-24 01:33:57,2018-08-24 15:42:10,United States,-78.62430807,35.80788061,
nc-state-brewery,NC State Brewery,micro,400 Dan Allen Drive Campus Box 7624,,,Raleigh,North Carolina,,27695-0001,http://www.fbns.ncsu.edu/Sheppard/,9195130802,2018-07-24 01:33:57,2018-08-11 21:38:51,United States,,,
oak-and-dagger-public-house,Oak and Dagger Public House,brewpub,18 Seaboard Ave Ste 150,,,Raleigh,North Carolina,,27604-8010,http://www.oakanddagger.beer,9199459382,2018-07-24 01:33:58,2018-08-11 21:38:51,United States,,,
neuse-river-brewing-company,Neuse River Brewing Company,micro,518 Pershing Rd,,,Raleigh,North Carolina,,27608-2624,http://www.neuseriverbrewing.com,9842328479,2018-07-24 01:33:57,2018-08-24 15:42:18,United States,-78.63345205,35.8045083,
nickelpoint-brewing-co,Nickelpoint Brewing Co,micro,506 Pershing Rd,,,Raleigh,North Carolina,,27608-2624,http://www.nickelpointbrewing.com,9199165961,2018-07-24 01:33:58,2018-08-24 15:42:22,United States,-78.63369468,35.8045808,
raleigh-brewing-company,Raleigh Brewing Company,micro,3709 Neil St,,,Raleigh,North Carolina,,27607-5415,http://www.raleighbrewingcompany.com,9194009086,2018-07-24 01:33:58,2018-08-24 15:42:32,United States,-78.68751490000002,35.7931167,
sub-noir-brewing-company,Sub Noir Brewing Company,micro,2039 Progress Ct,,,Raleigh,North Carolina,,27608-2761,http://www.subnoir.net,9194802337,2018-07-24 01:33:58,2018-08-24 15:42:45,United States,-78.6231748,35.80911029999999,
tobacco-road-brewery,Tobacco Road Brewery,brewpub,505 W Jones St,,,Raleigh,North Carolina,,27603-1428,http://www.tobaccoroadsportscafe.com,9193018793,2018-07-24 01:33:58,2018-08-24 15:42:54,United States,-78.64598965,35.78269753,
trophy-brewing-company,Trophy Brewing Company,micro,656 Maywood Ave,,,Raleigh,North Carolina,,27603-2340,http://www.trophybrewing.com,9198034849,2018-07-24 01:33:59,2018-08-24 15:42:56,United States,-78.65744714,35.76136262,
brices-brewing-company,Brice's Brewing Company,micro,1822 Garner Station Blvd,,,Raleigh,North Carolina,,27603-3643,http://www.bricesbrewing.com,9842001803,2018-07-24 01:33:56,2018-08-24 15:41:18,United States,-78.65871577,35.72493108,
little-city-brewing-co,Little City Brewing Co.,micro,400 W North St Ste 120,,,Raleigh,North Carolina,,27603-1570,http://Www.thelocalicon.com/little-city,9195027155,2018-07-24 01:33:57,2018-08-11 21:38:50,United States,,,
lucky-city-brewing-co,Lucky City Brewing Co.,planning,,,,Reidsville,North Carolina,,27320-3810,http://www.luckycitybrewing.com,3364716758,2018-07-24 01:33:57,2018-08-11 21:38:50,United States,,,
bdd-brewing-company,BDD Brewing Company,micro,1147 Falls Rd Ste 107,,,Rocky Mount,North Carolina,,27804,,9196327551,2018-07-24 01:33:55,2018-08-24 15:41:04,United States,-77.80208267,35.95802600000001,
hopfly-brewing-company,HopFly Brewing Company,micro,1147 Falls Rd Suite 121,,,Rocky Mount,North Carolina,,27804,,,2018-07-24 01:33:57,2018-08-11 21:38:49,United States,,,
koi-pond-brewing-co,Koi Pond Brewing Co,micro,1107 Falls Rd,,,Rocky Mount,North Carolina,,27804-4407,http://www.koipondbrewing.com,2529035127,2018-07-24 01:33:57,2018-08-11 21:38:50,United States,,,
black-creek-brewery,Black Creek Brewery,micro,111 Depot St,,,Roxboro,North Carolina,,27573-5503,,9195244319,2018-07-24 01:33:55,2018-08-24 15:41:09,United States,-78.98146367,36.39362085,
yellow-sun-brewing-company,Yellow Sun Brewing Company,micro,127 Trade St,,,Rutherfordton,North Carolina,,28139-2849,http://www.yellowsunbrewing.com,8283750089,2018-07-24 01:33:59,2018-08-24 15:43:10,United States,-81.9581017,35.36667960000001,
morgan-ridge-railwalk-brewery-and-eatery,Morgan Ridge Railwalk Brewery & Eatery,brewpub,421 N Lee St,,,Salisbury,North Carolina,,28144-4424,http://www.morganridgerailwalk.com,7047548379,2018-07-24 01:33:57,2018-08-24 15:42:14,United States,-80.46510306,35.66920051,
new-sarum-brewing,New Sarum Brewing,micro,109 N Lee St,,,Salisbury,North Carolina,,28144,http://www.newsarumbrewing.com,7043105048,2018-07-24 01:33:57,2018-08-24 15:42:21,United States,-80.46853163,35.66652728,
hugger-mugger-brewing-company,Hugger Mugger Brewing Company,micro,229 Wicker St,,,Sanford,North Carolina,,27330,http://www.huggermuggerbrewing.com,,2018-07-24 01:33:57,2018-08-24 15:41:58,United States,-79.17896314,35.47890286,
sapphire-mountain-brewing-co,Sapphire Mountain Brewing Co,contract,50 Slicers Ave,,,Sapphire,North Carolina,,28774-9405,http://www.sapphiremountainbrewingcompany.com,8287430220,2018-07-24 01:33:58,2018-08-11 21:38:52,United States,,,
haw-river-farmhouse-ales,Haw River Farmhouse Ales,micro,1713 Saxapahaw-Bethlehem Church Rd,,,Saxapahaw,North Carolina,,27340-0390,http://www.hawriverales.com,3365259270,2018-07-24 01:33:57,2018-08-24 15:41:51,United States,-79.31872,35.946942,
groundlion-brewing,GroundLion Brewing,planning,,,,Seagrove,North Carolina,,27341-0459,http://www.groundlionbrewing.com,9192705112,2018-07-24 01:33:56,2018-08-11 21:38:48,United States,,,
34-degree-north-experiment-station,34 Degree North Experiment Station,micro,4802 Main St,,,Shallotte,North Carolina,,28470,,,2018-07-24 01:33:55,2018-08-24 15:40:57,United States,-78.38636517,33.97270364,
newgrass-brewing-company,Newgrass Brewing Company,micro,213 S Lafayette St,,,Shelby,North Carolina,,28150-5349,http://www.newgrassbrewing.com,7049371280,2018-07-24 01:33:58,2018-08-24 15:42:22,United States,-81.54035756,35.29061978,
double-barley-brewing,Double Barley Brewing,brewpub,3174 US Highway 70 W,,,Smithfield,North Carolina,,27577-7613,http://www.doublebarleybrewing.com,9199343433,2018-07-24 01:33:56,2018-08-11 21:38:47,United States,,,
hatchet-brewing-company,Hatchet Brewing Company,planning,,,,Southern Pines,North Carolina,,28387-6164,http://www.hatchetbrewing.com,5715334898,2018-07-24 01:33:57,2018-08-11 21:38:49,United States,,,
southern-pines-brewing-company,Southern Pines Brewing Company,micro,565 Air Tool Dr Ste E,,,Southern Pines,North Carolina,,28387-3469,http://www.southernpinesbrewing.com,9103659925,2018-07-24 01:33:58,2018-08-11 21:38:52,United States,,,
check-six-brewing-co,Check Six Brewing Co,micro,5130 Southport Supply Rd SE,,,Southport,North Carolina,,28461-9261,http://www.checksixbeer.com,9104779280,2018-07-24 01:33:56,2018-08-24 15:41:29,United States,-78.0477587,33.952339,
dry-county-brewing,Dry County Brewing,brewpub,585 Oak Ave,,,Spruce Pine,North Carolina,,28777-2727,http://www.drycountybrewing.com,8287654583,2018-07-24 01:33:56,2018-08-24 15:41:35,United States,-82.063578,35.91589120000001,
salty-turtle-beer-company,Salty Turtle Beer Company,micro,103 Triton Ln,,,Surf City,North Carolina,,28445,http://www.saltyturtlebeer.com,9108032019,2018-07-24 01:33:58,2018-08-11 21:38:52,United States,,,
balsam-falls-brewing,Balsam Falls Brewing,micro,506 W Main St,,,Sylva,North Carolina,,28779-5544,,8286311987,2018-07-24 01:33:55,2018-08-24 15:41:02,United States,-83.2218237,35.3737065,
innovation-brewing,Innovation Brewing,brewpub,414 W Main St,,,Sylva,North Carolina,,28779-5548,http://www.innovationbrewing.com,8285869678,2018-07-24 01:33:57,2018-08-24 15:42:00,United States,-83.22208589,35.37361923,
tarboro-brewing-company,Tarboro Brewing Company,micro,526 N Main St,,,Tarboro,North Carolina,,27886-4313,http://www.tarborobrewingcompany.com,2525636522,2018-07-24 01:33:58,2018-08-24 15:42:48,United States,-77.53557317,35.89855641,
3rd-rock-brewing-company,3rd Rock Brewing Company,micro,134 Industrial Park Dr,,,Trenton,North Carolina,,28585-9593,http://www.3rockbrew.com,2526319213,2018-07-24 01:33:55,2018-08-24 15:40:58,United States,-77.36749285,35.06939877,
bottle-tree-beer-co,Bottle Tree Beer Co,contract,10 N Trade St Apt A,,,Tryon,North Carolina,,28782-3476,http://www.bottletree.net,8642660133,2018-07-24 01:33:55,2018-08-11 21:38:46,United States,,,
the-levee-brewing-company-inc,"The Levee Brewing Company, Inc",planning,,,,Valdese,North Carolina,,28690,http://www.theleveepub.com,8383901041,2018-07-24 01:33:58,2018-08-11 21:38:53,United States,,,
owls-roost-brewing,Owls Roost Brewing,planning,,,,Wake Forest,North Carolina,,27587-2958,,9197491428,2018-07-24 01:33:58,2018-08-11 21:38:51,United States,,,
white-street-brewing-company,White Street Brewing Company,micro,218 S White St,,,Wake Forest,North Carolina,,27587-2742,http://www.whitestreetbrewing.com,9196479439,2018-07-24 01:33:59,2018-08-24 15:43:05,United States,-78.51006170000002,35.9774896,
the-dreamchasers-brewery,The Dreamchaser's Brewery,micro,115 E North Main St,,,Waxhaw,North Carolina,,28173-6029,http://www.dreamchasersbrewery.com,7048437326,2018-07-24 01:33:58,2018-08-24 15:42:49,United States,-80.74349914,34.92524057,
boojum-brewing-company,Boojum Brewing Company,micro,357 Dayton Dr,,,Waynesville,North Carolina,,28786-6931,http://www.BoojumBrewing.com,8289440888,2018-07-24 01:33:55,2018-08-24 15:41:14,United States,-82.99383657,35.52574804,
frog-level-brewing-company,Frog Level Brewing Company,micro,56 Commerce St,,,Waynesville,North Carolina,,28786-5738,http://www.froglevelbrewing.com,8284545664,2018-07-24 01:33:56,2018-08-24 15:41:45,United States,-82.99178072,35.4929673,
blue-mountain-pizza-and-brew-pub,Blue Mountain Pizza and Brew Pub,brewpub,55 N Main St,,,Weaverville,North Carolina,,28787-6634,http://www.bluemountainpizza.com,8286588777,2018-07-24 01:33:55,2018-08-24 15:41:12,United States,-82.55934457,35.70849553,
eluvium-brewing-co,Eluvium Brewing Co.,micro,11 Florida Ave,,,Weaverville,North Carolina,,28787,http://www.eluviumbrewing.com,8284841799,2018-07-24 01:33:56,2018-08-24 15:41:39,United States,-82.56157370000003,35.69741414,
zebulon-artisan-ales,Zebulon Artisan Ales,micro,8 Merchents Alley,,,Weaverville,North Carolina,,28787-8860,http://www.zebulonbrewing.com,,2018-07-24 01:33:59,2018-08-11 21:38:54,United States,,,
boondocks-brewing,Boondocks Brewing,brewpub,302 S Jefferson Ave,,,West Jefferson,North Carolina,,28694-,http://www.boondocksbrew.com,3362465222,2018-07-24 01:33:55,2018-08-24 15:41:14,United States,-81.49133567,36.39941459,
red-oak-brewing-co,Red Oak Brewing Co,regional,6901 Konica Dr,,,Whitsett,North Carolina,,27377-9787,http://www.redoakbrewery.com,3362993649,2018-07-24 01:33:58,2018-08-11 21:38:52,United States,,,
flytrap-brewing,Flytrap Brewing,micro,319 Walnut St,,,Wilmington,North Carolina,,28401-4051,http://flytrapbrewing.com,9107692881,2018-07-24 01:33:56,2018-08-24 15:41:41,United States,-77.94545788,34.24034335,
brewery-in-planning-hendersonville,Brewery in Planning - Hendersonville,planning,,,,Wilmington,North Carolina,,28403,,2526363543,2018-07-24 01:33:55,2018-08-11 21:38:46,United States,,,
bills-brewing-co,Bill's Brewing Co.,brewpub,4238 Market St.,,,Wilmington,North Carolina,,28403,http://www.billsfrontporch.com,9107626333,2018-07-24 01:33:55,2018-08-24 15:41:07,United States,-77.892361,34.242224,
bills-front-porch-pub-and-brewery,Bill's Front Porch Pub and Brewery,brewpub,4238 Market St,,,Wilmington,North Carolina,,28403-1409,http://www.billsfrontporch.com,9107626333,2018-07-24 01:33:55,2018-08-24 15:41:08,United States,-77.892361,34.242224,
broomtail-craft-brewery,Broomtail Craft Brewery,micro,6404 Amsterdam Way Ste 100,,,Wilmington,North Carolina,,28405-2563,http://www.broomtailcraftbrewery.com,9102641369,2018-07-24 01:33:56,2018-08-11 21:38:46,United States,,,
flying-machine-brewing-company,Flying Machine Brewing Company,planning,,,,Wilmington,North Carolina,,28403,http://www.facebook.com/flyingmachinebrewing,,2018-07-24 01:33:56,2018-08-11 21:38:48,United States,,,
edward-teach-brewing,Edward Teach Brewing,micro,604 N 4th St,,,Wilmington,North Carolina,,28401,,9105235401,2018-07-24 01:33:56,2018-08-24 15:41:38,United States,-77.945422,34.242576,
front-street-brewery,Front Street Brewery,brewpub,9 N Front St,,,Wilmington,North Carolina,,28401-4436,http://www.frontstreetbrewery.com,9102511935,2018-07-24 01:33:56,2018-08-24 15:41:45,United States,-77.94886883,34.2357825,
ironclad-brewery,Ironclad Brewery,micro,115 N 2nd St,,,Wilmington,North Carolina,,28401-3936,http://www.ironcladbrewery.com,9107690290,2018-07-24 01:33:57,2018-08-24 15:42:00,United States,-77.94767214,34.23671629,
mad-mole-brewing-llc,Mad Mole Brewing LLC,micro,6309 Boathouse Rd Ste C,,,Wilmington,North Carolina,,28403-3576,http://www.madmolebrewing.com,9108598115,2018-07-24 01:33:57,2018-08-11 21:38:50,United States,,,
new-anthem-beer-project,New Anthem Beer Project,micro,116 Dock St,,,Wilmington,North Carolina,,28401-4433,http://www.newanthembeer.com,9103994683,2018-07-24 01:33:57,2018-08-24 15:42:19,United States,-77.94826959,34.23413971,
tek-mountain-brewing,Tek Mountain Brewing,micro,1844 Sir Tyler Dr,,,Wilmington,North Carolina,,28405-8305,http://www.facebook.com/groups/TekMountainBrewing/,9104705334,2018-07-24 01:33:58,2018-08-24 15:42:48,United States,-77.8239017,34.24224042,
watermans-brewing-co,Waterman's Brewing Co,brewpub,1610 Pavillion Pl,,,Wilmington,North Carolina,,28403-3735,http://www.watermansbrewing.com,9108393103,2018-07-24 01:33:59,2018-08-11 21:38:54,United States,,,
waterline-brewing-co,Waterline Brewing Co.,micro,721 Surrey St,,,Wilmington,North Carolina,,28401-5043,http://www.waterlinebrewing.com,9107778955,2018-07-24 01:33:59,2018-08-24 15:43:01,United States,-77.94884067,34.22609746,
wilmington-brewing-company,Wilmington Brewing Company,micro,824 S Kerr Ave,,,Wilmington,North Carolina,,28403-8426,http://www.wilmingtonbeer.com,9103923315,2018-07-24 01:33:59,2018-08-24 15:43:08,United States,-77.88680231,34.2213165,
wrightsville-beach-brewery,Wrightsville Beach Brewery,brewpub,6201 Oleander Dr,,,Wilmington,North Carolina,,28403-3535,http://www.wbbeer.com,9102564938,2018-07-24 01:33:59,2018-08-24 15:43:09,United States,-77.836851,34.210452000000004,
217-brew-works,217 Brew Works,micro,217 South St S,,,Wilson,North Carolina,,27893-4911,,2529916959,2018-07-24 01:33:55,2018-08-24 15:40:57,United States,-77.9120318,35.7227625,
brewery-in-planning-winston-salem,Brewery in Planning - Winston Salem,planning,,,,Winston Salem,North Carolina,,27106-5015,,3366922022,2018-07-24 01:33:56,2018-08-11 21:38:46,United States,,,
cavern-brewing-at-lowes-foods,Cavern Brewing At Lowes Foods,brewpub,1381 Old Mill Cir Ste 200,,,Winston Salem,North Carolina,,27103-1497,http://www.lowesfoods.com,3367753007,2018-07-24 01:33:56,2018-08-11 21:38:47,United States,,,
fiddlin-fish-brewing-company,Fiddlin' Fish Brewing Company,micro,772 N Trade St.,,,Winston Salem,North Carolina,,27101,http://www.fiddlinfish.com,3364079671,2018-07-24 01:33:56,2018-08-11 21:38:48,United States,,,
foothills-brewing-co,Foothills Brewing Co,regional,3800 Kimwell Dr,,,Winston Salem,North Carolina,,27103-6708,http://www.foothillsbrewing.com,3363544030,2018-07-24 01:33:56,2018-08-24 15:41:42,United States,-80.32680515,36.04816426,
foothills-brewing-co-brewpub,Foothills Brewing Co Brewpub,brewpub,638 W 4th St,,,Winston Salem,North Carolina,,27101-2730,http://www.foothillsbrewing.com,3367773348,2018-07-24 01:33:56,2018-08-24 15:41:42,United States,-80.25085212,36.0976512,
hoots-beer-co,HOOTS Beer Co.,micro,840 Mill Works St,,,Winston Salem,North Carolina,,27101-1243,http://www.hootspublic.com,3366086026,2018-07-24 01:33:57,2018-08-11 21:38:49,United States,,,
small-batch-beer-co,Small Batch Beer Co,brewpub,241 W 5th St,,,Winston Salem,North Carolina,,27101-2825,http://www.smallbatchws.com,3368936395,2018-07-24 01:33:58,2018-08-24 15:42:41,United States,-80.24656194,36.09984057,
wise-man-brewing,Wise Man Brewing,micro,826 Angelo Brothers Ave,,,Winston-Salem,North Carolina,,27101,http://www.wisemanbrewing.com,3367250008,2018-07-24 01:33:59,2018-08-11 21:38:54,United States,,,
incendiary-brewing-company,Incendiary Brewing Company,planning,,,,Winston Salem,North Carolina,,27101,http://www.incendiarybrewing.com,3369999999,2018-07-24 01:33:57,2018-08-11 21:38:49,United States,,,
zillicoah-beer-company,Zillicoah Beer Company,proprietor,870 Riverside Dr,,,Woodfin,North Carolina,,28804-3222,,8284846502,2018-07-24 01:33:59,2018-08-24 15:43:11,United States,-82.57561089,35.61776547,
white-street-brewing-company-production-facility,White Street Brewing Company - Production Facility,micro,400 Park Ave,,,Youngsville,North Carolina,,27596-8688,,9196479439,2018-07-24 01:33:59,2018-08-24 15:43:06,United States,-78.48610616,36.03960848,